{
    "type": "FeatureCollection",
    "features": [
        {
            "type": "Feature",
            "properties": {
                "id": "23338",
                "name": "Bligny-le-Sec",
                "icon": 31
            },
            "geometry": {
                "type": "Point",
                "coordinates": [
                    4.741611778736115,
                    47.44436130115432
                ]
            }
        },
        {
            "type": "Feature",
            "properties": {
                "id": "23228",
                "name": "Dijon",
                "icon": 31
            },
            "geometry": {
                "type": "Point",
                "coordinates": [
                    5.007611811161042,
                    47.324279653169505
                ]
            }
        },
        {
            "type": "Feature",
            "properties": {
                "id": "23225",
                "name": "Dijon",
                "icon": 31
            },
            "geometry": {
                "type": "Point",
                "coordinates": [
                    5.018383562564851,
                    47.31292602646728
                ]
            }
        },
        {
            "type": "Feature",
            "properties": {
                "id": "23223",
                "name": "Dijon",
                "icon": 31
            },
            "geometry": {
                "type": "Point",
                "coordinates": [
                    5.024515092372895,
                    47.30678634218896
                ]
            }
        },
        {
            "type": "Feature",
            "properties": {
                "id": "23195",
                "name": "Saint-Seine-l'Abbaye",
                "icon": 31
            },
            "geometry": {
                "type": "Point",
                "coordinates": [
                    4.787735044956208,
                    47.4398279357514
                ]
            }
        },
        {
            "type": "Feature",
            "properties": {
                "id": "23192",
                "name": "Dijon",
                "icon": 31
            },
            "geometry": {
                "type": "Point",
                "coordinates": [
                    5.0574901700019845,
                    47.31495727564162
                ]
            }
        },
        {
            "type": "Feature",
            "properties": {
                "id": "23190",
                "name": "Dijon",
                "icon": 31
            },
            "geometry": {
                "type": "Point",
                "coordinates": [
                    5.0600382685661325,
                    47.312866015232636
                ]
            }
        },
        {
            "type": "Feature",
            "properties": {
                "id": "23181",
                "name": "Dijon",
                "icon": 31
            },
            "geometry": {
                "type": "Point",
                "coordinates": [
                    5.041209161281587,
                    47.30112432472705
                ]
            }
        },
        {
            "type": "Feature",
            "properties": {
                "id": "23178",
                "name": "Dijon",
                "icon": 31
            },
            "geometry": {
                "type": "Point",
                "coordinates": [
                    5.043081343173982,
                    47.30794668078224
                ]
            }
        },
        {
            "type": "Feature",
            "properties": {
                "id": "23124",
                "name": "Saint-Igny-de-Roche",
                "icon": 91
            },
            "geometry": {
                "type": "Point",
                "coordinates": [
                    4.296271204948426,
                    46.193369250405134
                ]
            }
        },
        {
            "type": "Feature",
            "properties": {
                "id": "22702",
                "name": "Saunières",
                "icon": 91
            },
            "geometry": {
                "type": "Point",
                "coordinates": [
                    5.083030164241792,
                    46.90352663033701
                ]
            }
        },
        {
            "type": "Feature",
            "properties": {
                "id": "22700",
                "name": "Luxeuil-les-Bains",
                "icon": 90
            },
            "geometry": {
                "type": "Point",
                "coordinates": [
                    6.37759566307068,
                    47.82063812534101
                ]
            }
        },
        {
            "type": "Feature",
            "properties": {
                "id": "22683",
                "name": "Marizy",
                "icon": 91
            },
            "geometry": {
                "type": "Point",
                "coordinates": [
                    4.407735764980317,
                    46.566969133211764
                ]
            }
        },
        {
            "type": "Feature",
            "properties": {
                "id": "22680",
                "name": "Saint-Agnan",
                "icon": 78
            },
            "geometry": {
                "type": "Point",
                "coordinates": [
                    4.094893634319306,
                    47.317859444266915
                ]
            }
        },
        {
            "type": "Feature",
            "properties": {
                "id": "22513",
                "name": "Poligny",
                "icon": 49
            },
            "geometry": {
                "type": "Point",
                "coordinates": [
                    5.7039132714271545,
                    46.8383853159985
                ]
            }
        },
        {
            "type": "Feature",
            "properties": {
                "id": "22510",
                "name": "Poligny",
                "icon": 49
            },
            "geometry": {
                "type": "Point",
                "coordinates": [
                    5.704066157341003,
                    46.83350088811915
                ]
            }
        },
        {
            "type": "Feature",
            "properties": {
                "id": "22431",
                "name": "Quetigny",
                "icon": 31
            },
            "geometry": {
                "type": "Point",
                "coordinates": [
                    5.109758377075196,
                    47.309467085899925
                ]
            }
        },
        {
            "type": "Feature",
            "properties": {
                "id": "22418",
                "name": "Dijon",
                "icon": 31
            },
            "geometry": {
                "type": "Point",
                "coordinates": [
                    5.051927268505097,
                    47.336014381925125
                ]
            }
        },
        {
            "type": "Feature",
            "properties": {
                "id": "22415",
                "name": "Dijon",
                "icon": 31
            },
            "geometry": {
                "type": "Point",
                "coordinates": [
                    5.044337958097459,
                    47.33944068537575
                ]
            }
        },
        {
            "type": "Feature",
            "properties": {
                "id": "22410",
                "name": "Dijon",
                "icon": 31
            },
            "geometry": {
                "type": "Point",
                "coordinates": [
                    5.0527963042259225,
                    47.35548409622629
                ]
            }
        },
        {
            "type": "Feature",
            "properties": {
                "id": "22408",
                "name": "Dijon",
                "icon": 31
            },
            "geometry": {
                "type": "Point",
                "coordinates": [
                    5.04400134086609,
                    47.32691587661776
                ]
            }
        },
        {
            "type": "Feature",
            "properties": {
                "id": "22398",
                "name": "Dijon",
                "icon": 31
            },
            "geometry": {
                "type": "Point",
                "coordinates": [
                    5.034441947937013,
                    47.31526641146354
                ]
            }
        },
        {
            "type": "Feature",
            "properties": {
                "id": "22389",
                "name": "Salmaise",
                "icon": 31
            },
            "geometry": {
                "type": "Point",
                "coordinates": [
                    4.660670757293702,
                    47.45694528344646
                ]
            }
        },
        {
            "type": "Feature",
            "properties": {
                "id": "22387",
                "name": "Verrey-sous-Salmaise",
                "icon": 31
            },
            "geometry": {
                "type": "Point",
                "coordinates": [
                    4.666818380355836,
                    47.43841287976077
                ]
            }
        },
        {
            "type": "Feature",
            "properties": {
                "id": "22385",
                "name": "Autun",
                "icon": 91
            },
            "geometry": {
                "type": "Point",
                "coordinates": [
                    4.298682510852815,
                    46.949575626154584
                ]
            }
        },
        {
            "type": "Feature",
            "properties": {
                "id": "22183",
                "name": "Thoiria",
                "icon": 49
            },
            "geometry": {
                "type": "Point",
                "coordinates": [
                    5.736343860626221,
                    46.53367408027797
                ]
            }
        },
        {
            "type": "Feature",
            "properties": {
                "id": "22179",
                "name": "Dijon",
                "icon": 31
            },
            "geometry": {
                "type": "Point",
                "coordinates": [
                    5.059453547000886,
                    47.32906839184521
                ]
            }
        },
        {
            "type": "Feature",
            "properties": {
                "id": "22176",
                "name": "Dijon",
                "icon": 31
            },
            "geometry": {
                "type": "Point",
                "coordinates": [
                    5.052418112754823,
                    47.33023187706638
                ]
            }
        },
        {
            "type": "Feature",
            "properties": {
                "id": "22174",
                "name": "Dijon",
                "icon": 31
            },
            "geometry": {
                "type": "Point",
                "coordinates": [
                    5.0610360503196725,
                    47.334665611571616
                ]
            }
        },
        {
            "type": "Feature",
            "properties": {
                "id": "22172",
                "name": "Dijon",
                "icon": 31
            },
            "geometry": {
                "type": "Point",
                "coordinates": [
                    5.064887702465058,
                    47.3291174768958
                ]
            }
        },
        {
            "type": "Feature",
            "properties": {
                "id": "22167",
                "name": "Dijon",
                "icon": 31
            },
            "geometry": {
                "type": "Point",
                "coordinates": [
                    5.065638720989227,
                    47.33126808451284
                ]
            }
        },
        {
            "type": "Feature",
            "properties": {
                "id": "22165",
                "name": "Dijon",
                "icon": 31
            },
            "geometry": {
                "type": "Point",
                "coordinates": [
                    5.07146716117859,
                    47.3235596685837
                ]
            }
        },
        {
            "type": "Feature",
            "properties": {
                "id": "22160",
                "name": "Dijon",
                "icon": 31
            },
            "geometry": {
                "type": "Point",
                "coordinates": [
                    5.049832463264466,
                    47.32705950156432
                ]
            }
        },
        {
            "type": "Feature",
            "properties": {
                "id": "22159",
                "name": "Dijon",
                "icon": 31
            },
            "geometry": {
                "type": "Point",
                "coordinates": [
                    5.038787126541139,
                    47.32553596640827
                ]
            }
        },
        {
            "type": "Feature",
            "properties": {
                "id": "22104",
                "name": "Sornay",
                "icon": 91
            },
            "geometry": {
                "type": "Point",
                "coordinates": [
                    5.180297791957855,
                    46.62648772835896
                ]
            }
        },
        {
            "type": "Feature",
            "properties": {
                "id": "21475",
                "name": "Avallon",
                "icon": 109
            },
            "geometry": {
                "type": "Point",
                "coordinates": [
                    3.909091651439667,
                    47.49171785243017
                ]
            }
        },
        {
            "type": "Feature",
            "properties": {
                "id": "21132",
                "name": "Sombacour",
                "icon": 35
            },
            "geometry": {
                "type": "Point",
                "coordinates": [
                    6.25822,
                    46.95203
                ]
            }
        },
        {
            "type": "Feature",
            "properties": {
                "id": "21130",
                "name": "Goux-les-Usiers",
                "icon": 35
            },
            "geometry": {
                "type": "Point",
                "coordinates": [
                    6.27625,
                    46.97047
                ]
            }
        },
        {
            "type": "Feature",
            "properties": {
                "id": "21128",
                "name": "Billy-sur-Oisy",
                "icon": 78
            },
            "geometry": {
                "type": "Point",
                "coordinates": [
                    3.43396,
                    47.49771
                ]
            }
        },
        {
            "type": "Feature",
            "properties": {
                "id": "21066",
                "name": "Labergement-Sainte-Marie",
                "icon": 35
            },
            "geometry": {
                "type": "Point",
                "coordinates": [
                    6.28226,
                    46.77429
                ]
            }
        },
        {
            "type": "Feature",
            "properties": {
                "id": "21064",
                "name": "Hauteroche",
                "icon": 49
            },
            "geometry": {
                "type": "Point",
                "coordinates": [
                    5.64446,
                    46.71386
                ]
            }
        },
        {
            "type": "Feature",
            "properties": {
                "id": "21058",
                "name": "Foncine-le-Bas",
                "icon": 49
            },
            "geometry": {
                "type": "Point",
                "coordinates": [
                    6.0304,
                    46.63718
                ]
            }
        },
        {
            "type": "Feature",
            "properties": {
                "id": "20933",
                "name": "Bussières",
                "icon": 91
            },
            "geometry": {
                "type": "Point",
                "coordinates": [
                    4.70733,
                    46.33793
                ]
            }
        },
        {
            "type": "Feature",
            "properties": {
                "id": "20923",
                "name": "Bligny-sur-Ouche",
                "icon": 31
            },
            "geometry": {
                "type": "Point",
                "coordinates": [
                    4.6698,
                    47.10548
                ]
            }
        },
        {
            "type": "Feature",
            "properties": {
                "id": "20921",
                "name": "Sombernon",
                "icon": 31
            },
            "geometry": {
                "type": "Point",
                "coordinates": [
                    4.70964,
                    47.30881
                ]
            }
        },
        {
            "type": "Feature",
            "properties": {
                "id": "20917",
                "name": "Beire-le-Châtel",
                "icon": 31
            },
            "geometry": {
                "type": "Point",
                "coordinates": [
                    5.2056,
                    47.41102
                ]
            }
        },
        {
            "type": "Feature",
            "properties": {
                "id": "20915",
                "name": "Bézouotte",
                "icon": 31
            },
            "geometry": {
                "type": "Point",
                "coordinates": [
                    5.33399,
                    47.38253
                ]
            }
        },
        {
            "type": "Feature",
            "properties": {
                "id": "20913",
                "name": "Bretigny",
                "icon": 31
            },
            "geometry": {
                "type": "Point",
                "coordinates": [
                    5.09999,
                    47.39796
                ]
            }
        },
        {
            "type": "Feature",
            "properties": {
                "id": "20910",
                "name": "Bruailles",
                "icon": 91
            },
            "geometry": {
                "type": "Point",
                "coordinates": [
                    5.24919,
                    46.59735
                ]
            }
        },
        {
            "type": "Feature",
            "properties": {
                "id": "20855",
                "name": "Bouhans-et-Feurg",
                "icon": 90
            },
            "geometry": {
                "type": "Point",
                "coordinates": [
                    5.5043,
                    47.47684
                ]
            }
        },
        {
            "type": "Feature",
            "properties": {
                "id": "20764",
                "name": "Autoreille",
                "icon": 90
            },
            "geometry": {
                "type": "Point",
                "coordinates": [
                    5.80947,
                    47.36939
                ]
            }
        },
        {
            "type": "Feature",
            "properties": {
                "id": "20642",
                "name": "Domblans",
                "icon": 49
            },
            "geometry": {
                "type": "Point",
                "coordinates": [
                    4.60273,
                    46.67165
                ]
            }
        },
        {
            "type": "Feature",
            "properties": {
                "id": "20640",
                "name": "Domblans",
                "icon": 49
            },
            "geometry": {
                "type": "Point",
                "coordinates": [
                    5.59716,
                    46.76338
                ]
            }
        },
        {
            "type": "Feature",
            "properties": {
                "id": "20638",
                "name": "Faucogney-et-la-Mer",
                "icon": 90
            },
            "geometry": {
                "type": "Point",
                "coordinates": [
                    6.56249,
                    47.84144
                ]
            }
        },
        {
            "type": "Feature",
            "properties": {
                "id": "20463",
                "name": "Bart",
                "icon": 35
            },
            "geometry": {
                "type": "Point",
                "coordinates": [
                    6.76834,
                    47.49177
                ]
            }
        },
        {
            "type": "Feature",
            "properties": {
                "id": "20461",
                "name": "Buc (90)",
                "icon": 110
            },
            "geometry": {
                "type": "Point",
                "coordinates": [
                    6.78541,
                    47.61433
                ]
            }
        },
        {
            "type": "Feature",
            "properties": {
                "id": "20437",
                "name": "Saint-Saulge",
                "icon": 78
            },
            "geometry": {
                "type": "Point",
                "coordinates": [
                    3.51208,
                    47.10491
                ]
            }
        },
        {
            "type": "Feature",
            "properties": {
                "id": "20435",
                "name": "Auxerre",
                "icon": 109
            },
            "geometry": {
                "type": "Point",
                "coordinates": [
                    3.55334,
                    47.79681
                ]
            }
        },
        {
            "type": "Feature",
            "properties": {
                "id": "20423",
                "name": "Chevigny-Saint-Sauveur",
                "icon": 31
            },
            "geometry": {
                "type": "Point",
                "coordinates": [
                    5.13494,
                    47.29898
                ]
            }
        },
        {
            "type": "Feature",
            "properties": {
                "id": "20421",
                "name": "Offlanges",
                "icon": 49
            },
            "geometry": {
                "type": "Point",
                "coordinates": [
                    5.54962,
                    47.20701
                ]
            }
        },
        {
            "type": "Feature",
            "properties": {
                "id": "20419",
                "name": "Billey",
                "icon": 31
            },
            "geometry": {
                "type": "Point",
                "coordinates": [
                    5.43118,
                    47.14532
                ]
            }
        },
        {
            "type": "Feature",
            "properties": {
                "id": "20307",
                "name": "Le Val",
                "icon": 35
            },
            "geometry": {
                "type": "Point",
                "coordinates": [
                    5.901468694210053,
                    47.06332912551561
                ]
            }
        },
        {
            "type": "Feature",
            "properties": {
                "id": "20305",
                "name": "Villars Saint-Georges",
                "icon": 35
            },
            "geometry": {
                "type": "Point",
                "coordinates": [
                    5.828536748886108,
                    47.12519509362225
                ]
            }
        },
        {
            "type": "Feature",
            "properties": {
                "id": "20303",
                "name": "Mouchard",
                "icon": 49
            },
            "geometry": {
                "type": "Point",
                "coordinates": [
                    5.79819,
                    46.97657
                ]
            }
        },
        {
            "type": "Feature",
            "properties": {
                "id": "20296",
                "name": "Le Russey",
                "icon": 35
            },
            "geometry": {
                "type": "Point",
                "coordinates": [
                    6.72946,
                    47.16299
                ]
            }
        },
        {
            "type": "Feature",
            "properties": {
                "id": "20246",
                "name": "Saint-Symphorien-sur-Saône",
                "icon": 31
            },
            "geometry": {
                "type": "Point",
                "coordinates": [
                    5.30464,
                    47.10275
                ]
            }
        },
        {
            "type": "Feature",
            "properties": {
                "id": "20225",
                "name": "Crissey",
                "icon": 91
            },
            "geometry": {
                "type": "Point",
                "coordinates": [
                    4.8823,
                    46.81667
                ]
            }
        },
        {
            "type": "Feature",
            "properties": {
                "id": "20223",
                "name": "Saint-Bérain-sur-Dheune",
                "icon": 91
            },
            "geometry": {
                "type": "Point",
                "coordinates": [
                    4.60085,
                    46.82306
                ]
            }
        },
        {
            "type": "Feature",
            "properties": {
                "id": "20221",
                "name": "Saint-Julien-sur-Dheune",
                "icon": 91
            },
            "geometry": {
                "type": "Point",
                "coordinates": [
                    4.54393,
                    46.77326
                ]
            }
        },
        {
            "type": "Feature",
            "properties": {
                "id": "20219",
                "name": "Ciry-le-Noble",
                "icon": 91
            },
            "geometry": {
                "type": "Point",
                "coordinates": [
                    4.30036,
                    46.60668
                ]
            }
        },
        {
            "type": "Feature",
            "properties": {
                "id": "20215",
                "name": "Pouilly-sur-Loire",
                "icon": 78
            },
            "geometry": {
                "type": "Point",
                "coordinates": [
                    2.95597,
                    47.28398
                ]
            }
        },
        {
            "type": "Feature",
            "properties": {
                "id": "19887",
                "name": "Preigney",
                "icon": 90
            },
            "geometry": {
                "type": "Point",
                "coordinates": [
                    5.77487,
                    47.76247
                ]
            }
        },
        {
            "type": "Feature",
            "properties": {
                "id": "19783",
                "name": "Les Siéges",
                "icon": 109
            },
            "geometry": {
                "type": "Point",
                "coordinates": [
                    3.51753,
                    48.18103
                ]
            }
        },
        {
            "type": "Feature",
            "properties": {
                "id": "19482",
                "name": "Foncine-le-Haut",
                "icon": 49
            },
            "geometry": {
                "type": "Point",
                "coordinates": [
                    6.07444,
                    46.65998
                ]
            }
        },
        {
            "type": "Feature",
            "properties": {
                "id": "19480",
                "name": "La Frasnée",
                "icon": 49
            },
            "geometry": {
                "type": "Point",
                "coordinates": [
                    5.8108,
                    46.55704
                ]
            }
        },
        {
            "type": "Feature",
            "properties": {
                "id": "19478",
                "name": "Saint-Maurice-Crillat",
                "icon": 49
            },
            "geometry": {
                "type": "Point",
                "coordinates": [
                    5.80309,
                    46.57383
                ]
            }
        },
        {
            "type": "Feature",
            "properties": {
                "id": "19451",
                "name": "Bavilliers",
                "icon": 110
            },
            "geometry": {
                "type": "Point",
                "coordinates": [
                    6.83113,
                    47.61931
                ]
            }
        },
        {
            "type": "Feature",
            "properties": {
                "id": "19299",
                "name": "La Tour-du-Meix",
                "icon": 49
            },
            "geometry": {
                "type": "Point",
                "coordinates": [
                    5.66071,
                    46.52691
                ]
            }
        },
        {
            "type": "Feature",
            "properties": {
                "id": "19254",
                "name": "Fontaine",
                "icon": 110
            },
            "geometry": {
                "type": "Point",
                "coordinates": [
                    6.99718,
                    47.65727
                ]
            }
        },
        {
            "type": "Feature",
            "properties": {
                "id": "19188",
                "name": "Buxy",
                "icon": 91
            },
            "geometry": {
                "type": "Point",
                "coordinates": [
                    4.69451,
                    46.71278
                ]
            }
        },
        {
            "type": "Feature",
            "properties": {
                "id": "19185",
                "name": "Saint-Loup-Géanges",
                "icon": 91
            },
            "geometry": {
                "type": "Point",
                "coordinates": [
                    4.90885,
                    46.95841
                ]
            }
        },
        {
            "type": "Feature",
            "properties": {
                "id": "18306",
                "name": "Grosne",
                "icon": 110
            },
            "geometry": {
                "type": "Point",
                "coordinates": [
                    6.99904,
                    47.57519
                ]
            }
        },
        {
            "type": "Feature",
            "properties": {
                "id": "18304",
                "name": "Beaucourt",
                "icon": 110
            },
            "geometry": {
                "type": "Point",
                "coordinates": [
                    6.92514,
                    47.4862
                ]
            }
        },
        {
            "type": "Feature",
            "properties": {
                "id": "18302",
                "name": "Croix (90)",
                "icon": 110
            },
            "geometry": {
                "type": "Point",
                "coordinates": [
                    6.954364478588105,
                    47.44590498708228
                ]
            }
        },
        {
            "type": "Feature",
            "properties": {
                "id": "18300",
                "name": "Saint-Dizier-l'Évêque",
                "icon": 110
            },
            "geometry": {
                "type": "Point",
                "coordinates": [
                    6.96324,
                    47.47097
                ]
            }
        },
        {
            "type": "Feature",
            "properties": {
                "id": "18144",
                "name": "Serre-les-Sapins",
                "icon": 35
            },
            "geometry": {
                "type": "Point",
                "coordinates": [
                    5.92616,
                    47.23804
                ]
            }
        },
        {
            "type": "Feature",
            "properties": {
                "id": "18074",
                "name": "Dijon",
                "icon": 31
            },
            "geometry": {
                "type": "Point",
                "coordinates": [
                    5.02364,
                    47.32226
                ]
            }
        },
        {
            "type": "Feature",
            "properties": {
                "id": "17955",
                "name": "Port-Lesney",
                "icon": 49
            },
            "geometry": {
                "type": "Point",
                "coordinates": [
                    5.82425,
                    47.00165
                ]
            }
        },
        {
            "type": "Feature",
            "properties": {
                "id": "17804",
                "name": "Pusey",
                "icon": 90
            },
            "geometry": {
                "type": "Point",
                "coordinates": [
                    6.12738,
                    47.65203
                ]
            }
        },
        {
            "type": "Feature",
            "properties": {
                "id": "17770",
                "name": "Roppe",
                "icon": 110
            },
            "geometry": {
                "type": "Point",
                "coordinates": [
                    6.91935,
                    47.6707
                ]
            }
        },
        {
            "type": "Feature",
            "properties": {
                "id": "17394",
                "name": "Buffard",
                "icon": 35
            },
            "geometry": {
                "type": "Point",
                "coordinates": [
                    5.82298,
                    47.03656
                ]
            }
        },
        {
            "type": "Feature",
            "properties": {
                "id": "17370",
                "name": "Brey-et-Maison-du-Bois",
                "icon": 35
            },
            "geometry": {
                "type": "Point",
                "coordinates": [
                    6.25155,
                    46.74429
                ]
            }
        },
        {
            "type": "Feature",
            "properties": {
                "id": "17359",
                "name": "Bragny-sur-Saône",
                "icon": 91
            },
            "geometry": {
                "type": "Point",
                "coordinates": [
                    5.03318,
                    46.91223
                ]
            }
        },
        {
            "type": "Feature",
            "properties": {
                "id": "17352",
                "name": "Bissy-sur-Fley",
                "icon": 91
            },
            "geometry": {
                "type": "Point",
                "coordinates": [
                    4.62224,
                    46.66052
                ]
            }
        },
        {
            "type": "Feature",
            "properties": {
                "id": "17269",
                "name": "Beaufort-Orbagna",
                "icon": 49
            },
            "geometry": {
                "type": "Point",
                "coordinates": [
                    5.4497,
                    46.58101
                ]
            }
        },
        {
            "type": "Feature",
            "properties": {
                "id": "16925",
                "name": "Larivière",
                "icon": 110
            },
            "geometry": {
                "type": "Point",
                "coordinates": [
                    6.99814,
                    47.6731
                ]
            }
        },
        {
            "type": "Feature",
            "properties": {
                "id": "16649",
                "name": "Autrey-le-Vay",
                "icon": 90
            },
            "geometry": {
                "type": "Point",
                "coordinates": [
                    6.40242,
                    47.5381
                ]
            }
        },
        {
            "type": "Feature",
            "properties": {
                "id": "16604",
                "name": "Broissia",
                "icon": 49
            },
            "geometry": {
                "type": "Point",
                "coordinates": [
                    5.43046,
                    46.35965
                ]
            }
        },
        {
            "type": "Feature",
            "properties": {
                "id": "16522",
                "name": "Beaufort-Orbagna",
                "icon": 49
            },
            "geometry": {
                "type": "Point",
                "coordinates": [
                    5.4374,
                    46.57578
                ]
            }
        },
        {
            "type": "Feature",
            "properties": {
                "id": "16274",
                "name": "Bourbon-Lancy",
                "icon": 91
            },
            "geometry": {
                "type": "Point",
                "coordinates": [
                    3.75154,
                    46.62518
                ]
            }
        },
        {
            "type": "Feature",
            "properties": {
                "id": "16140",
                "name": "Bellefontaine",
                "icon": 49
            },
            "geometry": {
                "type": "Point",
                "coordinates": [
                    6.0658,
                    46.55827
                ]
            }
        },
        {
            "type": "Feature",
            "properties": {
                "id": "16117",
                "name": "Bourbon-Lancy",
                "icon": 91
            },
            "geometry": {
                "type": "Point",
                "coordinates": [
                    3.76743,
                    46.61873
                ]
            }
        },
        {
            "type": "Feature",
            "properties": {
                "id": "16115",
                "name": "Bourbon-Lancy",
                "icon": 91
            },
            "geometry": {
                "type": "Point",
                "coordinates": [
                    3.74974,
                    46.62681
                ]
            }
        },
        {
            "type": "Feature",
            "properties": {
                "id": "16113",
                "name": "Bourbon-Lancy",
                "icon": 91
            },
            "geometry": {
                "type": "Point",
                "coordinates": [
                    3.75423,
                    46.62
                ]
            }
        },
        {
            "type": "Feature",
            "properties": {
                "id": "16111",
                "name": "Bourbon-Lancy",
                "icon": 91
            },
            "geometry": {
                "type": "Point",
                "coordinates": [
                    3.75806,
                    46.62307
                ]
            }
        },
        {
            "type": "Feature",
            "properties": {
                "id": "16109",
                "name": "Bourbon-Lancy",
                "icon": 91
            },
            "geometry": {
                "type": "Point",
                "coordinates": [
                    3.77569,
                    46.62079
                ]
            }
        },
        {
            "type": "Feature",
            "properties": {
                "id": "16107",
                "name": "Bourbon-Lancy",
                "icon": 91
            },
            "geometry": {
                "type": "Point",
                "coordinates": [
                    3.77344,
                    46.61865
                ]
            }
        },
        {
            "type": "Feature",
            "properties": {
                "id": "16104",
                "name": "Bourbon-Lancy",
                "icon": 91
            },
            "geometry": {
                "type": "Point",
                "coordinates": [
                    3.76656,
                    46.62032
                ]
            }
        },
        {
            "type": "Feature",
            "properties": {
                "id": "15944",
                "name": "Barretaine",
                "icon": 49
            },
            "geometry": {
                "type": "Point",
                "coordinates": [
                    5.72377,
                    46.81378
                ]
            }
        },
        {
            "type": "Feature",
            "properties": {
                "id": "15940",
                "name": "Barretaine",
                "icon": 49
            },
            "geometry": {
                "type": "Point",
                "coordinates": [
                    5.71001,
                    46.82057
                ]
            }
        },
        {
            "type": "Feature",
            "properties": {
                "id": "15912",
                "name": "Monéteau",
                "icon": 109
            },
            "geometry": {
                "type": "Point",
                "coordinates": [
                    3.55389,
                    47.84452
                ]
            }
        },
        {
            "type": "Feature",
            "properties": {
                "id": "15762",
                "name": "Saint-Cyr-Montmalin",
                "icon": 49
            },
            "geometry": {
                "type": "Point",
                "coordinates": [
                    5.72588,
                    46.95023
                ]
            }
        },
        {
            "type": "Feature",
            "properties": {
                "id": "15684",
                "name": "Toulon-sur-Arroux",
                "icon": 91
            },
            "geometry": {
                "type": "Point",
                "coordinates": [
                    4.13986,
                    46.69327
                ]
            }
        },
        {
            "type": "Feature",
            "properties": {
                "id": "15649",
                "name": "Bassou",
                "icon": 109
            },
            "geometry": {
                "type": "Point",
                "coordinates": [
                    3.51364,
                    47.92423
                ]
            }
        },
        {
            "type": "Feature",
            "properties": {
                "id": "15635",
                "name": "Beauvernois",
                "icon": 91
            },
            "geometry": {
                "type": "Point",
                "coordinates": [
                    5.44337,
                    46.83447
                ]
            }
        },
        {
            "type": "Feature",
            "properties": {
                "id": "15570",
                "name": "Berche",
                "icon": 35
            },
            "geometry": {
                "type": "Point",
                "coordinates": [
                    6.74243,
                    47.47354
                ]
            }
        },
        {
            "type": "Feature",
            "properties": {
                "id": "15568",
                "name": "Baume-les-Dames",
                "icon": 35
            },
            "geometry": {
                "type": "Point",
                "coordinates": [
                    6.35652,
                    47.34788
                ]
            }
        },
        {
            "type": "Feature",
            "properties": {
                "id": "15565",
                "name": "Baume-les-Dames",
                "icon": 35
            },
            "geometry": {
                "type": "Point",
                "coordinates": [
                    6.36167,
                    47.35251
                ]
            }
        },
        {
            "type": "Feature",
            "properties": {
                "id": "15510",
                "name": "Besançon",
                "icon": 35
            },
            "geometry": {
                "type": "Point",
                "coordinates": [
                    6.0437,
                    47.24559
                ]
            }
        },
        {
            "type": "Feature",
            "properties": {
                "id": "15508",
                "name": "Besançon",
                "icon": 35
            },
            "geometry": {
                "type": "Point",
                "coordinates": [
                    6.03125,
                    47.24258
                ]
            }
        },
        {
            "type": "Feature",
            "properties": {
                "id": "15506",
                "name": "Besançon",
                "icon": 35
            },
            "geometry": {
                "type": "Point",
                "coordinates": [
                    6.04639,
                    47.24276
                ]
            }
        },
        {
            "type": "Feature",
            "properties": {
                "id": "15251",
                "name": "Beine",
                "icon": 109
            },
            "geometry": {
                "type": "Point",
                "coordinates": [
                    3.71839,
                    47.81618
                ]
            }
        },
        {
            "type": "Feature",
            "properties": {
                "id": "15236",
                "name": "Anjoutey",
                "icon": 110
            },
            "geometry": {
                "type": "Point",
                "coordinates": [
                    6.93377,
                    47.7003
                ]
            }
        },
        {
            "type": "Feature",
            "properties": {
                "id": "15208",
                "name": "Besançon",
                "icon": 35
            },
            "geometry": {
                "type": "Point",
                "coordinates": [
                    6.04192,
                    47.22932
                ]
            }
        },
        {
            "type": "Feature",
            "properties": {
                "id": "15206",
                "name": "Besançon",
                "icon": 35
            },
            "geometry": {
                "type": "Point",
                "coordinates": [
                    6.03189,
                    47.23165
                ]
            }
        },
        {
            "type": "Feature",
            "properties": {
                "id": "15204",
                "name": "Besançon",
                "icon": 35
            },
            "geometry": {
                "type": "Point",
                "coordinates": [
                    6.03048,
                    47.26304
                ]
            }
        },
        {
            "type": "Feature",
            "properties": {
                "id": "15202",
                "name": "Besançon",
                "icon": 35
            },
            "geometry": {
                "type": "Point",
                "coordinates": [
                    6.01977,
                    47.25494
                ]
            }
        },
        {
            "type": "Feature",
            "properties": {
                "id": "15200",
                "name": "Besançon",
                "icon": 35
            },
            "geometry": {
                "type": "Point",
                "coordinates": [
                    6.01324,
                    47.23101
                ]
            }
        },
        {
            "type": "Feature",
            "properties": {
                "id": "15197",
                "name": "Besançon",
                "icon": 35
            },
            "geometry": {
                "type": "Point",
                "coordinates": [
                    6.00279,
                    47.24679
                ]
            }
        },
        {
            "type": "Feature",
            "properties": {
                "id": "15195",
                "name": "Besançon",
                "icon": 35
            },
            "geometry": {
                "type": "Point",
                "coordinates": [
                    5.99059,
                    47.23438
                ]
            }
        },
        {
            "type": "Feature",
            "properties": {
                "id": "15099",
                "name": "Autet",
                "icon": 90
            },
            "geometry": {
                "type": "Point",
                "coordinates": [
                    5.69582,
                    47.54223
                ]
            }
        },
        {
            "type": "Feature",
            "properties": {
                "id": "15038",
                "name": "Arpenans",
                "icon": 90
            },
            "geometry": {
                "type": "Point",
                "coordinates": [
                    6.40635,
                    47.61497
                ]
            }
        },
        {
            "type": "Feature",
            "properties": {
                "id": "14928",
                "name": "Arthonnay",
                "icon": 109
            },
            "geometry": {
                "type": "Point",
                "coordinates": [
                    4.22939,
                    47.93289
                ]
            }
        },
        {
            "type": "Feature",
            "properties": {
                "id": "14914",
                "name": "Auxerre",
                "icon": 109
            },
            "geometry": {
                "type": "Point",
                "coordinates": [
                    3.58146,
                    47.78174
                ]
            }
        },
        {
            "type": "Feature",
            "properties": {
                "id": "14912",
                "name": "Auxerre",
                "icon": 109
            },
            "geometry": {
                "type": "Point",
                "coordinates": [
                    3.58899,
                    47.79504
                ]
            }
        },
        {
            "type": "Feature",
            "properties": {
                "id": "14910",
                "name": "Auxerre",
                "icon": 109
            },
            "geometry": {
                "type": "Point",
                "coordinates": [
                    3.58488,
                    47.7981
                ]
            }
        },
        {
            "type": "Feature",
            "properties": {
                "id": "14908",
                "name": "Auxerre",
                "icon": 109
            },
            "geometry": {
                "type": "Point",
                "coordinates": [
                    3.56288,
                    47.787
                ]
            }
        },
        {
            "type": "Feature",
            "properties": {
                "id": "14906",
                "name": "Auxerre",
                "icon": 109
            },
            "geometry": {
                "type": "Point",
                "coordinates": [
                    3.55906,
                    47.79273
                ]
            }
        },
        {
            "type": "Feature",
            "properties": {
                "id": "14904",
                "name": "Auxerre",
                "icon": 109
            },
            "geometry": {
                "type": "Point",
                "coordinates": [
                    3.54767,
                    47.7932
                ]
            }
        },
        {
            "type": "Feature",
            "properties": {
                "id": "14902",
                "name": "Auxerre",
                "icon": 109
            },
            "geometry": {
                "type": "Point",
                "coordinates": [
                    3.5684,
                    47.79821
                ]
            }
        },
        {
            "type": "Feature",
            "properties": {
                "id": "14900",
                "name": "Auxerre",
                "icon": 109
            },
            "geometry": {
                "type": "Point",
                "coordinates": [
                    3.56021,
                    47.80136
                ]
            }
        },
        {
            "type": "Feature",
            "properties": {
                "id": "14898",
                "name": "Auxerre",
                "icon": 109
            },
            "geometry": {
                "type": "Point",
                "coordinates": [
                    3.54984,
                    47.79971
                ]
            }
        },
        {
            "type": "Feature",
            "properties": {
                "id": "14896",
                "name": "Auxerre",
                "icon": 109
            },
            "geometry": {
                "type": "Point",
                "coordinates": [
                    3.55387,
                    47.80831
                ]
            }
        },
        {
            "type": "Feature",
            "properties": {
                "id": "14894",
                "name": "Auxerre",
                "icon": 109
            },
            "geometry": {
                "type": "Point",
                "coordinates": [
                    3.57645,
                    47.81582
                ]
            }
        },
        {
            "type": "Feature",
            "properties": {
                "id": "14874",
                "name": "Arc-et-Senans",
                "icon": 35
            },
            "geometry": {
                "type": "Point",
                "coordinates": [
                    5.7827,
                    47.03343
                ]
            }
        },
        {
            "type": "Feature",
            "properties": {
                "id": "14872",
                "name": "Arcenant",
                "icon": 31
            },
            "geometry": {
                "type": "Point",
                "coordinates": [
                    4.84411,
                    47.13917
                ]
            }
        },
        {
            "type": "Feature",
            "properties": {
                "id": "14869",
                "name": "Arcey",
                "icon": 35
            },
            "geometry": {
                "type": "Point",
                "coordinates": [
                    6.66071,
                    47.52121
                ]
            }
        },
        {
            "type": "Feature",
            "properties": {
                "id": "14866",
                "name": "Arcey",
                "icon": 35
            },
            "geometry": {
                "type": "Point",
                "coordinates": [
                    6.65618,
                    47.52313
                ]
            }
        },
        {
            "type": "Feature",
            "properties": {
                "id": "14791",
                "name": "Ancy-le-Franc",
                "icon": 109
            },
            "geometry": {
                "type": "Point",
                "coordinates": [
                    4.15906,
                    47.76646
                ]
            }
        },
        {
            "type": "Feature",
            "properties": {
                "id": "14769",
                "name": "Asnières-lès-Dijon",
                "icon": 31
            },
            "geometry": {
                "type": "Point",
                "coordinates": [
                    5.04708,
                    47.38503
                ]
            }
        },
        {
            "type": "Feature",
            "properties": {
                "id": "14758",
                "name": "Arc-sur-Tille",
                "icon": 31
            },
            "geometry": {
                "type": "Point",
                "coordinates": [
                    5.18987,
                    47.34256
                ]
            }
        },
        {
            "type": "Feature",
            "properties": {
                "id": "14745",
                "name": "Annay-la-Côté",
                "icon": 109
            },
            "geometry": {
                "type": "Point",
                "coordinates": [
                    3.88626,
                    47.53463
                ]
            }
        },
        {
            "type": "Feature",
            "properties": {
                "id": "14593",
                "name": "Arc-sous-Montenot",
                "icon": 35
            },
            "geometry": {
                "type": "Point",
                "coordinates": [
                    6.00103,
                    46.91217
                ]
            }
        },
        {
            "type": "Feature",
            "properties": {
                "id": "14562",
                "name": "Annoire",
                "icon": 49
            },
            "geometry": {
                "type": "Point",
                "coordinates": [
                    5.27709,
                    46.95764
                ]
            }
        },
        {
            "type": "Feature",
            "properties": {
                "id": "14513",
                "name": "Andryes",
                "icon": 109
            },
            "geometry": {
                "type": "Point",
                "coordinates": [
                    3.48796,
                    47.51945
                ]
            }
        },
        {
            "type": "Feature",
            "properties": {
                "id": "14488",
                "name": "Anost",
                "icon": 91
            },
            "geometry": {
                "type": "Point",
                "coordinates": [
                    4.09914,
                    47.07675
                ]
            }
        },
        {
            "type": "Feature",
            "properties": {
                "id": "14486",
                "name": "Aluze",
                "icon": 91
            },
            "geometry": {
                "type": "Point",
                "coordinates": [
                    4.68493,
                    46.84681
                ]
            }
        },
        {
            "type": "Feature",
            "properties": {
                "id": "14466",
                "name": "Lantenot",
                "icon": 90
            },
            "geometry": {
                "type": "Point",
                "coordinates": [
                    6.49539,
                    47.74984
                ]
            }
        },
        {
            "type": "Feature",
            "properties": {
                "id": "14463",
                "name": "Amange",
                "icon": 49
            },
            "geometry": {
                "type": "Point",
                "coordinates": [
                    5.56489,
                    47.16537
                ]
            }
        },
        {
            "type": "Feature",
            "properties": {
                "id": "14449",
                "name": "Allenjoie",
                "icon": 35
            },
            "geometry": {
                "type": "Point",
                "coordinates": [
                    6.89698,
                    47.53388
                ]
            }
        },
        {
            "type": "Feature",
            "properties": {
                "id": "14435",
                "name": "Châtenoy-en-Bresse",
                "icon": 91
            },
            "geometry": {
                "type": "Point",
                "coordinates": [
                    4.91808,
                    46.78804
                ]
            }
        },
        {
            "type": "Feature",
            "properties": {
                "id": "14419",
                "name": "Allerey-sur-Saône",
                "icon": 91
            },
            "geometry": {
                "type": "Point",
                "coordinates": [
                    4.98144,
                    46.90547
                ]
            }
        },
        {
            "type": "Feature",
            "properties": {
                "id": "14391",
                "name": "Ainvelle",
                "icon": 90
            },
            "geometry": {
                "type": "Point",
                "coordinates": [
                    6.25015,
                    47.84592
                ]
            }
        },
        {
            "type": "Feature",
            "properties": {
                "id": "14389",
                "name": "Agencourt",
                "icon": 31
            },
            "geometry": {
                "type": "Point",
                "coordinates": [
                    4.97765,
                    47.12845
                ]
            }
        },
        {
            "type": "Feature",
            "properties": {
                "id": "14369",
                "name": "Achun",
                "icon": 78
            },
            "geometry": {
                "type": "Point",
                "coordinates": [
                    3.67992,
                    47.12464
                ]
            }
        },
        {
            "type": "Feature",
            "properties": {
                "id": "14366",
                "name": "Agey",
                "icon": 31
            },
            "geometry": {
                "type": "Point",
                "coordinates": [
                    4.76352,
                    47.28296
                ]
            }
        },
        {
            "type": "Feature",
            "properties": {
                "id": "14364",
                "name": "Agey",
                "icon": 31
            },
            "geometry": {
                "type": "Point",
                "coordinates": [
                    4.76761,
                    47.28443
                ]
            }
        },
        {
            "type": "Feature",
            "properties": {
                "id": "14355",
                "name": "Passavant",
                "icon": 35
            },
            "geometry": {
                "type": "Point",
                "coordinates": [
                    6.3823,
                    47.27526
                ]
            }
        },
        {
            "type": "Feature",
            "properties": {
                "id": "14353",
                "name": "Saint-Juan",
                "icon": 35
            },
            "geometry": {
                "type": "Point",
                "coordinates": [
                    6.35598,
                    47.28926
                ]
            }
        },
        {
            "type": "Feature",
            "properties": {
                "id": "14350",
                "name": "Abbans-Dessous",
                "icon": 35
            },
            "geometry": {
                "type": "Point",
                "coordinates": [
                    5.87419,
                    47.13418
                ]
            }
        },
        {
            "type": "Feature",
            "properties": {
                "id": "14202",
                "name": "Santans",
                "icon": 49
            },
            "geometry": {
                "type": "Point",
                "coordinates": [
                    5.66151,
                    47.02343
                ]
            }
        },
        {
            "type": "Feature",
            "properties": {
                "id": "13762",
                "name": "Chalon-sur-Saône",
                "icon": 91
            },
            "geometry": {
                "type": "Point",
                "coordinates": [
                    4.82403,
                    46.7789
                ]
            }
        },
        {
            "type": "Feature",
            "properties": {
                "id": "13760",
                "name": "Chalon-sur-Saône",
                "icon": 91
            },
            "geometry": {
                "type": "Point",
                "coordinates": [
                    4.83975,
                    46.78511
                ]
            }
        },
        {
            "type": "Feature",
            "properties": {
                "id": "13758",
                "name": "Mâcon",
                "icon": 91
            },
            "geometry": {
                "type": "Point",
                "coordinates": [
                    4.82373,
                    46.3055
                ]
            }
        },
        {
            "type": "Feature",
            "properties": {
                "id": "13756",
                "name": "Saint-Rémy (71)",
                "icon": 91
            },
            "geometry": {
                "type": "Point",
                "coordinates": [
                    4.83386,
                    46.77354
                ]
            }
        },
        {
            "type": "Feature",
            "properties": {
                "id": "13421",
                "name": "Champagney (39)",
                "icon": 49
            },
            "geometry": {
                "type": "Point",
                "coordinates": [
                    5.51653,
                    47.26005
                ]
            }
        },
        {
            "type": "Feature",
            "properties": {
                "id": "13330",
                "name": "Thiancourt",
                "icon": 110
            },
            "geometry": {
                "type": "Point",
                "coordinates": [
                    6.98841,
                    47.52278
                ]
            }
        },
        {
            "type": "Feature",
            "properties": {
                "id": "13319",
                "name": "Pérouse",
                "icon": 110
            },
            "geometry": {
                "type": "Point",
                "coordinates": [
                    6.89176,
                    47.63556
                ]
            }
        },
        {
            "type": "Feature",
            "properties": {
                "id": "13317",
                "name": "Autrechêne",
                "icon": 110
            },
            "geometry": {
                "type": "Point",
                "coordinates": [
                    6.96058,
                    47.59541
                ]
            }
        },
        {
            "type": "Feature",
            "properties": {
                "id": "13132",
                "name": "Courbouzon",
                "icon": 49
            },
            "geometry": {
                "type": "Point",
                "coordinates": [
                    5.53026,
                    46.65374
                ]
            }
        },
        {
            "type": "Feature",
            "properties": {
                "id": "13114",
                "name": "Saint-Germain-le-Châtelet",
                "icon": 110
            },
            "geometry": {
                "type": "Point",
                "coordinates": [
                    6.96063,
                    47.70329
                ]
            }
        },
        {
            "type": "Feature",
            "properties": {
                "id": "13102",
                "name": "Rougemont-le-Château",
                "icon": 110
            },
            "geometry": {
                "type": "Point",
                "coordinates": [
                    6.97182,
                    47.73604
                ]
            }
        },
        {
            "type": "Feature",
            "properties": {
                "id": "12399",
                "name": "Cesancey",
                "icon": 49
            },
            "geometry": {
                "type": "Point",
                "coordinates": [
                    5.49341,
                    46.62469
                ]
            }
        },
        {
            "type": "Feature",
            "properties": {
                "id": "12373",
                "name": "Saint-Laurent-en-Grandvaux",
                "icon": 49
            },
            "geometry": {
                "type": "Point",
                "coordinates": [
                    5.95589,
                    46.5761
                ]
            }
        },
        {
            "type": "Feature",
            "properties": {
                "id": "11841",
                "name": "Cercy-la-Tour",
                "icon": 78
            },
            "geometry": {
                "type": "Point",
                "coordinates": [
                    3.6462,
                    46.86847
                ]
            }
        },
        {
            "type": "Feature",
            "properties": {
                "id": "11762",
                "name": "Migennes",
                "icon": 109
            },
            "geometry": {
                "type": "Point",
                "coordinates": [
                    3.51315,
                    47.96196
                ]
            }
        },
        {
            "type": "Feature",
            "properties": {
                "id": "11760",
                "name": "Brienon-sur-Armançon",
                "icon": 109
            },
            "geometry": {
                "type": "Point",
                "coordinates": [
                    3.6173,
                    47.99189
                ]
            }
        },
        {
            "type": "Feature",
            "properties": {
                "id": "11647",
                "name": "Belfort",
                "icon": 110
            },
            "geometry": {
                "type": "Point",
                "coordinates": [
                    6.85269,
                    47.65826
                ]
            }
        },
        {
            "type": "Feature",
            "properties": {
                "id": "11241",
                "name": "Cosne-Cours-sur-Loire",
                "icon": 78
            },
            "geometry": {
                "type": "Point",
                "coordinates": [
                    2.92714,
                    47.3964
                ]
            }
        },
        {
            "type": "Feature",
            "properties": {
                "id": "11239",
                "name": "Cosne-Cours-sur-Loire",
                "icon": 78
            },
            "geometry": {
                "type": "Point",
                "coordinates": [
                    2.92324,
                    47.41037
                ]
            }
        },
        {
            "type": "Feature",
            "properties": {
                "id": "9932",
                "name": "Fixin",
                "icon": 31
            },
            "geometry": {
                "type": "Point",
                "coordinates": [
                    4.96948,
                    47.24486
                ]
            }
        },
        {
            "type": "Feature",
            "properties": {
                "id": "9336",
                "name": "Tharot",
                "icon": 109
            },
            "geometry": {
                "type": "Point",
                "coordinates": [
                    3.85783,
                    47.52779
                ]
            }
        },
        {
            "type": "Feature",
            "properties": {
                "id": "9302",
                "name": "Le Creusot",
                "icon": 91
            },
            "geometry": {
                "type": "Point",
                "coordinates": [
                    4.447,
                    46.80195
                ]
            }
        },
        {
            "type": "Feature",
            "properties": {
                "id": "9300",
                "name": "Le Creusot",
                "icon": 91
            },
            "geometry": {
                "type": "Point",
                "coordinates": [
                    4.43857,
                    46.79914
                ]
            }
        },
        {
            "type": "Feature",
            "properties": {
                "id": "9298",
                "name": "Le Creusot",
                "icon": 91
            },
            "geometry": {
                "type": "Point",
                "coordinates": [
                    4.42625,
                    46.79987
                ]
            }
        },
        {
            "type": "Feature",
            "properties": {
                "id": "9296",
                "name": "Le Creusot",
                "icon": 91
            },
            "geometry": {
                "type": "Point",
                "coordinates": [
                    4.43144,
                    46.80731
                ]
            }
        },
        {
            "type": "Feature",
            "properties": {
                "id": "9294",
                "name": "Le Creusot",
                "icon": 91
            },
            "geometry": {
                "type": "Point",
                "coordinates": [
                    4.43324,
                    46.78966
                ]
            }
        },
        {
            "type": "Feature",
            "properties": {
                "id": "9292",
                "name": "Le Creusot",
                "icon": 91
            },
            "geometry": {
                "type": "Point",
                "coordinates": [
                    4.44789,
                    46.79652
                ]
            }
        },
        {
            "type": "Feature",
            "properties": {
                "id": "9290",
                "name": "Le Creusot",
                "icon": 91
            },
            "geometry": {
                "type": "Point",
                "coordinates": [
                    4.4174,
                    46.79492
                ]
            }
        },
        {
            "type": "Feature",
            "properties": {
                "id": "9288",
                "name": "Le Creusot",
                "icon": 91
            },
            "geometry": {
                "type": "Point",
                "coordinates": [
                    4.43252,
                    46.81194
                ]
            }
        },
        {
            "type": "Feature",
            "properties": {
                "id": "9286",
                "name": "Le Creusot",
                "icon": 91
            },
            "geometry": {
                "type": "Point",
                "coordinates": [
                    4.43662,
                    46.80539
                ]
            }
        },
        {
            "type": "Feature",
            "properties": {
                "id": "9284",
                "name": "Le Creusot",
                "icon": 91
            },
            "geometry": {
                "type": "Point",
                "coordinates": [
                    4.4269,
                    46.80673
                ]
            }
        },
        {
            "type": "Feature",
            "properties": {
                "id": "9282",
                "name": "Le Creusot",
                "icon": 91
            },
            "geometry": {
                "type": "Point",
                "coordinates": [
                    4.4288,
                    46.8053
                ]
            }
        },
        {
            "type": "Feature",
            "properties": {
                "id": "9278",
                "name": "Le Creusot",
                "icon": 91
            },
            "geometry": {
                "type": "Point",
                "coordinates": [
                    4.42312,
                    46.80321
                ]
            }
        },
        {
            "type": "Feature",
            "properties": {
                "id": "9277",
                "name": "Le Creusot",
                "icon": 91
            },
            "geometry": {
                "type": "Point",
                "coordinates": [
                    4.42097,
                    46.80596
                ]
            }
        },
        {
            "type": "Feature",
            "properties": {
                "id": "9163",
                "name": "Trucy-sur-Yonne",
                "icon": 109
            },
            "geometry": {
                "type": "Point",
                "coordinates": [
                    3.66038,
                    47.62803
                ]
            }
        },
        {
            "type": "Feature",
            "properties": {
                "id": "9161",
                "name": "Toucy",
                "icon": 109
            },
            "geometry": {
                "type": "Point",
                "coordinates": [
                    3.2887,
                    47.73766
                ]
            }
        },
        {
            "type": "Feature",
            "properties": {
                "id": "9159",
                "name": "Tonnerre",
                "icon": 109
            },
            "geometry": {
                "type": "Point",
                "coordinates": [
                    3.97325,
                    47.85662
                ]
            }
        },
        {
            "type": "Feature",
            "properties": {
                "id": "9157",
                "name": "Vassy-sous-Pisy",
                "icon": 109
            },
            "geometry": {
                "type": "Point",
                "coordinates": [
                    4.16797,
                    47.56909
                ]
            }
        },
        {
            "type": "Feature",
            "properties": {
                "id": "9155",
                "name": "Thizy",
                "icon": 109
            },
            "geometry": {
                "type": "Point",
                "coordinates": [
                    4.05321,
                    47.56885
                ]
            }
        },
        {
            "type": "Feature",
            "properties": {
                "id": "9153",
                "name": "Vézinnes",
                "icon": 109
            },
            "geometry": {
                "type": "Point",
                "coordinates": [
                    3.94552,
                    47.89239
                ]
            }
        },
        {
            "type": "Feature",
            "properties": {
                "id": "9151",
                "name": "Tannerre-en-Puisaye",
                "icon": 109
            },
            "geometry": {
                "type": "Point",
                "coordinates": [
                    3.12994,
                    47.73296
                ]
            }
        },
        {
            "type": "Feature",
            "properties": {
                "id": "9149",
                "name": "Serbonnes",
                "icon": 109
            },
            "geometry": {
                "type": "Point",
                "coordinates": [
                    3.20467,
                    48.32012
                ]
            }
        },
        {
            "type": "Feature",
            "properties": {
                "id": "9127",
                "name": "Vermenton",
                "icon": 109
            },
            "geometry": {
                "type": "Point",
                "coordinates": [
                    3.73362,
                    47.66418
                ]
            }
        },
        {
            "type": "Feature",
            "properties": {
                "id": "9125",
                "name": "Vermenton",
                "icon": 109
            },
            "geometry": {
                "type": "Point",
                "coordinates": [
                    3.73728,
                    47.66455
                ]
            }
        },
        {
            "type": "Feature",
            "properties": {
                "id": "9123",
                "name": "Venoy",
                "icon": 109
            },
            "geometry": {
                "type": "Point",
                "coordinates": [
                    3.63704,
                    47.80677
                ]
            }
        },
        {
            "type": "Feature",
            "properties": {
                "id": "9121",
                "name": "Saligny",
                "icon": 109
            },
            "geometry": {
                "type": "Point",
                "coordinates": [
                    3.35785,
                    48.21567
                ]
            }
        },
        {
            "type": "Feature",
            "properties": {
                "id": "9119",
                "name": "Saints-en-Puisaye",
                "icon": 109
            },
            "geometry": {
                "type": "Point",
                "coordinates": [
                    3.26234,
                    47.62077
                ]
            }
        },
        {
            "type": "Feature",
            "properties": {
                "id": "9117",
                "name": "Sainte-Pallaye",
                "icon": 109
            },
            "geometry": {
                "type": "Point",
                "coordinates": [
                    3.66946,
                    47.64849
                ]
            }
        },
        {
            "type": "Feature",
            "properties": {
                "id": "9115",
                "name": "Saint-Martin-du-Tertre",
                "icon": 109
            },
            "geometry": {
                "type": "Point",
                "coordinates": [
                    3.25754,
                    48.21198
                ]
            }
        },
        {
            "type": "Feature",
            "properties": {
                "id": "9113",
                "name": "Saint-Sauveur-en-Puisaye",
                "icon": 109
            },
            "geometry": {
                "type": "Point",
                "coordinates": [
                    3.20205,
                    47.61866
                ]
            }
        },
        {
            "type": "Feature",
            "properties": {
                "id": "9111",
                "name": "Saint-Fargeau",
                "icon": 109
            },
            "geometry": {
                "type": "Point",
                "coordinates": [
                    3.06934,
                    47.64318
                ]
            }
        },
        {
            "type": "Feature",
            "properties": {
                "id": "9109",
                "name": "Plessis-Saint-Jean",
                "icon": 109
            },
            "geometry": {
                "type": "Point",
                "coordinates": [
                    3.30624,
                    48.35164
                ]
            }
        },
        {
            "type": "Feature",
            "properties": {
                "id": "9107",
                "name": "Piffonds",
                "icon": 109
            },
            "geometry": {
                "type": "Point",
                "coordinates": [
                    3.14672,
                    48.05471
                ]
            }
        },
        {
            "type": "Feature",
            "properties": {
                "id": "9105",
                "name": "Laroche-Saint-Cydroine",
                "icon": 109
            },
            "geometry": {
                "type": "Point",
                "coordinates": [
                    3.48399,
                    47.96411
                ]
            }
        },
        {
            "type": "Feature",
            "properties": {
                "id": "9103",
                "name": "Lichères-près-Aigremont",
                "icon": 109
            },
            "geometry": {
                "type": "Point",
                "coordinates": [
                    3.85425,
                    47.72785
                ]
            }
        },
        {
            "type": "Feature",
            "properties": {
                "id": "9101",
                "name": "Lézinnes",
                "icon": 109
            },
            "geometry": {
                "type": "Point",
                "coordinates": [
                    4.0907,
                    47.80179
                ]
            }
        },
        {
            "type": "Feature",
            "properties": {
                "id": "9099",
                "name": "Turny",
                "icon": 109
            },
            "geometry": {
                "type": "Point",
                "coordinates": [
                    3.73908,
                    48.08708
                ]
            }
        },
        {
            "type": "Feature",
            "properties": {
                "id": "9086",
                "name": "Rosoy",
                "icon": 109
            },
            "geometry": {
                "type": "Point",
                "coordinates": [
                    3.31177,
                    48.15049
                ]
            }
        },
        {
            "type": "Feature",
            "properties": {
                "id": "9084",
                "name": "Prunoy",
                "icon": 109
            },
            "geometry": {
                "type": "Point",
                "coordinates": [
                    3.13139,
                    47.91344
                ]
            }
        },
        {
            "type": "Feature",
            "properties": {
                "id": "9082",
                "name": "Pontaubert",
                "icon": 109
            },
            "geometry": {
                "type": "Point",
                "coordinates": [
                    3.87248,
                    47.49207
                ]
            }
        },
        {
            "type": "Feature",
            "properties": {
                "id": "9080",
                "name": "Pontaubert",
                "icon": 109
            },
            "geometry": {
                "type": "Point",
                "coordinates": [
                    3.88249,
                    47.49752
                ]
            }
        },
        {
            "type": "Feature",
            "properties": {
                "id": "9078",
                "name": "Pontaubert",
                "icon": 109
            },
            "geometry": {
                "type": "Point",
                "coordinates": [
                    3.86058,
                    47.48964
                ]
            }
        },
        {
            "type": "Feature",
            "properties": {
                "id": "9076",
                "name": "Pontaubert",
                "icon": 109
            },
            "geometry": {
                "type": "Point",
                "coordinates": [
                    3.85929,
                    47.48771
                ]
            }
        },
        {
            "type": "Feature",
            "properties": {
                "id": "9074",
                "name": "Pont-sur-Yonne",
                "icon": 109
            },
            "geometry": {
                "type": "Point",
                "coordinates": [
                    3.19682,
                    48.29517
                ]
            }
        },
        {
            "type": "Feature",
            "properties": {
                "id": "9072",
                "name": "Pont-sur-Vanne",
                "icon": 109
            },
            "geometry": {
                "type": "Point",
                "coordinates": [
                    3.44393,
                    48.18324
                ]
            }
        },
        {
            "type": "Feature",
            "properties": {
                "id": "9070",
                "name": "La Postolle",
                "icon": 109
            },
            "geometry": {
                "type": "Point",
                "coordinates": [
                    3.444,
                    48.28112
                ]
            }
        },
        {
            "type": "Feature",
            "properties": {
                "id": "9068",
                "name": "L'Isle-sur-Serein",
                "icon": 109
            },
            "geometry": {
                "type": "Point",
                "coordinates": [
                    4.00394,
                    47.58672
                ]
            }
        },
        {
            "type": "Feature",
            "properties": {
                "id": "9066",
                "name": "Jully",
                "icon": 109
            },
            "geometry": {
                "type": "Point",
                "coordinates": [
                    4.2962,
                    47.77578
                ]
            }
        },
        {
            "type": "Feature",
            "properties": {
                "id": "9064",
                "name": "Michery",
                "icon": 109
            },
            "geometry": {
                "type": "Point",
                "coordinates": [
                    3.23402,
                    48.30933
                ]
            }
        },
        {
            "type": "Feature",
            "properties": {
                "id": "9062",
                "name": "Malay-le-Grand",
                "icon": 109
            },
            "geometry": {
                "type": "Point",
                "coordinates": [
                    3.34081,
                    48.17411
                ]
            }
        },
        {
            "type": "Feature",
            "properties": {
                "id": "9060",
                "name": "Lixy",
                "icon": 109
            },
            "geometry": {
                "type": "Point",
                "coordinates": [
                    3.0968,
                    48.23907
                ]
            }
        },
        {
            "type": "Feature",
            "properties": {
                "id": "9058",
                "name": "Saint-Fargeau",
                "icon": 109
            },
            "geometry": {
                "type": "Point",
                "coordinates": [
                    3.11909,
                    47.60874
                ]
            }
        },
        {
            "type": "Feature",
            "properties": {
                "id": "9056",
                "name": "Saint-Florentin",
                "icon": 109
            },
            "geometry": {
                "type": "Point",
                "coordinates": [
                    3.71841,
                    48.00126
                ]
            }
        },
        {
            "type": "Feature",
            "properties": {
                "id": "9052",
                "name": "Gigny",
                "icon": 109
            },
            "geometry": {
                "type": "Point",
                "coordinates": [
                    4.29604,
                    47.81609
                ]
            }
        },
        {
            "type": "Feature",
            "properties": {
                "id": "9050",
                "name": "Fournaudin",
                "icon": 109
            },
            "geometry": {
                "type": "Point",
                "coordinates": [
                    3.64024,
                    48.15388
                ]
            }
        },
        {
            "type": "Feature",
            "properties": {
                "id": "9048",
                "name": "Flogny-la-Chapelle",
                "icon": 109
            },
            "geometry": {
                "type": "Point",
                "coordinates": [
                    3.87843,
                    47.95076
                ]
            }
        },
        {
            "type": "Feature",
            "properties": {
                "id": "9046",
                "name": "Fleury-la-Vallée",
                "icon": 109
            },
            "geometry": {
                "type": "Point",
                "coordinates": [
                    3.48167,
                    47.88504
                ]
            }
        },
        {
            "type": "Feature",
            "properties": {
                "id": "9044",
                "name": "Escolives-Sainte-Camille",
                "icon": 109
            },
            "geometry": {
                "type": "Point",
                "coordinates": [
                    3.6061,
                    47.71969
                ]
            }
        },
        {
            "type": "Feature",
            "properties": {
                "id": "9042",
                "name": "Escamps",
                "icon": 109
            },
            "geometry": {
                "type": "Point",
                "coordinates": [
                    3.47111,
                    47.72875
                ]
            }
        },
        {
            "type": "Feature",
            "properties": {
                "id": "9040",
                "name": "Épineuil",
                "icon": 109
            },
            "geometry": {
                "type": "Point",
                "coordinates": [
                    3.98094,
                    47.87431
                ]
            }
        },
        {
            "type": "Feature",
            "properties": {
                "id": "9038",
                "name": "Domecy-sur-Cure",
                "icon": 109
            },
            "geometry": {
                "type": "Point",
                "coordinates": [
                    3.81176,
                    47.38478
                ]
            }
        },
        {
            "type": "Feature",
            "properties": {
                "id": "9036",
                "name": "Domecy-sur-Cure",
                "icon": 109
            },
            "geometry": {
                "type": "Point",
                "coordinates": [
                    3.81037,
                    47.41609
                ]
            }
        },
        {
            "type": "Feature",
            "properties": {
                "id": "9034",
                "name": "Dannemoine",
                "icon": 109
            },
            "geometry": {
                "type": "Point",
                "coordinates": [
                    3.95856,
                    47.89517
                ]
            }
        },
        {
            "type": "Feature",
            "properties": {
                "id": "9032",
                "name": "Migennes",
                "icon": 109
            },
            "geometry": {
                "type": "Point",
                "coordinates": [
                    3.50573,
                    47.9628
                ]
            }
        },
        {
            "type": "Feature",
            "properties": {
                "id": "9030",
                "name": "Migennes",
                "icon": 109
            },
            "geometry": {
                "type": "Point",
                "coordinates": [
                    3.52923,
                    47.96034
                ]
            }
        },
        {
            "type": "Feature",
            "properties": {
                "id": "9028",
                "name": "Migennes",
                "icon": 109
            },
            "geometry": {
                "type": "Point",
                "coordinates": [
                    3.5049,
                    47.96902
                ]
            }
        },
        {
            "type": "Feature",
            "properties": {
                "id": "9026",
                "name": "Montigny-la-Resle",
                "icon": 109
            },
            "geometry": {
                "type": "Point",
                "coordinates": [
                    3.68073,
                    47.86511
                ]
            }
        },
        {
            "type": "Feature",
            "properties": {
                "id": "9022",
                "name": "Nailly",
                "icon": 109
            },
            "geometry": {
                "type": "Point",
                "coordinates": [
                    3.22494,
                    48.22316
                ]
            }
        },
        {
            "type": "Feature",
            "properties": {
                "id": "9020",
                "name": "Saint-Georges-sur-Baulche",
                "icon": 109
            },
            "geometry": {
                "type": "Point",
                "coordinates": [
                    3.52557,
                    47.79429
                ]
            }
        },
        {
            "type": "Feature",
            "properties": {
                "id": "9018",
                "name": "Seignelay",
                "icon": 109
            },
            "geometry": {
                "type": "Point",
                "coordinates": [
                    3.60899,
                    47.90309
                ]
            }
        },
        {
            "type": "Feature",
            "properties": {
                "id": "9016",
                "name": "Villiers-Louis",
                "icon": 109
            },
            "geometry": {
                "type": "Point",
                "coordinates": [
                    3.40231,
                    48.19017
                ]
            }
        },
        {
            "type": "Feature",
            "properties": {
                "id": "9014",
                "name": "Montholon",
                "icon": 109
            },
            "geometry": {
                "type": "Point",
                "coordinates": [
                    3.33522,
                    47.88883
                ]
            }
        },
        {
            "type": "Feature",
            "properties": {
                "id": "9012",
                "name": "Vincelles",
                "icon": 109
            },
            "geometry": {
                "type": "Point",
                "coordinates": [
                    3.63172,
                    47.70554
                ]
            }
        },
        {
            "type": "Feature",
            "properties": {
                "id": "9010",
                "name": "Vireaux",
                "icon": 109
            },
            "geometry": {
                "type": "Point",
                "coordinates": [
                    4.04941,
                    47.78658
                ]
            }
        },
        {
            "type": "Feature",
            "properties": {
                "id": "9008",
                "name": "Voisines",
                "icon": 109
            },