{
    "type": "FeatureCollection",
    "features": [
        {
            "type": "Feature",
            "properties": {
                "id": "23164",
                "name": "Eringhem",
                "icon": 79
            },
            "geometry": {
                "type": "Point",
                "coordinates": [
                    2.3459471762180333,
                    50.89707923682681
                ]
            }
        },
        {
            "type": "Feature",
            "properties": {
                "id": "23161",
                "name": "Sissy",
                "icon": 12
            },
            "geometry": {
                "type": "Point",
                "coordinates": [
                    3.43298614025116,
                    49.80322851132518
                ]
            }
        },
        {
            "type": "Feature",
            "properties": {
                "id": "23151",
                "name": "Liévin",
                "icon": 82
            },
            "geometry": {
                "type": "Point",
                "coordinates": [
                    2.780908,
                    50.417214
                ]
            }
        },
        {
            "type": "Feature",
            "properties": {
                "id": "23112",
                "name": "Moyenneville",
                "icon": 82
            },
            "geometry": {
                "type": "Point",
                "coordinates": [
                    2.780356407165528,
                    50.1821918995077
                ]
            }
        },
        {
            "type": "Feature",
            "properties": {
                "id": "23047",
                "name": "Crépy-en-Valois",
                "icon": 80
            },
            "geometry": {
                "type": "Point",
                "coordinates": [
                    2.8855392336845402,
                    49.237350313387836
                ]
            }
        },
        {
            "type": "Feature",
            "properties": {
                "id": "22762",
                "name": "Mouflers",
                "icon": 100
            },
            "geometry": {
                "type": "Point",
                "coordinates": [
                    2.0514178276062016,
                    50.046536721665554
                ]
            }
        },
        {
            "type": "Feature",
            "properties": {
                "id": "22760",
                "name": "Pont-Remy",
                "icon": 100
            },
            "geometry": {
                "type": "Point",
                "coordinates": [
                    1.9031158089637759,
                    50.054655528889555
                ]
            }
        },
        {
            "type": "Feature",
            "properties": {
                "id": "22540",
                "name": "Ferrière-la-Petite",
                "icon": 79
            },
            "geometry": {
                "type": "Point",
                "coordinates": [
                    4.016776978969575,
                    50.23977574940189
                ]
            }
        },
        {
            "type": "Feature",
            "properties": {
                "id": "22537",
                "name": "Croix",
                "icon": 79
            },
            "geometry": {
                "type": "Point",
                "coordinates": [
                    3.1552675366401677,
                    50.68038075239276
                ]
            }
        },
        {
            "type": "Feature",
            "properties": {
                "id": "22487",
                "name": "Agnetz",
                "icon": 80
            },
            "geometry": {
                "type": "Point",
                "coordinates": [
                    2.3881798982620244,
                    49.380783774889984
                ]
            }
        },
        {
            "type": "Feature",
            "properties": {
                "id": "22381",
                "name": "Senlis",
                "icon": 80
            },
            "geometry": {
                "type": "Point",
                "coordinates": [
                    2.5823584198951726,
                    49.20584162703199
                ]
            }
        },
        {
            "type": "Feature",
            "properties": {
                "id": "22379",
                "name": "Senlis",
                "icon": 80
            },
            "geometry": {
                "type": "Point",
                "coordinates": [
                    2.583501040935517,
                    49.20572859686978
                ]
            }
        },
        {
            "type": "Feature",
            "properties": {
                "id": "22142",
                "name": "Bailleval",
                "icon": 80
            },
            "geometry": {
                "type": "Point",
                "coordinates": [
                    2.458252608776093,
                    49.34653943636364
                ]
            }
        },
        {
            "type": "Feature",
            "properties": {
                "id": "21678",
                "name": "Mons-en-Pévèle",
                "icon": 79
            },
            "geometry": {
                "type": "Point",
                "coordinates": [
                    3.082096874713898,
                    50.48984058305569
                ]
            }
        },
        {
            "type": "Feature",
            "properties": {
                "id": "21185",
                "name": "Château-Thierry",
                "icon": 12
            },
            "geometry": {
                "type": "Point",
                "coordinates": [
                    3.40472,
                    49.04057
                ]
            }
        },
        {
            "type": "Feature",
            "properties": {
                "id": "21138",
                "name": "Brissay-Choigny",
                "icon": 12
            },
            "geometry": {
                "type": "Point",
                "coordinates": [
                    3.3785,
                    49.72113
                ]
            }
        },
        {
            "type": "Feature",
            "properties": {
                "id": "21126",
                "name": "Bézu-Saint-Germain",
                "icon": 12
            },
            "geometry": {
                "type": "Point",
                "coordinates": [
                    3.4087966382503514,
                    49.10824700697324
                ]
            }
        },
        {
            "type": "Feature",
            "properties": {
                "id": "21114",
                "name": "Lille",
                "icon": 79
            },
            "geometry": {
                "type": "Point",
                "coordinates": [
                    3.0553,
                    50.61046
                ]
            }
        },
        {
            "type": "Feature",
            "properties": {
                "id": "21112",
                "name": "Amiens",
                "icon": 100
            },
            "geometry": {
                "type": "Point",
                "coordinates": [
                    2.30788,
                    49.89068
                ]
            }
        },
        {
            "type": "Feature",
            "properties": {
                "id": "21110",
                "name": "Arras",
                "icon": 82
            },
            "geometry": {
                "type": "Point",
                "coordinates": [
                    2.78151,
                    50.28696
                ]
            }
        },
        {
            "type": "Feature",
            "properties": {
                "id": "21108",
                "name": "Arras",
                "icon": 82
            },
            "geometry": {
                "type": "Point",
                "coordinates": [
                    2.73064,
                    50.30001
                ]
            }
        },
        {
            "type": "Feature",
            "properties": {
                "id": "21092",
                "name": "Andainville",
                "icon": 100
            },
            "geometry": {
                "type": "Point",
                "coordinates": [
                    1.78682,
                    49.88994
                ]
            }
        },
        {
            "type": "Feature",
            "properties": {
                "id": "20992",
                "name": "Amiens",
                "icon": 100
            },
            "geometry": {
                "type": "Point",
                "coordinates": [
                    2.32517,
                    49.8763
                ]
            }
        },
        {
            "type": "Feature",
            "properties": {
                "id": "20990",
                "name": "Amiens",
                "icon": 100
            },
            "geometry": {
                "type": "Point",
                "coordinates": [
                    2.28847,
                    49.90404
                ]
            }
        },
        {
            "type": "Feature",
            "properties": {
                "id": "20942",
                "name": "Betz",
                "icon": 80
            },
            "geometry": {
                "type": "Point",
                "coordinates": [
                    2.95188,
                    49.15964
                ]
            }
        },
        {
            "type": "Feature",
            "properties": {
                "id": "20874",
                "name": "Armentières",
                "icon": 79
            },
            "geometry": {
                "type": "Point",
                "coordinates": [
                    2.88565,
                    50.68293
                ]
            }
        },
        {
            "type": "Feature",
            "properties": {
                "id": "20853",
                "name": "Blendecques",
                "icon": 82
            },
            "geometry": {
                "type": "Point",
                "coordinates": [
                    2.28326,
                    50.71669
                ]
            }
        },
        {
            "type": "Feature",
            "properties": {
                "id": "20816",
                "name": "Roubaix",
                "icon": 79
            },
            "geometry": {
                "type": "Point",
                "coordinates": [
                    3.19218,
                    50.68031
                ]
            }
        },
        {
            "type": "Feature",
            "properties": {
                "id": "20812",
                "name": "Hallennes-lez-Haubourdin",
                "icon": 79
            },
            "geometry": {
                "type": "Point",
                "coordinates": [
                    2.96048,
                    50.61555
                ]
            }
        },
        {
            "type": "Feature",
            "properties": {
                "id": "20810",
                "name": "Hallencourt",
                "icon": 100
            },
            "geometry": {
                "type": "Point",
                "coordinates": [
                    1.87555,
                    49.99198
                ]
            }
        },
        {
            "type": "Feature",
            "properties": {
                "id": "20649",
                "name": "Monchecourt",
                "icon": 79
            },
            "geometry": {
                "type": "Point",
                "coordinates": [
                    3.20715,
                    50.32214
                ]
            }
        },
        {
            "type": "Feature",
            "properties": {
                "id": "20646",
                "name": "Monchecourt",
                "icon": 79
            },
            "geometry": {
                "type": "Point",
                "coordinates": [
                    3.21069,
                    50.30314
                ]
            }
        },
        {
            "type": "Feature",
            "properties": {
                "id": "20593",
                "name": "Craywick",
                "icon": 79
            },
            "geometry": {
                "type": "Point",
                "coordinates": [
                    2.26013,
                    50.9572
                ]
            }
        },
        {
            "type": "Feature",
            "properties": {
                "id": "20344",
                "name": "Béthune",
                "icon": 82
            },
            "geometry": {
                "type": "Point",
                "coordinates": [
                    2.63218,
                    50.52946
                ]
            }
        },
        {
            "type": "Feature",
            "properties": {
                "id": "20342",
                "name": "Essars",
                "icon": 82
            },
            "geometry": {
                "type": "Point",
                "coordinates": [
                    2.66563,
                    50.54757
                ]
            }
        },
        {
            "type": "Feature",
            "properties": {
                "id": "20340",
                "name": "Annezin",
                "icon": 82
            },
            "geometry": {
                "type": "Point",
                "coordinates": [
                    2.62377,
                    50.54228
                ]
            }
        },
        {
            "type": "Feature",
            "properties": {
                "id": "20338",
                "name": "Nœux-les-Mines",
                "icon": 82
            },
            "geometry": {
                "type": "Point",
                "coordinates": [
                    2.67581,
                    50.46788
                ]
            }
        },
        {
            "type": "Feature",
            "properties": {
                "id": "20336",
                "name": "Nœux-les-Mines",
                "icon": 82
            },
            "geometry": {
                "type": "Point",
                "coordinates": [
                    2.67306,
                    50.48056
                ]
            }
        },
        {
            "type": "Feature",
            "properties": {
                "id": "20317",
                "name": "Saint-Quentin",
                "icon": 12
            },
            "geometry": {
                "type": "Point",
                "coordinates": [
                    3.30942,
                    49.84469
                ]
            }
        },
        {
            "type": "Feature",
            "properties": {
                "id": "20235",
                "name": "Condette",
                "icon": 82
            },
            "geometry": {
                "type": "Point",
                "coordinates": [
                    1.61299,
                    50.6472
                ]
            }
        },
        {
            "type": "Feature",
            "properties": {
                "id": "20211",
                "name": "Neufchâtel-Hardelot",
                "icon": 82
            },
            "geometry": {
                "type": "Point",
                "coordinates": [
                    1.59011,
                    50.63276
                ]
            }
        },
        {
            "type": "Feature",
            "properties": {
                "id": "20208",
                "name": "Carly",
                "icon": 82
            },
            "geometry": {
                "type": "Point",
                "coordinates": [
                    1.70211,
                    50.65221
                ]
            }
        },
        {
            "type": "Feature",
            "properties": {
                "id": "20206",
                "name": "Condette",
                "icon": 82
            },
            "geometry": {
                "type": "Point",
                "coordinates": [
                    1.65771,
                    50.64989
                ]
            }
        },
        {
            "type": "Feature",
            "properties": {
                "id": "20125",
                "name": "Liévin",
                "icon": 82
            },
            "geometry": {
                "type": "Point",
                "coordinates": [
                    2.73872,
                    50.43417
                ]
            }
        },
        {
            "type": "Feature",
            "properties": {
                "id": "19868",
                "name": "Rethondes",
                "icon": 80
            },
            "geometry": {
                "type": "Point",
                "coordinates": [
                    2.93703,
                    49.41981
                ]
            }
        },
        {
            "type": "Feature",
            "properties": {
                "id": "19853",
                "name": "Wasnes-au-Bac",
                "icon": 79
            },
            "geometry": {
                "type": "Point",
                "coordinates": [
                    3.25757,
                    50.26952
                ]
            }
        },
        {
            "type": "Feature",
            "properties": {
                "id": "19843",
                "name": "Lambersart",
                "icon": 79
            },
            "geometry": {
                "type": "Point",
                "coordinates": [
                    3.02261,
                    50.64603
                ]
            }
        },
        {
            "type": "Feature",
            "properties": {
                "id": "19794",
                "name": "Condette",
                "icon": 82
            },
            "geometry": {
                "type": "Point",
                "coordinates": [
                    1.64249,
                    50.67395
                ]
            }
        },
        {
            "type": "Feature",
            "properties": {
                "id": "19632",
                "name": "Sains-en-Amiénois",
                "icon": 100
            },
            "geometry": {
                "type": "Point",
                "coordinates": [
                    2.31836,
                    49.81785
                ]
            }
        },
        {
            "type": "Feature",
            "properties": {
                "id": "19563",
                "name": "Cambligneul",
                "icon": 82
            },
            "geometry": {
                "type": "Point",
                "coordinates": [
                    2.61681,
                    50.38018
                ]
            }
        },
        {
            "type": "Feature",
            "properties": {
                "id": "19561",
                "name": "Aubigny-en-Artois",
                "icon": 82
            },
            "geometry": {
                "type": "Point",
                "coordinates": [
                    2.5848,
                    50.35063
                ]
            }
        },
        {
            "type": "Feature",
            "properties": {
                "id": "19559",
                "name": "Houvin-Houvigneul",
                "icon": 82
            },
            "geometry": {
                "type": "Point",
                "coordinates": [
                    2.38298,
                    50.29779
                ]
            }
        },
        {
            "type": "Feature",
            "properties": {
                "id": "19553",
                "name": "Buire-au-Bois",
                "icon": 82
            },
            "geometry": {
                "type": "Point",
                "coordinates": [
                    2.15166,
                    50.26357
                ]
            }
        },
        {
            "type": "Feature",
            "properties": {
                "id": "19549",
                "name": "Billy-Berclau",
                "icon": 82
            },
            "geometry": {
                "type": "Point",
                "coordinates": [
                    2.85907,
                    50.51436
                ]
            }
        },
        {
            "type": "Feature",
            "properties": {
                "id": "19547",
                "name": "Billy-Berclau",
                "icon": 82
            },
            "geometry": {
                "type": "Point",
                "coordinates": [
                    2.87243,
                    50.52216
                ]
            }
        },
        {
            "type": "Feature",
            "properties": {
                "id": "19545",
                "name": "Bauvin",
                "icon": 79
            },
            "geometry": {
                "type": "Point",
                "coordinates": [
                    2.89206,
                    50.51866
                ]
            }
        },
        {
            "type": "Feature",
            "properties": {
                "id": "19539",
                "name": "Auchy-les-Mines",
                "icon": 82
            },
            "geometry": {
                "type": "Point",
                "coordinates": [
                    2.78379,
                    50.51299
                ]
            }
        },
        {
            "type": "Feature",
            "properties": {
                "id": "19528",
                "name": "Saint-Pol-sur-Ternoise",
                "icon": 82
            },
            "geometry": {
                "type": "Point",
                "coordinates": [
                    2.33014,
                    50.37653
                ]
            }
        },
        {
            "type": "Feature",
            "properties": {
                "id": "19523",
                "name": "Willeman",
                "icon": 82
            },
            "geometry": {
                "type": "Point",
                "coordinates": [
                    2.15763,
                    50.35335
                ]
            }
        },
        {
            "type": "Feature",
            "properties": {
                "id": "19241",
                "name": "Senlis",
                "icon": 80
            },
            "geometry": {
                "type": "Point",
                "coordinates": [
                    2.58483,
                    49.21216
                ]
            }
        },
        {
            "type": "Feature",
            "properties": {
                "id": "18915",
                "name": "Vimy",
                "icon": 82
            },
            "geometry": {
                "type": "Point",
                "coordinates": [
                    2.81393,
                    50.37093
                ]
            }
        },
        {
            "type": "Feature",
            "properties": {
                "id": "18461",
                "name": "Aubry-du-Hainaut",
                "icon": 79
            },
            "geometry": {
                "type": "Point",
                "coordinates": [
                    3.46434,
                    50.3697
                ]
            }
        },
        {
            "type": "Feature",
            "properties": {
                "id": "18059",
                "name": "Noyelles-lès-Seclin",
                "icon": 79
            },
            "geometry": {
                "type": "Point",
                "coordinates": [
                    3.01234,
                    50.57598
                ]
            }
        },
        {
            "type": "Feature",
            "properties": {
                "id": "17883",
                "name": "Wanquetin",
                "icon": 82
            },
            "geometry": {
                "type": "Point",
                "coordinates": [
                    2.61212,
                    50.27806
                ]
            }
        },
        {
            "type": "Feature",
            "properties": {
                "id": "17870",
                "name": "Steenwerck",
                "icon": 79
            },
            "geometry": {
                "type": "Point",
                "coordinates": [
                    2.77107,
                    50.69972
                ]
            }
        },
        {
            "type": "Feature",
            "properties": {
                "id": "17855",
                "name": "Echinghen",
                "icon": 82
            },
            "geometry": {
                "type": "Point",
                "coordinates": [
                    1.64774,
                    50.70348
                ]
            }
        },
        {
            "type": "Feature",
            "properties": {
                "id": "17816",
                "name": "La Bouteille",
                "icon": 12
            },
            "geometry": {
                "type": "Point",
                "coordinates": [
                    3.97345,
                    49.85953
                ]
            }
        },
        {
            "type": "Feature",
            "properties": {
                "id": "17439",
                "name": "Mouy",
                "icon": 80
            },
            "geometry": {
                "type": "Point",
                "coordinates": [
                    2.30581,
                    49.3229
                ]
            }
        },
        {
            "type": "Feature",
            "properties": {
                "id": "17437",
                "name": "Boran-sur-Oise",
                "icon": 80
            },
            "geometry": {
                "type": "Point",
                "coordinates": [
                    2.35935,
                    49.16708
                ]
            }
        },
        {
            "type": "Feature",
            "properties": {
                "id": "17433",
                "name": "Vineuil-Saint-Firmin",
                "icon": 80
            },
            "geometry": {
                "type": "Point",
                "coordinates": [
                    3.49133,
                    49.20029
                ]
            }
        },
        {
            "type": "Feature",
            "properties": {
                "id": "17388",
                "name": "Bucamps",
                "icon": 80
            },
            "geometry": {
                "type": "Point",
                "coordinates": [
                    2.32352,
                    49.52233
                ]
            }
        },
        {
            "type": "Feature",
            "properties": {
                "id": "17326",
                "name": "Blangy-Tronville",
                "icon": 100
            },
            "geometry": {
                "type": "Point",
                "coordinates": [
                    2.42322,
                    49.88045
                ]
            }
        },
        {
            "type": "Feature",
            "properties": {
                "id": "17101",
                "name": "Bours",
                "icon": 82
            },
            "geometry": {
                "type": "Point",
                "coordinates": [
                    2.41075,
                    50.45464
                ]
            }
        },
        {
            "type": "Feature",
            "properties": {
                "id": "16635",
                "name": "Baincthun",
                "icon": 82
            },
            "geometry": {
                "type": "Point",
                "coordinates": [
                    1.67333,
                    50.71215
                ]
            }
        },
        {
            "type": "Feature",
            "properties": {
                "id": "16479",
                "name": "Amiens",
                "icon": 100
            },
            "geometry": {
                "type": "Point",
                "coordinates": [
                    2.28127,
                    49.8894
                ]
            }
        },
        {
            "type": "Feature",
            "properties": {
                "id": "16464",
                "name": "Beaucourt-en-Santerre",
                "icon": 100
            },
            "geometry": {
                "type": "Point",
                "coordinates": [
                    2.58407,
                    49.7931
                ]
            }
        },
        {
            "type": "Feature",
            "properties": {
                "id": "16462",
                "name": "Braine",
                "icon": 12
            },
            "geometry": {
                "type": "Point",
                "coordinates": [
                    3.53758,
                    49.34276
                ]
            }
        },
        {
            "type": "Feature",
            "properties": {
                "id": "16450",
                "name": "Calais",
                "icon": 82
            },
            "geometry": {
                "type": "Point",
                "coordinates": [
                    1.8534,
                    50.94873
                ]
            }
        },
        {
            "type": "Feature",
            "properties": {
                "id": "16284",
                "name": "Boves",
                "icon": 100
            },
            "geometry": {
                "type": "Point",
                "coordinates": [
                    2.39036,
                    49.84548
                ]
            }
        },
        {
            "type": "Feature",
            "properties": {
                "id": "16050",
                "name": "Beauvais",
                "icon": 80
            },
            "geometry": {
                "type": "Point",
                "coordinates": [
                    2.10691,
                    49.41778
                ]
            }
        },
        {
            "type": "Feature",
            "properties": {
                "id": "15595",
                "name": "Bazoches-sur-Vesles",
                "icon": 12
            },
            "geometry": {
                "type": "Point",
                "coordinates": [
                    3.61934,
                    49.30696
                ]
            }
        },
        {
            "type": "Feature",
            "properties": {
                "id": "15588",
                "name": "Bernaville",
                "icon": 100
            },
            "geometry": {
                "type": "Point",
                "coordinates": [
                    2.16444,
                    50.13086
                ]
            }
        },
        {
            "type": "Feature",
            "properties": {
                "id": "15544",
                "name": "Bovelles",
                "icon": 100
            },
            "geometry": {
                "type": "Point",
                "coordinates": [
                    2.14237,
                    49.88369
                ]
            }
        },
        {
            "type": "Feature",
            "properties": {
                "id": "15469",
                "name": "Belle-et-Houllefort",
                "icon": 82
            },
            "geometry": {
                "type": "Point",
                "coordinates": [
                    1.75605,
                    50.74523
                ]
            }
        },
        {
            "type": "Feature",
            "properties": {
                "id": "15349",
                "name": "Béthisy-Saint-Pierre",
                "icon": 80
            },
            "geometry": {
                "type": "Point",
                "coordinates": [
                    2.7932,
                    49.30743
                ]
            }
        },
        {
            "type": "Feature",
            "properties": {
                "id": "15345",
                "name": "Béthisy-Saint-Pierre",
                "icon": 80
            },
            "geometry": {
                "type": "Point",
                "coordinates": [
                    2.80163,
                    49.2985
                ]
            }
        },
        {
            "type": "Feature",
            "properties": {
                "id": "15343",
                "name": "Auxi-le-Château",
                "icon": 82
            },
            "geometry": {
                "type": "Point",
                "coordinates": [
                    2.11013,
                    50.23095
                ]
            }
        },
        {
            "type": "Feature",
            "properties": {
                "id": "15331",
                "name": "Belloy-sur-Somme",
                "icon": 100
            },
            "geometry": {
                "type": "Point",
                "coordinates": [
                    2.1355,
                    49.96614
                ]
            }
        },
        {
            "type": "Feature",
            "properties": {
                "id": "15212",
                "name": "Auneuil",
                "icon": 80
            },
            "geometry": {
                "type": "Point",
                "coordinates": [
                    1.99579,
                    49.36984
                ]
            }
        },
        {
            "type": "Feature",
            "properties": {
                "id": "15139",
                "name": "Avion",
                "icon": 82
            },
            "geometry": {
                "type": "Point",
                "coordinates": [
                    2.83424,
                    50.4004
                ]
            }
        },
        {
            "type": "Feature",
            "properties": {
                "id": "15137",
                "name": "Avion",
                "icon": 82
            },
            "geometry": {
                "type": "Point",
                "coordinates": [
                    2.85047,
                    50.41351
                ]
            }
        },
        {
            "type": "Feature",
            "properties": {
                "id": "15134",
                "name": "Avion",
                "icon": 82
            },
            "geometry": {
                "type": "Point",
                "coordinates": [
                    2.81417,
                    50.40736
                ]
            }
        },
        {
            "type": "Feature",
            "properties": {
                "id": "15132",
                "name": "Avion",
                "icon": 82
            },
            "geometry": {
                "type": "Point",
                "coordinates": [
                    2.83432,
                    50.41452
                ]
            }
        },
        {
            "type": "Feature",
            "properties": {
                "id": "15124",
                "name": "Bachy",
                "icon": 79
            },
            "geometry": {
                "type": "Point",
                "coordinates": [
                    3.25686,
                    50.54923
                ]
            }
        },
        {
            "type": "Feature",
            "properties": {
                "id": "15018",
                "name": "Autingues",
                "icon": 82
            },
            "geometry": {
                "type": "Point",
                "coordinates": [
                    1.98496,
                    50.84164
                ]
            }
        },
        {
            "type": "Feature",
            "properties": {
                "id": "14761",
                "name": "Arras",
                "icon": 82
            },
            "geometry": {
                "type": "Point",
                "coordinates": [
                    2.77945,
                    50.29026
                ]
            }
        },
        {
            "type": "Feature",
            "properties": {
                "id": "14718",
                "name": "Aubers",
                "icon": 79
            },
            "geometry": {
                "type": "Point",
                "coordinates": [
                    2.82506,
                    50.59505
                ]
            }
        },
        {
            "type": "Feature",
            "properties": {
                "id": "14707",
                "name": "Auchy-lez-Orchies",
                "icon": 79
            },
            "geometry": {
                "type": "Point",
                "coordinates": [
                    3.20422,
                    50.4802
                ]
            }
        },
        {
            "type": "Feature",
            "properties": {
                "id": "14595",
                "name": "Armancourt",
                "icon": 100
            },
            "geometry": {
                "type": "Point",
                "coordinates": [
                    2.71091,
                    49.67772
                ]
            }
        },
        {
            "type": "Feature",
            "properties": {
                "id": "14556",
                "name": "Appilly",
                "icon": 80
            },
            "geometry": {
                "type": "Point",
                "coordinates": [
                    3.11864,
                    49.58225
                ]
            }
        },
        {
            "type": "Feature",
            "properties": {
                "id": "14515",
                "name": "Annequin",
                "icon": 82
            },
            "geometry": {
                "type": "Point",
                "coordinates": [
                    2.72761,
                    50.50884
                ]
            }
        },
        {
            "type": "Feature",
            "properties": {
                "id": "14482",
                "name": "Andeville",
                "icon": 80
            },
            "geometry": {
                "type": "Point",
                "coordinates": [
                    2.16904,
                    49.26385
                ]
            }
        },
        {
            "type": "Feature",
            "properties": {
                "id": "14477",
                "name": "Andeville",
                "icon": 80
            },
            "geometry": {
                "type": "Point",
                "coordinates": [
                    2.16663,
                    49.25895
                ]
            }
        },
        {
            "type": "Feature",
            "properties": {
                "id": "14468",
                "name": "Amblainville",
                "icon": 80
            },
            "geometry": {
                "type": "Point",
                "coordinates": [
                    2.12019,
                    49.20119
                ]
            }
        },
        {
            "type": "Feature",
            "properties": {
                "id": "14442",
                "name": "Agnicourt-et-Séchelles",
                "icon": 12
            },
            "geometry": {
                "type": "Point",
                "coordinates": [
                    3.9542,
                    49.71733
                ]
            }
        },
        {
            "type": "Feature",
            "properties": {
                "id": "14413",
                "name": "Aix-en-Issart",
                "icon": 82
            },
            "geometry": {
                "type": "Point",
                "coordinates": [
                    1.85697,
                    50.47465
                ]
            }
        },
        {
            "type": "Feature",
            "properties": {
                "id": "14408",
                "name": "Amfroipret",
                "icon": 79
            },
            "geometry": {
                "type": "Point",
                "coordinates": [
                    3.7335,
                    50.27929
                ]
            }
        },
        {
            "type": "Feature",
            "properties": {
                "id": "14395",
                "name": "Aire-sur-la-Lys",
                "icon": 82
            },
            "geometry": {
                "type": "Point",
                "coordinates": [
                    2.4052,
                    50.63245
                ]
            }
        },
        {
            "type": "Feature",
            "properties": {
                "id": "14393",
                "name": "Aire-sur-la-Lys",
                "icon": 82
            },
            "geometry": {
                "type": "Point",
                "coordinates": [
                    2.39287,
                    50.64097
                ]
            }
        },
        {
            "type": "Feature",
            "properties": {
                "id": "14360",
                "name": "Acheux-en-Amiénois",
                "icon": 100
            },
            "geometry": {
                "type": "Point",
                "coordinates": [
                    2.53341,
                    50.07238
                ]
            }
        },
        {
            "type": "Feature",
            "properties": {
                "id": "14357",
                "name": "Achiet-le-Petit",
                "icon": 82
            },
            "geometry": {
                "type": "Point",
                "coordinates": [
                    2.75125,
                    50.12286
                ]
            }
        },
        {
            "type": "Feature",
            "properties": {
                "id": "13805",
                "name": "Compiègne",
                "icon": 80
            },
            "geometry": {
                "type": "Point",
                "coordinates": [
                    2.82129,
                    49.41337
                ]
            }
        },
        {
            "type": "Feature",
            "properties": {
                "id": "13803",
                "name": "Compiègne",
                "icon": 80
            },
            "geometry": {
                "type": "Point",
                "coordinates": [
                    2.81887,
                    49.41578
                ]
            }
        },
        {
            "type": "Feature",
            "properties": {
                "id": "13800",
                "name": "Neufvy-sur-Aronde",
                "icon": 80
            },
            "geometry": {
                "type": "Point",
                "coordinates": [
                    2.6634,
                    49.49628
                ]
            }
        },
        {
            "type": "Feature",
            "properties": {
                "id": "13798",
                "name": "Jaux",
                "icon": 80
            },
            "geometry": {
                "type": "Point",
                "coordinates": [
                    2.77643,
                    49.38664
                ]
            }
        },
        {
            "type": "Feature",
            "properties": {
                "id": "13783",
                "name": "Saint-Crépin-aux-Bois",
                "icon": 80
            },
            "geometry": {
                "type": "Point",
                "coordinates": [
                    2.97949,
                    49.43434
                ]
            }
        },
        {
            "type": "Feature",
            "properties": {
                "id": "13781",
                "name": "Pontpoint",
                "icon": 80
            },
            "geometry": {
                "type": "Point",
                "coordinates": [
                    2.64174,
                    49.29987
                ]
            }
        },
        {
            "type": "Feature",
            "properties": {
                "id": "13779",
                "name": "Brenouille",
                "icon": 80
            },
            "geometry": {
                "type": "Point",
                "coordinates": [
                    2.5374,
                    49.3051
                ]
            }
        },
        {
            "type": "Feature",
            "properties": {
                "id": "13777",
                "name": "Coincy",
                "icon": 12
            },
            "geometry": {
                "type": "Point",
                "coordinates": [
                    3.42134,
                    49.16067
                ]
            }
        },
        {
            "type": "Feature",
            "properties": {
                "id": "13775",
                "name": "Venette",
                "icon": 80
            },
            "geometry": {
                "type": "Point",
                "coordinates": [
                    2.80231,
                    49.41532
                ]
            }
        },
        {
            "type": "Feature",
            "properties": {
                "id": "13689",
                "name": "Saint-Valery-sur-Somme",
                "icon": 100
            },
            "geometry": {
                "type": "Point",
                "coordinates": [
                    1.64245,
                    50.18463
                ]
            }
        },
        {
            "type": "Feature",
            "properties": {
                "id": "13612",
                "name": "Effry",
                "icon": 12
            },
            "geometry": {
                "type": "Point",
                "coordinates": [
                    3.98492,
                    49.92324
                ]
            }
        },
        {
            "type": "Feature",
            "properties": {
                "id": "13594",
                "name": "Auberchicourt",
                "icon": 79
            },
            "geometry": {
                "type": "Point",
                "coordinates": [
                    3.2394,
                    50.32681
                ]
            }
        },
        {
            "type": "Feature",
            "properties": {
                "id": "13274",
                "name": "Crouy-en-Thelle",
                "icon": 80
            },
            "geometry": {
                "type": "Point",
                "coordinates": [
                    2.32091,
                    49.21339
                ]
            }
        },
        {
            "type": "Feature",
            "properties": {
                "id": "13271",
                "name": "Creil",
                "icon": 80
            },
            "geometry": {
                "type": "Point",
                "coordinates": [
                    2.47388,
                    49.26231
                ]
            }
        },
        {
            "type": "Feature",
            "properties": {
                "id": "13269",
                "name": "Clermont",
                "icon": 80
            },
            "geometry": {
                "type": "Point",
                "coordinates": [
                    2.41767,
                    49.38493
                ]
            }
        },
        {
            "type": "Feature",
            "properties": {
                "id": "13267",
                "name": "Laigneville",
                "icon": 80
            },
            "geometry": {
                "type": "Point",
                "coordinates": [
                    2.44398,
                    49.29372
                ]
            }
        },
        {
            "type": "Feature",
            "properties": {
                "id": "13265",
                "name": "Nogent-sur-Oise",
                "icon": 80
            },
            "geometry": {
                "type": "Point",
                "coordinates": [
                    2.46595,
                    49.27049
                ]
            }
        },
        {
            "type": "Feature",
            "properties": {
                "id": "13262",
                "name": "Montataire",
                "icon": 80
            },
            "geometry": {
                "type": "Point",
                "coordinates": [
                    2.44602,
                    49.25447
                ]
            }
        },
        {
            "type": "Feature",
            "properties": {
                "id": "13171",
                "name": "La Neuville-Roy",
                "icon": 80
            },
            "geometry": {
                "type": "Point",
                "coordinates": [
                    2.57783,
                    49.48131
                ]
            }
        },
        {
            "type": "Feature",
            "properties": {
                "id": "13096",
                "name": "Marcelcave",
                "icon": 100
            },
            "geometry": {
                "type": "Point",
                "coordinates": [
                    2.57326,
                    49.84899
                ]
            }
        },
        {
            "type": "Feature",
            "properties": {
                "id": "12635",
                "name": "Vierzy",
                "icon": 12
            },
            "geometry": {
                "type": "Point",
                "coordinates": [
                    3.28485,
                    49.29165
                ]
            }
        },
        {
            "type": "Feature",
            "properties": {
                "id": "12633",
                "name": "Saint-Rémy-Blanzy",
                "icon": 12
            },
            "geometry": {
                "type": "Point",
                "coordinates": [
                    3.31017,
                    49.2408
                ]
            }
        },
        {
            "type": "Feature",
            "properties": {
                "id": "12631",
                "name": "Parcy-et-Tigny",
                "icon": 12
            },
            "geometry": {
                "type": "Point",
                "coordinates": [
                    3.33282,
                    49.27848
                ]
            }
        },
        {
            "type": "Feature",
            "properties": {
                "id": "12629",
                "name": "Oulchy-le-Château",
                "icon": 12
            },
            "geometry": {
                "type": "Point",
                "coordinates": [
                    3.36821,
                    49.20429
                ]
            }
        },
        {
            "type": "Feature",
            "properties": {
                "id": "12627",
                "name": "Oulchy-la-ville",
                "icon": 12
            },
            "geometry": {
                "type": "Point",
                "coordinates": [
                    3.34915,
                    49.21326
                ]
            }
        },
        {
            "type": "Feature",
            "properties": {
                "id": "12625",
                "name": "Nampteuil-Sous-Muret",
                "icon": 12
            },
            "geometry": {
                "type": "Point",
                "coordinates": [
                    3.42561,
                    49.30066
                ]
            }
        },
        {
            "type": "Feature",
            "properties": {
                "id": "12623",
                "name": "Muret-et-Crouttes",
                "icon": 12
            },
            "geometry": {
                "type": "Point",
                "coordinates": [
                    3.41688,
                    49.28448
                ]
            }
        },
        {
            "type": "Feature",
            "properties": {
                "id": "12621",
                "name": "Hartennes-et-Taux",
                "icon": 12
            },
            "geometry": {
                "type": "Point",
                "coordinates": [
                    3.35309,
                    49.26974
                ]
            }
        },
        {
            "type": "Feature",
            "properties": {
                "id": "12619",
                "name": "Cuiry-Housse",
                "icon": 12
            },
            "geometry": {
                "type": "Point",
                "coordinates": [
                    3.49234,
                    49.29507
                ]
            }
        },
        {
            "type": "Feature",
            "properties": {
                "id": "12617",
                "name": "Chacrise",
                "icon": 12
            },
            "geometry": {
                "type": "Point",
                "coordinates": [
                    3.40447,
                    49.30384
                ]
            }
        },
        {
            "type": "Feature",
            "properties": {
                "id": "12616",
                "name": "Buzancy",
                "icon": 12
            },
            "geometry": {
                "type": "Point",
                "coordinates": [
                    3.34829,
                    49.31373
                ]
            }
        },
        {
            "type": "Feature",
            "properties": {
                "id": "12614",
                "name": "Breny",
                "icon": 12
            },
            "geometry": {
                "type": "Point",
                "coordinates": [
                    3.35163,
                    49.18606
                ]
            }
        },
        {
            "type": "Feature",
            "properties": {
                "id": "12611",
                "name": "Billy-sur-Ourcq",
                "icon": 12
            },
            "geometry": {
                "type": "Point",
                "coordinates": [
                    3.29978,
                    49.21801
                ]
            }
        },
        {
            "type": "Feature",
            "properties": {
                "id": "12603",
                "name": "Beugneux",
                "icon": 12
            },
            "geometry": {
                "type": "Point",
                "coordinates": [
                    3.41394,
                    49.23461
                ]
            }
        },
        {
            "type": "Feature",
            "properties": {
                "id": "12601",
                "name": "Arcy-Sainte-Restitue",
                "icon": 12
            },
            "geometry": {
                "type": "Point",
                "coordinates": [
                    3.46365,
                    49.25279
                ]
            }
        },
        {
            "type": "Feature",
            "properties": {
                "id": "12361",
                "name": "Étouy",
                "icon": 80
            },
            "geometry": {
                "type": "Point",
                "coordinates": [
                    2.36108,
                    49.41981
                ]
            }
        },
        {
            "type": "Feature",
            "properties": {
                "id": "12034",
                "name": "Pont-Sainte-Maxence",
                "icon": 80
            },
            "geometry": {
                "type": "Point",
                "coordinates": [
                    2.60342,
                    49.30696
                ]
            }
        },
        {
            "type": "Feature",
            "properties": {
                "id": "11365",
                "name": "Santes",
                "icon": 79
            },
            "geometry": {
                "type": "Point",
                "coordinates": [
                    2.96105,
                    50.59181
                ]
            }
        },
        {
            "type": "Feature",
            "properties": {
                "id": "11363",
                "name": "Santes",
                "icon": 79
            },
            "geometry": {
                "type": "Point",
                "coordinates": [
                    2.95583,
                    50.59728
                ]
            }
        },
        {
            "type": "Feature",
            "properties": {
                "id": "11332",
                "name": "Mers-les-Bains",
                "icon": 100
            },
            "geometry": {
                "type": "Point",
                "coordinates": [
                    1.3844,
                    50.06772
                ]
            }
        },
        {
            "type": "Feature",
            "properties": {
                "id": "11268",
                "name": "Conteville-lès-Boulogne",
                "icon": 82
            },
            "geometry": {
                "type": "Point",
                "coordinates": [
                    1.73319,
                    50.74457
                ]
            }
        },
        {
            "type": "Feature",
            "properties": {
                "id": "11255",
                "name": "Chantilly",
                "icon": 80
            },
            "geometry": {
                "type": "Point",
                "coordinates": [
                    2.46533,
                    49.1943
                ]
            }
        },
        {
            "type": "Feature",
            "properties": {
                "id": "11253",
                "name": "Précy-sur-Oise",
                "icon": 80
            },
            "geometry": {
                "type": "Point",
                "coordinates": [
                    2.37146,
                    49.20663
                ]
            }
        },
        {
            "type": "Feature",
            "properties": {
                "id": "11192",
                "name": "Trelon",
                "icon": 79
            },
            "geometry": {
                "type": "Point",
                "coordinates": [
                    4.10457,
                    50.05891
                ]
            }
        },
        {
            "type": "Feature",
            "properties": {
                "id": "9778",
                "name": "Ribécourt-la-Tour",
                "icon": 79
            },
            "geometry": {
                "type": "Point",
                "coordinates": [
                    3.12955,
                    50.1113
                ]
            }
        },
        {
            "type": "Feature",
            "properties": {
                "id": "9771",
                "name": "Marcoing",
                "icon": 79
            },
            "geometry": {
                "type": "Point",
                "coordinates": [
                    3.17254,
                    50.12155
                ]
            }
        },
        {
            "type": "Feature",
            "properties": {
                "id": "9769",
                "name": "Villers-Guislain",
                "icon": 79
            },
            "geometry": {
                "type": "Point",
                "coordinates": [
                    3.15574,
                    50.04014
                ]
            }
        },
        {
            "type": "Feature",
            "properties": {
                "id": "9767",
                "name": "Séranvillers-Forenville",
                "icon": 79
            },
            "geometry": {
                "type": "Point",
                "coordinates": [
                    3.28249,
                    50.12434
                ]
            }
        },
        {
            "type": "Feature",
            "properties": {
                "id": "9765",
                "name": "Boursies",
                "icon": 79
            },
            "geometry": {
                "type": "Point",
                "coordinates": [
                    3.03509,
                    50.14058
                ]
            }
        },
        {
            "type": "Feature",
            "properties": {
                "id": "9763",
                "name": "Cantaing-sur-Escaut",
                "icon": 79
            },
            "geometry": {
                "type": "Point",
                "coordinates": [
                    3.1622,
                    50.14778
                ]
            }
        },
        {
            "type": "Feature",
            "properties": {
                "id": "9761",
                "name": "Doignies",
                "icon": 79
            },
            "geometry": {
                "type": "Point",
                "coordinates": [
                    3.01579,
                    50.1282
                ]
            }
        },
        {
            "type": "Feature",
            "properties": {
                "id": "9758",
                "name": "Sorrus",
                "icon": 82
            },
            "geometry": {
                "type": "Point",
                "coordinates": [
                    1.71768,
                    50.45919
                ]
            }
        },
        {
            "type": "Feature",
            "properties": {
                "id": "9750",
                "name": "Croutoy",
                "icon": 80
            },
            "geometry": {
                "type": "Point",
                "coordinates": [
                    3.04314,
                    49.38601
                ]
            }
        },
        {
            "type": "Feature",
            "properties": {
                "id": "9686",
                "name": "Feuquières",
                "icon": 80
            },
            "geometry": {
                "type": "Point",
                "coordinates": [
                    1.84484,
                    49.64706
                ]
            }
        },
        {
            "type": "Feature",
            "properties": {
                "id": "9677",
                "name": "Fressenneville",
                "icon": 100
            },
            "geometry": {
                "type": "Point",
                "coordinates": [
                    1.57774,
                    50.06742
                ]
            }
        },
        {
            "type": "Feature",
            "properties": {
                "id": "9551",
                "name": "Lys-lez-Lannoy",
                "icon": 79
            },
            "geometry": {
                "type": "Point",
                "coordinates": [
                    3.21589,
                    50.66508
                ]
            }
        },
        {
            "type": "Feature",
            "properties": {
                "id": "9549",
                "name": "Lys-lez-Lannoy",
                "icon": 79
            },
            "geometry": {
                "type": "Point",
                "coordinates": [
                    3.21225,
                    50.6697
                ]
            }
        },
        {
            "type": "Feature",
            "properties": {
                "id": "9547",
                "name": "Lys-lez-Lannoy",
                "icon": 79
            },
            "geometry": {
                "type": "Point",
                "coordinates": [
                    3.2096,
                    50.67339
                ]
            }
        },
        {
            "type": "Feature",
            "properties": {
                "id": "9545",
                "name": "Lys-lez-Lannoy",
                "icon": 79
            },
            "geometry": {
                "type": "Point",
                "coordinates": [
                    3.21492,
                    50.67047
                ]
            }
        },
        {
            "type": "Feature",
            "properties": {
                "id": "9543",
                "name": "Lys-lez-Lannoy",
                "icon": 79
            },
            "geometry": {
                "type": "Point",
                "coordinates": [
                    3.2269,
                    50.67414
                ]
            }
        },
        {
            "type": "Feature",
            "properties": {
                "id": "9541",
                "name": "Aubencheul-au-Bac",
                "icon": 79
            },
            "geometry": {
                "type": "Point",
                "coordinates": [
                    3.15387,
                    50.25832
                ]
            }
        },
        {
            "type": "Feature",
            "properties": {
                "id": "9539",
                "name": "Aubencheul-au-Bac",
                "icon": 79
            },
            "geometry": {
                "type": "Point",
                "coordinates": [
                    3.16031,
                    50.25674
                ]
            }
        },
        {
            "type": "Feature",
            "properties": {
                "id": "9537",
                "name": "Sebourg",
                "icon": 79
            },
            "geometry": {
                "type": "Point",
                "coordinates": [
                    3.64542,
                    50.34212
                ]
            }
        },
        {
            "type": "Feature",
            "properties": {
                "id": "9273",
                "name": "Rombies-et-Marchipont",
                "icon": 79
            },
            "geometry": {
                "type": "Point",
                "coordinates": [
                    3.64156,
                    50.36412
                ]
            }
        },
        {
            "type": "Feature",
            "properties": {
                "id": "9271",
                "name": "Quesnoy-sur-Deûle",
                "icon": 79
            },
            "geometry": {
                "type": "Point",
                "coordinates": [
                    2.99506,
                    50.70873
                ]
            }
        },
        {
            "type": "Feature",
            "properties": {
                "id": "9269",
                "name": "Bergues",
                "icon": 79
            },
            "geometry": {
                "type": "Point",
                "coordinates": [
                    2.43777,
                    50.97207
                ]
            }
        },
        {
            "type": "Feature",
            "properties": {
                "id": "9267",
                "name": "Bergues",
                "icon": 79
            },
            "geometry": {
                "type": "Point",
                "coordinates": [
                    2.43209,
                    50.96642
                ]
            }
        },
        {
            "type": "Feature",
            "properties": {
                "id": "9265",
                "name": "Bergues",
                "icon": 79
            },
            "geometry": {
                "type": "Point",
                "coordinates": [
                    2.43262,
                    50.96817
                ]
            }
        },
        {
            "type": "Feature",
            "properties": {
                "id": "9263",
                "name": "Wormhout",
                "icon": 79
            },
            "geometry": {
                "type": "Point",
                "coordinates": [
                    2.4661,
                    50.88024
                ]
            }
        },
        {
            "type": "Feature",
            "properties": {
                "id": "9261",
                "name": "Saint-Étienne-au-Mont",
                "icon": 82
            },
            "geometry": {
                "type": "Point",
                "coordinates": [
                    1.62616,
                    50.6818
                ]
            }
        },
        {
            "type": "Feature",
            "properties": {
                "id": "9259",
                "name": "Villers-Châtel",
                "icon": 82
            },
            "geometry": {
                "type": "Point",
                "coordinates": [
                    2.58567,
                    50.37649
                ]
            }
        },
        {
            "type": "Feature",
            "properties": {
                "id": "9242",
                "name": "Wattrelos",
                "icon": 79
            },
            "geometry": {
                "type": "Point",
                "coordinates": [
                    3.23581,
                    50.70462
                ]
            }
        },
        {
            "type": "Feature",
            "properties": {
                "id": "9222",
                "name": "Wimille",
                "icon": 82
            },
            "geometry": {
                "type": "Point",
                "coordinates": [
                    1.61875,
                    50.76547
                ]
            }
        },
        {
            "type": "Feature",
            "properties": {
                "id": "9220",
                "name": "Wimille",
                "icon": 82
            },
            "geometry": {
                "type": "Point",
                "coordinates": [
                    1.62055,
                    50.76808
                ]
            }
        },
        {
            "type": "Feature",
            "properties": {
                "id": "9218",
                "name": "Seclin",
                "icon": 79
            },
            "geometry": {
                "type": "Point",
                "coordinates": [
                    3.03173,
                    50.55329
                ]
            }
        },
        {
            "type": "Feature",
            "properties": {
                "id": "9214",
                "name": "La Loge",
                "icon": 82
            },
            "geometry": {
                "type": "Point",
                "coordinates": [
                    2.0313,
                    50.41023
                ]
            }
        },
        {
            "type": "Feature",
            "properties": {
                "id": "9209",
                "name": "Cormeilles",
                "icon": 80
            },
            "geometry": {
                "type": "Point",
                "coordinates": [
                    2.19328,
                    49.64108
                ]
            }
        },
        {
            "type": "Feature",
            "properties": {
                "id": "9191",
                "name": "Lille",
                "icon": 79
            },
            "geometry": {
                "type": "Point",
                "coordinates": [
                    3.04993,
                    50.62222
                ]
            }
        },
        {
            "type": "Feature",
            "properties": {
                "id": "9182",
                "name": "Oignies",
                "icon": 82
            },
            "geometry": {
                "type": "Point",
                "coordinates": [
                    2.99673,
                    50.46866
                ]
            }
        },
        {
            "type": "Feature",
            "properties": {
                "id": "8525",
                "name": "Vieux-Mesnil",
                "icon": 79
            },
            "geometry": {
                "type": "Point",
                "coordinates": [
                    3.86449,
                    50.25453
                ]
            }
        },
        {
            "type": "Feature",
            "properties": {
                "id": "8155",
                "name": "Lanchéres",
                "icon": 100
            },
            "geometry": {
                "type": "Point",
                "coordinates": [
                    1.55081,
                    50.15647
                ]
            }
        },
        {
            "type": "Feature",
            "properties": {
                "id": "8095",
                "name": "Villers-sur-Authie",
                "icon": 100
            },
            "geometry": {
                "type": "Point",
                "coordinates": [
                    1.6942,
                    50.31476
                ]
            }
        },
        {
            "type": "Feature",
            "properties": {
                "id": "8024",
                "name": "Roubaix",
                "icon": 79
            },
            "geometry": {
                "type": "Point",
                "coordinates": [
                    3.2012,
                    50.68097
                ]
            }
        },
        {
            "type": "Feature",
            "properties": {
                "id": "8022",
                "name": "Roubaix",
                "icon": 79
            },
            "geometry": {
                "type": "Point",
                "coordinates": [
                    3.20074,
                    50.68528
                ]
            }
        },
        {
            "type": "Feature",
            "properties": {
                "id": "8020",
                "name": "Roubaix",
                "icon": 79
            },
            "geometry": {
                "type": "Point",
                "coordinates": [
                    3.1601,
                    50.69169
                ]
            }
        },
        {
            "type": "Feature",
            "properties": {
                "id": "7987",
                "name": "Verneuil-en-Halatte",
                "icon": 80
            },
            "geometry": {
                "type": "Point",
                "coordinates": [
                    2.5173,
                    49.27439
                ]
            }
        },
        {
            "type": "Feature",
            "properties": {
                "id": "7974",
                "name": "Boncourt",
                "icon": 12
            },
            "geometry": {
                "type": "Point",
                "coordinates": [
                    3.94506,
                    49.61593
                ]
            }
        },
        {
            "type": "Feature",
            "properties": {
                "id": "7894",
                "name": "Vauxaillon",
                "icon": 12
            },
            "geometry": {
                "type": "Point",
                "coordinates": [
                    3.40708,
                    49.47704
                ]
            }
        },
        {
            "type": "Feature",
            "properties": {
                "id": "7892",
                "name": "Hasnon",
                "icon": 79
            },
            "geometry": {
                "type": "Point",
                "coordinates": [
                    3.37311,
                    50.41791
                ]
            }
        },
        {
            "type": "Feature",
            "properties": {
                "id": "7890",
                "name": "Landas",
                "icon": 79
            },
            "geometry": {
                "type": "Point",
                "coordinates": [
                    3.30028,
                    50.47397
                ]
            }
        },
        {
            "type": "Feature",
            "properties": {
                "id": "7888",
                "name": "Saint-Pol-sur-Ternoise",
                "icon": 82
            },
            "geometry": {
                "type": "Point",
                "coordinates": [
                    2.33624,
                    50.38107
                ]
            }
        },
        {
            "type": "Feature",
            "properties": {
                "id": "7886",
                "name": "Frévent",
                "icon": 82
            },
            "geometry": {
                "type": "Point",
                "coordinates": [
                    2.29329,
                    50.2784
                ]
            }
        },
        {
            "type": "Feature",
            "properties": {
                "id": "7884",
                "name": "Vieux-Berquin",
                "icon": 79
            },
            "geometry": {
                "type": "Point",
                "coordinates": [
                    2.60027,
                    50.70766
                ]
            }
        },
        {
            "type": "Feature",
            "properties": {
                "id": "7882",
                "name": "Fort-Mahon-Plage",
                "icon": 100
            },
            "geometry": {
                "type": "Point",
                "coordinates": [
                    1.54987,
                    50.33868
                ]
            }
        },
        {
            "type": "Feature",
            "properties": {
                "id": "7880",
                "name": "Le Crotoy",
                "icon": 100
            },
            "geometry": {
                "type": "Point",
                "coordinates": [
                    1.62573,
                    50.21489
                ]
            }
        },
        {
            "type": "Feature",
            "properties": {
                "id": "7878",
                "name": "Mouy",
                "icon": 80
            },
            "geometry": {
                "type": "Point",
                "coordinates": [
                    2.32275,
                    49.31996
                ]
            }
        },
        {
            "type": "Feature",
            "properties": {
                "id": "7876",
                "name": "Mouy",
                "icon": 80
            },
            "geometry": {
                "type": "Point",
                "coordinates": [
                    2.32587,
                    49.3204
                ]
            }
        },
        {
            "type": "Feature",
            "properties": {
                "id": "7874",
                "name": "Margny-lès-Compiègne",
                "icon": 80
            },
            "geometry": {
                "type": "Point",
                "coordinates": [
                    2.81948,
                    49.42412
                ]
            }
        },
        {
            "type": "Feature",
            "properties": {
                "id": "7685",
                "name": "Itancourt",
                "icon": 12
            },
            "geometry": {
                "type": "Point",
                "coordinates": [
                    3.34533,
                    49.8073
                ]
            }
        },
        {
            "type": "Feature",
            "properties": {
                "id": "7663",
                "name": "La Fère",
                "icon": 12
            },
            "geometry": {
                "type": "Point",
                "coordinates": [
                    3.37207,
                    49.66183
                ]
            }
        },
        {
            "type": "Feature",
            "properties": {
                "id": "7644",
                "name": "Saint-Pierre-Aigle",
                "icon": 12
            },
            "geometry": {
                "type": "Point",
                "coordinates": [
                    3.18364,
                    49.32178
                ]
            }
        },
        {
            "type": "Feature",
            "properties": {
                "id": "7589",
                "name": "La Ferté-Milon",
                "icon": 12
            },
            "geometry": {
                "type": "Point",
                "coordinates": [
                    3.12725,
                    49.18353
                ]
            }
        },
        {
            "type": "Feature",
            "properties": {
                "id": "7559",
                "name": "Bully-les-Mines",
                "icon": 82
            },
            "geometry": {
                "type": "Point",
                "coordinates": [
                    2.721,
                    50.44616
                ]
            }
        },
        {
            "type": "Feature",
            "properties": {
                "id": "7468",
                "name": "Saint-Quentin",
                "icon": 12
            },
            "geometry": {
                "type": "Point",
                "coordinates": [
                    3.31591,
                    49.8475
                ]
            }
        },
        {
            "type": "Feature",
            "properties": {
                "id": "6400",
                "name": "Loison-sous-Lens",
                "icon": 82
            },
            "geometry": {
                "type": "Point",
                "coordinates": [
                    2.86822,
                    50.43815
                ]
            }
        },
        {
            "type": "Feature",
            "properties": {
                "id": "5318",
                "name": "Croix",
                "icon": 79
            },
            "geometry": {
                "type": "Point",
                "coordinates": [
                    3.16699,
                    50.66776
                ]
            }
        },
        {
            "type": "Feature",
            "properties": {
                "id": "5244",
                "name": "Lille",
                "icon": 79
            },
            "geometry": {
                "type": "Point",
                "coordinates": [
                    3.0557,
                    50.64997
                ]
            }
        },
        {
            "type": "Feature",
            "properties": {
                "id": "5207",
                "name": "Condé-sur-l'Escaut",
                "icon": 79
            },
            "geometry": {
                "type": "Point",
                "coordinates": [
                    3.59969,
                    50.45009
                ]
            }
        },
        {
            "type": "Feature",
            "properties": {
                "id": "5205",
                "name": "Arleux-en-Gohelle",
                "icon": 82
            },
            "geometry": {
                "type": "Point",
                "coordinates": [
                    2.86905,
                    50.36321
                ]
            }
        },
        {
            "type": "Feature",
            "properties": {
                "id": "5202",
                "name": "Allonville",
                "icon": 100
            },
            "geometry": {
                "type": "Point",
                "coordinates": [
                    2.36291,
                    49.9405
                ]
            }
        },
        {
            "type": "Feature",
            "properties": {
                "id": "5200",
                "name": "Rivery",
                "icon": 100
            },
            "geometry": {
                "type": "Point",
                "coordinates": [
                    2.3218,
                    49.90082
                ]
            }
        },
        {
            "type": "Feature",
            "properties": {
                "id": "5198",
                "name": "Camon",
                "icon": 100
            },
            "geometry": {
                "type": "Point",
                "coordinates": [
                    2.34363,
                    49.8875
                ]
            }
        },
        {
            "type": "Feature",
            "properties": {
                "id": "5188",
                "name": "Hébécourt",
                "icon": 100
            },
            "geometry": {
                "type": "Point",
                "coordinates": [
                    2.26094,
                    49.81414
                ]
            }
        },
        {
            "type": "Feature",
            "properties": {
                "id": "5186",
                "name": "Rumigny",
                "icon": 100
            },
            "geometry": {
                "type": "Point",
                "coordinates": [
                    2.27939,
                    49.80776
                ]
            }
        },
        {
            "type": "Feature",
            "properties": {
                "id": "5184",
                "name": "Guignemicourt",
                "icon": 100
            },
            "geometry": {
                "type": "Point",
                "coordinates": [
                    2.17681,
                    49.8704
                ]
            }
        },
        {
            "type": "Feature",
            "properties": {
                "id": "5177",
                "name": "Pissy",
                "icon": 100
            },
            "geometry": {
                "type": "Point",
                "coordinates": [
                    2.1305,
                    49.86196
                ]
            }
        },
        {
            "type": "Feature",
            "properties": {
                "id": "5175",
                "name": "Revelles",
                "icon": 100
            },
            "geometry": {
                "type": "Point",
                "coordinates": [
                    2.1209,
                    49.84934
                ]
            }
        },
        {
            "type": "Feature",
            "properties": {
                "id": "5129",
                "name": "Creuse",
                "icon": 100
            },
            "geometry": {
                "type": "Point",
                "coordinates": [
                    2.16294,
                    49.839
                ]
            }
        },
        {
            "type": "Feature",
            "properties": {
                "id": "5127",
                "name": "Vers-sur-Selle",
                "icon": 100
            },
            "geometry": {
                "type": "Point",
                "coordinates": [
                    2.23063,
                    49.84295
                ]
            }
        },
        {
            "type": "Feature",
            "properties": {
                "id": "5125",
                "name": "Saleux",
                "icon": 100
            },
            "geometry": {
                "type": "Point",
                "coordinates": [
                    2.23971,
                    49.8593
                ]
            }
        },
        {
            "type": "Feature",
            "properties": {
                "id": "5044",
                "name": "Laon",
                "icon": 12
            },
            "geometry": {
                "type": "Point",
                "coordinates": [
                    3.62311,
                    49.56422
                ]
            }
        },
        {
            "type": "Feature",
            "properties": {
                "id": "5042",
                "name": "Laon",
                "icon": 12
            },
            "geometry": {
                "type": "Point",
                "coordinates": [
                    3.61708,
                    49.5644
                ]
            }
        },
        {
            "type": "Feature",
            "properties": {
                "id": "5040",
                "name": "Sissonne",
                "icon": 12
            },
            "geometry": {
                "type": "Point",
                "coordinates": [
                    3.89364,
                    49.5729
                ]
            }
        },
        {
            "type": "Feature",
            "properties": {
                "id": "5038",
                "name": "Roubaix",
                "icon": 79
            },
            "geometry": {
                "type": "Point",
                "coordinates": [
                    3.16475,
                    50.683
                ]
            }
        },
        {
            "type": "Feature",
            "properties": {
                "id": "5012",
                "name": "Grandvilliers",
                "icon": 80
            },
            "geometry": {
                "type": "Point",
                "coordinates": [
                    1.93793,
                    49.66621
                ]
            }
        },
        {
            "type": "Feature",
            "properties": {
                "id": "4944",
                "name": "Cartignies",
                "icon": 79
            },
            "geometry": {
                "type": "Point",
                "coordinates": [
                    3.84458,
                    50.09238
                ]
            }
        },
        {
            "type": "Feature",
            "properties": {
                "id": "4942",
                "name": "Wingles",
                "icon": 82
            },
            "geometry": {
                "type": "Point",
                "coordinates": [
                    2.85142,
                    50.49442
                ]
            }
        },
        {
            "type": "Feature",
            "properties": {
                "id": "4940",
                "name": "Molliens-Dreuil",
                "icon": 100
            },
            "geometry": {
                "type": "Point",
                "coordinates": [
                    2.01903,
                    49.88377
                ]
            }
        },
        {
            "type": "Feature",
            "properties": {
                "id": "4938",
                "name": "Crevecoeur-le-Grand",
                "icon": 80
            },
            "geometry": {
                "type": "Point",
                "coordinates": [
                    2.07652,
                    49.60847
                ]
            }
        },
        {
            "type": "Feature",
            "properties": {
                "id": "4936",
                "name": "Froissy",
                "icon": 80
            },
            "geometry": {
                "type": "Point",
                "coordinates": [
                    2.22022,
                    49.56562
                ]
            }
        },
        {
            "type": "Feature",
            "properties": {
                "id": "4826",
                "name": "Ecques",
                "icon": 82
            },
            "geometry": {
                "type": "Point",
                "coordinates": [
                    2.30879,
                    50.68072
                ]
            }
        },
        {
            "type": "Feature",
            "properties": {
                "id": "4824",
                "name": "Ecques",
                "icon": 82
            },
            "geometry": {
                "type": "Point",
                "coordinates": [
                    2.305109,
                    50.685662
                ]
            }
        },
        {
            "type": "Feature",
            "properties": {
                "id": "4822",
                "name": "Arques",
                "icon": 82
            },
            "geometry": {
                "type": "Point",
                "coordinates": [
                    2.31122,
                    50.74255
                ]
            }
        },
        {
            "type": "Feature",
            "properties": {
                "id": "4820",
                "name": "Arques",
                "icon": 82
            },
            "geometry": {
                "type": "Point",
                "coordinates": [
                    2.29391,
                    50.72462
                ]
            }
        },
        {
            "type": "Feature",
            "properties": {
                "id": "4818",
                "name": "Arques",
                "icon": 82
            },
            "geometry": {
                "type": "Point",
                "coordinates": [
                    2.27681,
                    50.73955
                ]
            }
        },
        {
            "type": "Feature",
            "properties": {
                "id": "4816",
                "name": "Avroult",
                "icon": 82
            },
            "geometry": {
                "type": "Point",
                "coordinates": [
                    2.14413,
                    50.63307
                ]
            }
        },
        {
            "type": "Feature",
            "properties": {
                "id": "4814",
                "name": "Bayenghem-lès-Éperlecques",
                "icon": 82
            },
            "geometry": {
                "type": "Point",
                "coordinates": [
                    2.12521,
                    50.80611
                ]
            }
        },
        {
            "type": "Feature",
            "properties": {
                "id": "4812",
                "name": "Beaumetz-lès-Aire",
                "icon": 82
            },
            "geometry": {
                "type": "Point",
                "coordinates": [
                    2.22764,
                    50.54075
                ]
            }
        },
        {
            "type": "Feature",
            "properties": {
                "id": "4810",
                "name": "Blendecques",
                "icon": 82
            },
            "geometry": {
                "type": "Point",
                "coordinates": [
                    2.29374,
                    50.7224
                ]
            }
        },
        {
            "type": "Feature",
            "properties": {
                "id": "4808",
                "name": "Blendecques",
                "icon": 82
            },
            "geometry": {
                "type": "Point",
                "coordinates": [
                    2.27125,
                    50.71462
                ]
            }
        },
        {
            "type": "Feature",
            "properties": {
                "id": "4806",
                "name": "Campagne-lès-Wardrecques",
                "icon": 82
            },
            "geometry": {
                "type": "Point",
                "coordinates": [
                    2.33251,
                    50.71714
                ]
            }
        },
        {
            "type": "Feature",
            "properties": {
                "id": "4804",
                "name": "Delettes",
                "icon": 82
            },
            "geometry": {
                "type": "Point",
                "coordinates": [
                    2.207691371440888,
                    50.62051773254789
                ]
            }
        },
        {
            "type": "Feature",
            "properties": {
                "id": "4802",
                "name": "Dennebrœucq",
                "icon": 82
            },
            "geometry": {
                "type": "Point",
                "coordinates": [
                    2.16357,
                    50.58831
                ]
            }
        },
        {
            "type": "Feature",
            "properties": {
                "id": "4800",
                "name": "Ecques",
                "icon": 82
            },
            "geometry": {
                "type": "Point",
                "coordinates": [
                    2.2899,
                    50.6702
                ]
            }
        },
        {
            "type": "Feature",
            "properties": {
                "id": "4798",
                "name": "Enguinegatte",
                "icon": 82
            },
            "geometry": {
                "type": "Point",
                "coordinates": [
                    2.27167,
                    50.60686
                ]
            }
        },
        {
            "type": "Feature",
            "properties": {
                "id": "4796",
                "name": "Enquin-les-Mines",
                "icon": 82
            },
            "geometry": {
                "type": "Point",
                "coordinates": [
                    2.301598191261292,
                    50.59424748285556
                ]
            }
        },
        {
            "type": "Feature",
            "properties": {
                "id": "4794",
                "name": "Éperlecques",
                "icon": 82
            },
            "geometry": {
                "type": "Point",
                "coordinates": [
                    2.15383,
                    50.80535
                ]
            }
        },
        {
            "type": "Feature",
            "properties": {
                "id": "4792",
                "name": "Éperlecques",
                "icon": 82
            },
            "geometry": {
                "type": "Point",
                "coordinates": [
                    2.19939,
                    50.82219
                ]
            }
        },
        {
            "type": "Feature",
            "properties": {
                "id": "4791",
                "name": "Hallines",
                "icon": 82
            },
            "geometry": {
                "type": "Point",
                "coordinates": [
                    2.2104,
                    50.70872
                ]
            }
        },
        {
            "type": "Feature",
            "properties": {
                "id": "4789",
                "name": "Herbelles",
                "icon": 82
            },
            "geometry": {
                "type": "Point",
                "coordinates": [
                    2.22243,
                    50.65475
                ]
            }
        },
        {
            "type": "Feature",
            "properties": {
                "id": "4787",
                "name": "Heuringhem",
                "icon": 82
            },
            "geometry": {
                "type": "Point",
                "coordinates": [
                    2.28376,
                    50.69767
                ]
            }
        },
        {
            "type": "Feature",
            "properties": {
                "id": "4785",
                "name": "Inghem",
                "icon": 82
            },
            "geometry": {
                "type": "Point",
                "coordinates": [
                    2.24357,
                    50.66778
                ]
            }
        },
        {
            "type": "Feature",
            "properties": {
                "id": "4783",
                "name": "Laires",
                "icon": 82
            },
            "geometry": {
                "type": "Point",
                "coordinates": [
                    2.25173,
                    50.53865
                ]
            }
        },
        {
            "type": "Feature",
            "properties": {
                "id": "4781",
                "name": "Longuenesse",
                "icon": 82
            },
            "geometry": {
                "type": "Point",
                "coordinates": [
                    2.26597,
                    50.73935
                ]
            }
        },
        {
            "type": "Feature",
            "properties": {
                "id": "4779",
                "name": "Longuenesse",
                "icon": 82
            },
            "geometry": {
                "type": "Point",
                "coordinates": [
                    2.26671,
                    50.74233
                ]
            }
        },
        {
            "type": "Feature",
            "properties": {
                "id": "4777",
                "name": "Longuenesse",
                "icon": 82
            },