<?xml version='1.0' encoding='UTF-8' standalone='yes' ?>
<gpx version="1.1" creator="Binnette" xmlns="http://www.topografix.com/GPX/1/1" xmlns:osmand="https://osmand.net" xmlns:xsi="http://www.w3.org/2001/XMLSchema-instance" xsi:schemaLocation="http://www.topografix.com/GPX/1/1 http://www.topografix.com/GPX/1/1/gpx.xsd">
  <wpt lat="44.966014" lon="5.739058">
    <name>La Motte-d'Aveillans z24680</name>
    <type>ZoneLivre Auvergne-Rhône-Alpes</type>
    <extensions>
      <osmand:color>#10c0f0</osmand:color>
      <osmand:background>square</osmand:background>
      <osmand:icon>public_bookcase</osmand:icon>
    </extensions>
  </wpt>
  <wpt lat="45.259875" lon="6.805813">
    <name>Val-Cenis z24675</name>
    <type>ZoneLivre Auvergne-Rhône-Alpes</type>
    <extensions>
      <osmand:color>#10c0f0</osmand:color>
      <osmand:background>square</osmand:background>
      <osmand:icon>public_bookcase</osmand:icon>
    </extensions>
  </wpt>
  <wpt lat="46.0361" lon="4.066108">
    <name>Roanne z24673</name>
    <type>ZoneLivre Auvergne-Rhône-Alpes</type>
    <extensions>
      <osmand:color>#10c0f0</osmand:color>
      <osmand:background>square</osmand:background>
      <osmand:icon>public_bookcase</osmand:icon>
    </extensions>
  </wpt>
  <wpt lat="45.320706" lon="6.344924">
    <name>Montvernier z24644</name>
    <type>ZoneLivre Auvergne-Rhône-Alpes</type>
    <extensions>
      <osmand:color>#10c0f0</osmand:color>
      <osmand:background>square</osmand:background>
      <osmand:icon>public_bookcase</osmand:icon>
    </extensions>
  </wpt>
  <wpt lat="45.323155" lon="6.339079">
    <name>Montvernier z24642</name>
    <type>ZoneLivre Auvergne-Rhône-Alpes</type>
    <extensions>
      <osmand:color>#10c0f0</osmand:color>
      <osmand:background>square</osmand:background>
      <osmand:icon>public_bookcase</osmand:icon>
    </extensions>
  </wpt>
  <wpt lat="45.327676" lon="6.337293">
    <name>Montvernier z24640</name>
    <type>ZoneLivre Auvergne-Rhône-Alpes</type>
    <extensions>
      <osmand:color>#10c0f0</osmand:color>
      <osmand:background>square</osmand:background>
      <osmand:icon>public_bookcase</osmand:icon>
    </extensions>
  </wpt>
  <wpt lat="45.337171" lon="6.360738">
    <name>La Tour-en-Maurienne z24638</name>
    <type>ZoneLivre Auvergne-Rhône-Alpes</type>
    <extensions>
      <osmand:color>#10c0f0</osmand:color>
      <osmand:background>square</osmand:background>
      <osmand:icon>public_bookcase</osmand:icon>
    </extensions>
  </wpt>
  <wpt lat="45.757158" lon="4.865575">
    <name>Lyon z24629</name>
    <type>ZoneLivre Auvergne-Rhône-Alpes</type>
    <extensions>
      <osmand:color>#10c0f0</osmand:color>
      <osmand:background>square</osmand:background>
      <osmand:icon>public_bookcase</osmand:icon>
    </extensions>
  </wpt>
  <wpt lat="44.966206" lon="5.417475">
    <name>La Chapelle-en-Vercors z24433</name>
    <type>ZoneLivre Auvergne-Rhône-Alpes</type>
    <extensions>
      <osmand:color>#10c0f0</osmand:color>
      <osmand:background>square</osmand:background>
      <osmand:icon>public_bookcase</osmand:icon>
    </extensions>
  </wpt>
  <wpt lat="45.766019" lon="6.257368">
    <name>Faverges-Seythenex z23966</name>
    <type>ZoneLivre Auvergne-Rhône-Alpes</type>
    <extensions>
      <osmand:color>#10c0f0</osmand:color>
      <osmand:background>square</osmand:background>
      <osmand:icon>public_bookcase</osmand:icon>
    </extensions>
  </wpt>
  <wpt lat="44.692294" lon="4.709846">
    <name>Saint-Lager-Bressac z23964</name>
    <type>ZoneLivre Auvergne-Rhône-Alpes</type>
    <extensions>
      <osmand:color>#10c0f0</osmand:color>
      <osmand:background>square</osmand:background>
      <osmand:icon>public_bookcase</osmand:icon>
    </extensions>
  </wpt>
  <wpt lat="46.013856" lon="3.065153">
    <name>Montcel z23929</name>
    <type>ZoneLivre Auvergne-Rhône-Alpes</type>
    <extensions>
      <osmand:color>#10c0f0</osmand:color>
      <osmand:background>square</osmand:background>
      <osmand:icon>public_bookcase</osmand:icon>
    </extensions>
  </wpt>
  <wpt lat="45.051781" lon="3.910776">
    <name>Brives-Charensac z23926</name>
    <type>ZoneLivre Auvergne-Rhône-Alpes</type>
    <extensions>
      <osmand:color>#10c0f0</osmand:color>
      <osmand:background>square</osmand:background>
      <osmand:icon>public_bookcase</osmand:icon>
    </extensions>
  </wpt>
  <wpt lat="45.92859" lon="5.356015">
    <name>Vaux-en-Bugey z23902</name>
    <type>ZoneLivre Auvergne-Rhône-Alpes</type>
    <extensions>
      <osmand:color>#10c0f0</osmand:color>
      <osmand:background>square</osmand:background>
      <osmand:icon>public_bookcase</osmand:icon>
    </extensions>
  </wpt>
  <wpt lat="45.751518" lon="4.827448">
    <name>Lyon z23775</name>
    <type>ZoneLivre Auvergne-Rhône-Alpes</type>
    <extensions>
      <osmand:color>#10c0f0</osmand:color>
      <osmand:background>square</osmand:background>
      <osmand:icon>public_bookcase</osmand:icon>
    </extensions>
  </wpt>
  <wpt lat="45.720126" lon="6.458977">
    <name>Queige z23757</name>
    <type>ZoneLivre Auvergne-Rhône-Alpes</type>
    <extensions>
      <osmand:color>#10c0f0</osmand:color>
      <osmand:background>square</osmand:background>
      <osmand:icon>public_bookcase</osmand:icon>
    </extensions>
  </wpt>
  <wpt lat="45.956718" lon="6.388384">
    <name>Enttremont z23755</name>
    <type>ZoneLivre Auvergne-Rhône-Alpes</type>
    <extensions>
      <osmand:color>#10c0f0</osmand:color>
      <osmand:background>square</osmand:background>
      <osmand:icon>public_bookcase</osmand:icon>
    </extensions>
  </wpt>
  <wpt lat="44.39353" lon="4.753741">
    <name>La Garde Adhémar z23617</name>
    <type>ZoneLivre Auvergne-Rhône-Alpes</type>
    <extensions>
      <osmand:color>#10c0f0</osmand:color>
      <osmand:background>square</osmand:background>
      <osmand:icon>public_bookcase</osmand:icon>
    </extensions>
  </wpt>
  <wpt lat="45.567179" lon="5.375187">
    <name>Cessieu z23591</name>
    <type>ZoneLivre Auvergne-Rhône-Alpes</type>
    <extensions>
      <osmand:color>#10c0f0</osmand:color>
      <osmand:background>square</osmand:background>
      <osmand:icon>public_bookcase</osmand:icon>
    </extensions>
  </wpt>
  <wpt lat="44.386715" lon="4.991151">
    <name>Valréas z23514</name>
    <type>ZoneLivre Auvergne-Rhône-Alpes</type>
    <extensions>
      <osmand:color>#10c0f0</osmand:color>
      <osmand:background>square</osmand:background>
      <osmand:icon>public_bookcase</osmand:icon>
    </extensions>
  </wpt>
  <wpt lat="44.383308" lon="4.989888">
    <name>Valréas z23507</name>
    <type>ZoneLivre Auvergne-Rhône-Alpes</type>
    <extensions>
      <osmand:color>#10c0f0</osmand:color>
      <osmand:background>square</osmand:background>
      <osmand:icon>public_bookcase</osmand:icon>
    </extensions>
  </wpt>
  <wpt lat="44.359842" lon="4.912025">
    <name>Richerenches z23504</name>
    <type>ZoneLivre Auvergne-Rhône-Alpes</type>
    <extensions>
      <osmand:color>#10c0f0</osmand:color>
      <osmand:background>square</osmand:background>
      <osmand:icon>public_bookcase</osmand:icon>
    </extensions>
  </wpt>
  <wpt lat="44.315097" lon="4.950803">
    <name>Visan z23501</name>
    <type>ZoneLivre Auvergne-Rhône-Alpes</type>
    <extensions>
      <osmand:color>#10c0f0</osmand:color>
      <osmand:background>square</osmand:background>
      <osmand:icon>public_bookcase</osmand:icon>
    </extensions>
  </wpt>
  <wpt lat="44.313405" lon="4.951055">
    <name>Visan z23499</name>
    <type>ZoneLivre Auvergne-Rhône-Alpes</type>
    <extensions>
      <osmand:color>#10c0f0</osmand:color>
      <osmand:background>square</osmand:background>
      <osmand:icon>public_bookcase</osmand:icon>
    </extensions>
  </wpt>
  <wpt lat="45.686756" lon="3.125291">
    <name>Le Crest z23310</name>
    <type>ZoneLivre Auvergne-Rhône-Alpes</type>
    <extensions>
      <osmand:color>#10c0f0</osmand:color>
      <osmand:background>square</osmand:background>
      <osmand:icon>public_bookcase</osmand:icon>
    </extensions>
  </wpt>
  <wpt lat="45.670885" lon="3.005286">
    <name>Aydat z23308</name>
    <type>ZoneLivre Auvergne-Rhône-Alpes</type>
    <extensions>
      <osmand:color>#10c0f0</osmand:color>
      <osmand:background>square</osmand:background>
      <osmand:icon>public_bookcase</osmand:icon>
    </extensions>
  </wpt>
  <wpt lat="45.61963" lon="3.05222">
    <name>Olloix z23306</name>
    <type>ZoneLivre Auvergne-Rhône-Alpes</type>
    <extensions>
      <osmand:color>#10c0f0</osmand:color>
      <osmand:background>square</osmand:background>
      <osmand:icon>public_bookcase</osmand:icon>
    </extensions>
  </wpt>
  <wpt lat="45.720124" lon="3.018869">
    <name>Saint-Gènes-Champanelle z23235</name>
    <type>ZoneLivre Auvergne-Rhône-Alpes</type>
    <extensions>
      <osmand:color>#10c0f0</osmand:color>
      <osmand:background>square</osmand:background>
      <osmand:icon>public_bookcase</osmand:icon>
    </extensions>
  </wpt>
  <wpt lat="45.646893" lon="3.034992">
    <name>Cournols z23230</name>
    <type>ZoneLivre Auvergne-Rhône-Alpes</type>
    <extensions>
      <osmand:color>#10c0f0</osmand:color>
      <osmand:background>square</osmand:background>
      <osmand:icon>public_bookcase</osmand:icon>
    </extensions>
  </wpt>
  <wpt lat="45.395386" lon="4.295695">
    <name>Firminy z23219</name>
    <type>ZoneLivre Auvergne-Rhône-Alpes</type>
    <extensions>
      <osmand:color>#10c0f0</osmand:color>
      <osmand:background>square</osmand:background>
      <osmand:icon>public_bookcase</osmand:icon>
    </extensions>
  </wpt>
  <wpt lat="45.974791" lon="4.706968">
    <name>Limas z23159</name>
    <type>ZoneLivre Auvergne-Rhône-Alpes</type>
    <extensions>
      <osmand:color>#10c0f0</osmand:color>
      <osmand:background>square</osmand:background>
      <osmand:icon>public_bookcase</osmand:icon>
    </extensions>
  </wpt>
  <wpt lat="45.184585" lon="5.724499">
    <name>Grenoble z23157</name>
    <type>ZoneLivre Auvergne-Rhône-Alpes</type>
    <extensions>
      <osmand:color>#10c0f0</osmand:color>
      <osmand:background>square</osmand:background>
      <osmand:icon>public_bookcase</osmand:icon>
    </extensions>
  </wpt>
  <wpt lat="45.739741" lon="4.465435">
    <name>Saint-Laurent-de-Chamousset z23142</name>
    <type>ZoneLivre Auvergne-Rhône-Alpes</type>
    <extensions>
      <osmand:color>#10c0f0</osmand:color>
      <osmand:background>square</osmand:background>
      <osmand:icon>public_bookcase</osmand:icon>
    </extensions>
  </wpt>
  <wpt lat="45.738861" lon="4.464473">
    <name>Saint-Laurent-de-Chamousset z23140</name>
    <type>ZoneLivre Auvergne-Rhône-Alpes</type>
    <extensions>
      <osmand:color>#10c0f0</osmand:color>
      <osmand:background>square</osmand:background>
      <osmand:icon>public_bookcase</osmand:icon>
    </extensions>
  </wpt>
  <wpt lat="45.737709" lon="4.6572">
    <name>Vaugneray z22753</name>
    <type>ZoneLivre Auvergne-Rhône-Alpes</type>
    <extensions>
      <osmand:color>#10c0f0</osmand:color>
      <osmand:background>square</osmand:background>
      <osmand:icon>public_bookcase</osmand:icon>
    </extensions>
  </wpt>
  <wpt lat="45.216344" lon="6.474182">
    <name>Saint-Michel-de-Maurienne z22747</name>
    <type>ZoneLivre Auvergne-Rhône-Alpes</type>
    <extensions>
      <osmand:color>#10c0f0</osmand:color>
      <osmand:background>square</osmand:background>
      <osmand:icon>public_bookcase</osmand:icon>
    </extensions>
  </wpt>
  <wpt lat="45.185977" lon="6.480622">
    <name>Valmeinier z22745</name>
    <type>ZoneLivre Auvergne-Rhône-Alpes</type>
    <extensions>
      <osmand:color>#10c0f0</osmand:color>
      <osmand:background>square</osmand:background>
      <osmand:icon>public_bookcase</osmand:icon>
    </extensions>
  </wpt>
  <wpt lat="45.014648" lon="2.667484">
    <name>Thiézac z22734</name>
    <type>ZoneLivre Auvergne-Rhône-Alpes</type>
    <extensions>
      <osmand:color>#10c0f0</osmand:color>
      <osmand:background>square</osmand:background>
      <osmand:icon>public_bookcase</osmand:icon>
    </extensions>
  </wpt>
  <wpt lat="44.485857" lon="5.382054">
    <name>La Motte-Chalancon z22719</name>
    <type>ZoneLivre Auvergne-Rhône-Alpes</type>
    <extensions>
      <osmand:color>#10c0f0</osmand:color>
      <osmand:background>square</osmand:background>
      <osmand:icon>public_bookcase</osmand:icon>
    </extensions>
  </wpt>
  <wpt lat="46.159205" lon="6.343124">
    <name>Fillinges z22713</name>
    <type>ZoneLivre Auvergne-Rhône-Alpes</type>
    <extensions>
      <osmand:color>#10c0f0</osmand:color>
      <osmand:background>square</osmand:background>
      <osmand:icon>public_bookcase</osmand:icon>
    </extensions>
  </wpt>
  <wpt lat="45.895424" lon="5.252283">
    <name>Chazey-sur-Ain z22710</name>
    <type>ZoneLivre Auvergne-Rhône-Alpes</type>
    <extensions>
      <osmand:color>#10c0f0</osmand:color>
      <osmand:background>square</osmand:background>
      <osmand:icon>public_bookcase</osmand:icon>
    </extensions>
  </wpt>
  <wpt lat="46.395465" lon="6.530205">
    <name>Publier z22707</name>
    <type>ZoneLivre Auvergne-Rhône-Alpes</type>
    <extensions>
      <osmand:color>#10c0f0</osmand:color>
      <osmand:background>square</osmand:background>
      <osmand:icon>public_bookcase</osmand:icon>
    </extensions>
  </wpt>
  <wpt lat="46.387781" lon="6.543308">
    <name>Publier z22704</name>
    <type>ZoneLivre Auvergne-Rhône-Alpes</type>
    <extensions>
      <osmand:color>#10c0f0</osmand:color>
      <osmand:background>square</osmand:background>
      <osmand:icon>public_bookcase</osmand:icon>
    </extensions>
  </wpt>
  <wpt lat="46.141123" lon="4.810625">
    <name>Mogneneins z22690</name>
    <type>ZoneLivre Auvergne-Rhône-Alpes</type>
    <extensions>
      <osmand:color>#10c0f0</osmand:color>
      <osmand:background>square</osmand:background>
      <osmand:icon>public_bookcase</osmand:icon>
    </extensions>
  </wpt>
  <wpt lat="46.047463" lon="3.042065">
    <name>Saint-Hilaire-la-Croix z22687</name>
    <type>ZoneLivre Auvergne-Rhône-Alpes</type>
    <extensions>
      <osmand:color>#10c0f0</osmand:color>
      <osmand:background>square</osmand:background>
      <osmand:icon>public_bookcase</osmand:icon>
    </extensions>
  </wpt>
  <wpt lat="46.194658" lon="4.604138">
    <name>Avenas z22685</name>
    <type>ZoneLivre Auvergne-Rhône-Alpes</type>
    <extensions>
      <osmand:color>#10c0f0</osmand:color>
      <osmand:background>square</osmand:background>
      <osmand:icon>public_bookcase</osmand:icon>
    </extensions>
  </wpt>
  <wpt lat="45.53303" lon="6.055661">
    <name>La Thuile z22535</name>
    <type>ZoneLivre Auvergne-Rhône-Alpes</type>
    <extensions>
      <osmand:color>#10c0f0</osmand:color>
      <osmand:background>square</osmand:background>
      <osmand:icon>public_bookcase</osmand:icon>
    </extensions>
  </wpt>
  <wpt lat="45.86156" lon="6.368742">
    <name>Manigod z22525</name>
    <type>ZoneLivre Auvergne-Rhône-Alpes</type>
    <extensions>
      <osmand:color>#10c0f0</osmand:color>
      <osmand:background>square</osmand:background>
      <osmand:icon>public_bookcase</osmand:icon>
    </extensions>
  </wpt>
  <wpt lat="45.595468" lon="6.137731">
    <name>Sainte-Reine z22522</name>
    <type>ZoneLivre Auvergne-Rhône-Alpes</type>
    <extensions>
      <osmand:color>#10c0f0</osmand:color>
      <osmand:background>square</osmand:background>
      <osmand:icon>public_bookcase</osmand:icon>
    </extensions>
  </wpt>
  <wpt lat="45.632573" lon="6.157716">
    <name>École z22520</name>
    <type>ZoneLivre Auvergne-Rhône-Alpes</type>
    <extensions>
      <osmand:color>#10c0f0</osmand:color>
      <osmand:background>square</osmand:background>
      <osmand:icon>public_bookcase</osmand:icon>
    </extensions>
  </wpt>
  <wpt lat="45.862178" lon="6.495025">
    <name>La Giettaz z22516</name>
    <type>ZoneLivre Auvergne-Rhône-Alpes</type>
    <extensions>
      <osmand:color>#10c0f0</osmand:color>
      <osmand:background>square</osmand:background>
      <osmand:icon>public_bookcase</osmand:icon>
    </extensions>
  </wpt>
  <wpt lat="45.751405" lon="4.222891">
    <name>Feurs z22506</name>
    <type>ZoneLivre Auvergne-Rhône-Alpes</type>
    <extensions>
      <osmand:color>#10c0f0</osmand:color>
      <osmand:background>square</osmand:background>
      <osmand:icon>public_bookcase</osmand:icon>
    </extensions>
  </wpt>
  <wpt lat="46.162337" lon="3.608239">
    <name>Isserpent z22448</name>
    <type>ZoneLivre Auvergne-Rhône-Alpes</type>
    <extensions>
      <osmand:color>#10c0f0</osmand:color>
      <osmand:background>square</osmand:background>
      <osmand:icon>public_bookcase</osmand:icon>
    </extensions>
  </wpt>
  <wpt lat="45.607688" lon="5.543887">
    <name>Corbelin z22444</name>
    <type>ZoneLivre Auvergne-Rhône-Alpes</type>
    <extensions>
      <osmand:color>#10c0f0</osmand:color>
      <osmand:background>square</osmand:background>
      <osmand:icon>public_bookcase</osmand:icon>
    </extensions>
  </wpt>
  <wpt lat="44.519065" lon="4.324998">
    <name>Uzer z22342</name>
    <type>ZoneLivre Auvergne-Rhône-Alpes</type>
    <extensions>
      <osmand:color>#10c0f0</osmand:color>
      <osmand:background>square</osmand:background>
      <osmand:icon>public_bookcase</osmand:icon>
    </extensions>
  </wpt>
  <wpt lat="44.50898" lon="4.29034">
    <name>Laurac-en-Vivarais z22340</name>
    <type>ZoneLivre Auvergne-Rhône-Alpes</type>
    <extensions>
      <osmand:color>#10c0f0</osmand:color>
      <osmand:background>square</osmand:background>
      <osmand:icon>public_bookcase</osmand:icon>
    </extensions>
  </wpt>
  <wpt lat="44.503436" lon="4.147924">
    <name>Saint-André-Lachamp z22337</name>
    <type>ZoneLivre Auvergne-Rhône-Alpes</type>
    <extensions>
      <osmand:color>#10c0f0</osmand:color>
      <osmand:background>square</osmand:background>
      <osmand:icon>public_bookcase</osmand:icon>
    </extensions>
  </wpt>
  <wpt lat="44.701203" lon="4.458097">
    <name>Saint-Étienne-de-Boulogne z22335</name>
    <type>ZoneLivre Auvergne-Rhône-Alpes</type>
    <extensions>
      <osmand:color>#10c0f0</osmand:color>
      <osmand:background>square</osmand:background>
      <osmand:icon>public_bookcase</osmand:icon>
    </extensions>
  </wpt>
  <wpt lat="44.651904" lon="4.442457">
    <name>Vesseaux z22332</name>
    <type>ZoneLivre Auvergne-Rhône-Alpes</type>
    <extensions>
      <osmand:color>#10c0f0</osmand:color>
      <osmand:background>square</osmand:background>
      <osmand:icon>public_bookcase</osmand:icon>
    </extensions>
  </wpt>
  <wpt lat="44.630745" lon="4.359105">
    <name>Mercuer z22330</name>
    <type>ZoneLivre Auvergne-Rhône-Alpes</type>
    <extensions>
      <osmand:color>#10c0f0</osmand:color>
      <osmand:background>square</osmand:background>
      <osmand:icon>public_bookcase</osmand:icon>
    </extensions>
  </wpt>
  <wpt lat="44.474237" lon="4.358126">
    <name>Pradons z22318</name>
    <type>ZoneLivre Auvergne-Rhône-Alpes</type>
    <extensions>
      <osmand:color>#10c0f0</osmand:color>
      <osmand:background>square</osmand:background>
      <osmand:icon>public_bookcase</osmand:icon>
    </extensions>
  </wpt>
  <wpt lat="44.447316" lon="4.417613">
    <name>Lagorce z22312</name>
    <type>ZoneLivre Auvergne-Rhône-Alpes</type>
    <extensions>
      <osmand:color>#10c0f0</osmand:color>
      <osmand:background>square</osmand:background>
      <osmand:icon>public_bookcase</osmand:icon>
    </extensions>
  </wpt>
  <wpt lat="44.500458" lon="4.483047">
    <name>Saint-Maurice-d'Ibie z22305</name>
    <type>ZoneLivre Auvergne-Rhône-Alpes</type>
    <extensions>
      <osmand:color>#10c0f0</osmand:color>
      <osmand:background>square</osmand:background>
      <osmand:icon>public_bookcase</osmand:icon>
    </extensions>
  </wpt>
  <wpt lat="44.421182" lon="4.173804">
    <name>Les Assions z22303</name>
    <type>ZoneLivre Auvergne-Rhône-Alpes</type>
    <extensions>
      <osmand:color>#10c0f0</osmand:color>
      <osmand:background>square</osmand:background>
      <osmand:icon>public_bookcase</osmand:icon>
    </extensions>
  </wpt>
  <wpt lat="44.417076" lon="4.128848">
    <name>Chambonas z22298</name>
    <type>ZoneLivre Auvergne-Rhône-Alpes</type>
    <extensions>
      <osmand:color>#10c0f0</osmand:color>
      <osmand:background>square</osmand:background>
      <osmand:icon>public_bookcase</osmand:icon>
    </extensions>
  </wpt>
  <wpt lat="45.770154" lon="4.608057">
    <name>Chevinay z22234</name>
    <type>ZoneLivre Auvergne-Rhône-Alpes</type>
    <extensions>
      <osmand:color>#10c0f0</osmand:color>
      <osmand:background>square</osmand:background>
      <osmand:icon>public_bookcase</osmand:icon>
    </extensions>
  </wpt>
  <wpt lat="45.708699" lon="4.815314">
    <name>Oullins-Pierre-Bénite z22231</name>
    <type>ZoneLivre Auvergne-Rhône-Alpes</type>
    <extensions>
      <osmand:color>#10c0f0</osmand:color>
      <osmand:background>square</osmand:background>
      <osmand:icon>public_bookcase</osmand:icon>
    </extensions>
  </wpt>
  <wpt lat="45.66102" lon="6.350779">
    <name>Gilly-sur-Isère z22216</name>
    <type>ZoneLivre Auvergne-Rhône-Alpes</type>
    <extensions>
      <osmand:color>#10c0f0</osmand:color>
      <osmand:background>square</osmand:background>
      <osmand:icon>public_bookcase</osmand:icon>
    </extensions>
  </wpt>
  <wpt lat="45.618274" lon="6.450927">
    <name>La Bâthie z22214</name>
    <type>ZoneLivre Auvergne-Rhône-Alpes</type>
    <extensions>
      <osmand:color>#10c0f0</osmand:color>
      <osmand:background>square</osmand:background>
      <osmand:icon>public_bookcase</osmand:icon>
    </extensions>
  </wpt>
  <wpt lat="45.632854" lon="6.446896">
    <name>La Bâthie z22212</name>
    <type>ZoneLivre Auvergne-Rhône-Alpes</type>
    <extensions>
      <osmand:color>#10c0f0</osmand:color>
      <osmand:background>square</osmand:background>
      <osmand:icon>public_bookcase</osmand:icon>
    </extensions>
  </wpt>
  <wpt lat="45.638923" lon="6.443034">
    <name>La Bâthie z22210</name>
    <type>ZoneLivre Auvergne-Rhône-Alpes</type>
    <extensions>
      <osmand:color>#10c0f0</osmand:color>
      <osmand:background>square</osmand:background>
      <osmand:icon>public_bookcase</osmand:icon>
    </extensions>
  </wpt>
  <wpt lat="45.837364" lon="4.771178">
    <name>Limonest z22198</name>
    <type>ZoneLivre Auvergne-Rhône-Alpes</type>
    <extensions>
      <osmand:color>#10c0f0</osmand:color>
      <osmand:background>square</osmand:background>
      <osmand:icon>public_bookcase</osmand:icon>
    </extensions>
  </wpt>
  <wpt lat="45.121841" lon="4.981597">
    <name>Saint-Donat-sur-l'Herbasse z22149</name>
    <type>ZoneLivre Auvergne-Rhône-Alpes</type>
    <extensions>
      <osmand:color>#10c0f0</osmand:color>
      <osmand:background>square</osmand:background>
      <osmand:icon>public_bookcase</osmand:icon>
    </extensions>
  </wpt>
  <wpt lat="45.093095" lon="5.048247">
    <name>Peyrins z22137</name>
    <type>ZoneLivre Auvergne-Rhône-Alpes</type>
    <extensions>
      <osmand:color>#10c0f0</osmand:color>
      <osmand:background>square</osmand:background>
      <osmand:icon>public_bookcase</osmand:icon>
    </extensions>
  </wpt>
  <wpt lat="46.173191" lon="4.208">
    <name>Saint-Denis-de-Cabanne z22099</name>
    <type>ZoneLivre Auvergne-Rhône-Alpes</type>
    <extensions>
      <osmand:color>#10c0f0</osmand:color>
      <osmand:background>square</osmand:background>
      <osmand:icon>public_bookcase</osmand:icon>
    </extensions>
  </wpt>
  <wpt lat="44.331247" lon="4.790653">
    <name>Saint-Restitut z22095</name>
    <type>ZoneLivre Auvergne-Rhône-Alpes</type>
    <extensions>
      <osmand:color>#10c0f0</osmand:color>
      <osmand:background>square</osmand:background>
      <osmand:icon>public_bookcase</osmand:icon>
    </extensions>
  </wpt>
  <wpt lat="45.772719" lon="4.794693">
    <name>Lyon z22066</name>
    <type>ZoneLivre Auvergne-Rhône-Alpes</type>
    <extensions>
      <osmand:color>#10c0f0</osmand:color>
      <osmand:background>square</osmand:background>
      <osmand:icon>public_bookcase</osmand:icon>
    </extensions>
  </wpt>
  <wpt lat="45.735349" lon="5.316656">
    <name>Siccieu-Saint-Julien-et-Carisieu z21701</name>
    <type>ZoneLivre Auvergne-Rhône-Alpes</type>
    <extensions>
      <osmand:color>#10c0f0</osmand:color>
      <osmand:background>square</osmand:background>
      <osmand:icon>public_bookcase</osmand:icon>
    </extensions>
  </wpt>
  <wpt lat="44.347954" lon="4.770046">
    <name>Saint-Paul-Trois-Châteaux z21699</name>
    <type>ZoneLivre Auvergne-Rhône-Alpes</type>
    <extensions>
      <osmand:color>#10c0f0</osmand:color>
      <osmand:background>square</osmand:background>
      <osmand:icon>public_bookcase</osmand:icon>
    </extensions>
  </wpt>
  <wpt lat="45.630377" lon="4.456525">
    <name>Saint-Symphorien-sur-Coise z21671</name>
    <type>ZoneLivre Auvergne-Rhône-Alpes</type>
    <extensions>
      <osmand:color>#10c0f0</osmand:color>
      <osmand:background>square</osmand:background>
      <osmand:icon>public_bookcase</osmand:icon>
    </extensions>
  </wpt>
  <wpt lat="45.977977" lon="3.69704">
    <name>Lavoine z21507</name>
    <type>ZoneLivre Auvergne-Rhône-Alpes</type>
    <extensions>
      <osmand:color>#10c0f0</osmand:color>
      <osmand:background>square</osmand:background>
      <osmand:icon>public_bookcase</osmand:icon>
    </extensions>
  </wpt>
  <wpt lat="45.734383" lon="4.829738">
    <name>Lyon z21479</name>
    <type>ZoneLivre Auvergne-Rhône-Alpes</type>
    <extensions>
      <osmand:color>#10c0f0</osmand:color>
      <osmand:background>square</osmand:background>
      <osmand:icon>public_bookcase</osmand:icon>
    </extensions>
  </wpt>
  <wpt lat="45.57088" lon="5.919965">
    <name>Chambéry z21435</name>
    <type>ZoneLivre Auvergne-Rhône-Alpes</type>
    <extensions>
      <osmand:color>#10c0f0</osmand:color>
      <osmand:background>square</osmand:background>
      <osmand:icon>public_bookcase</osmand:icon>
    </extensions>
  </wpt>
  <wpt lat="45.97664" lon="6.28129">
    <name>Thorens-Glières z21429</name>
    <type>ZoneLivre Auvergne-Rhône-Alpes</type>
    <extensions>
      <osmand:color>#10c0f0</osmand:color>
      <osmand:background>square</osmand:background>
      <osmand:icon>public_bookcase</osmand:icon>
    </extensions>
  </wpt>
  <wpt lat="45.96179" lon="6.04266">
    <name>La Balme-de-Sillingy z21148</name>
    <type>ZoneLivre Auvergne-Rhône-Alpes</type>
    <extensions>
      <osmand:color>#10c0f0</osmand:color>
      <osmand:background>square</osmand:background>
      <osmand:icon>public_bookcase</osmand:icon>
    </extensions>
  </wpt>
  <wpt lat="46.188614" lon="5.228602">
    <name>Bourg-en-Bresse z21144</name>
    <type>ZoneLivre Auvergne-Rhône-Alpes</type>
    <extensions>
      <osmand:color>#10c0f0</osmand:color>
      <osmand:background>square</osmand:background>
      <osmand:icon>public_bookcase</osmand:icon>
    </extensions>
  </wpt>
  <wpt lat="45.46851" lon="2.98802">
    <name>Valbeleix z21106</name>
    <type>ZoneLivre Auvergne-Rhône-Alpes</type>
    <extensions>
      <osmand:color>#10c0f0</osmand:color>
      <osmand:background>square</osmand:background>
      <osmand:icon>public_bookcase</osmand:icon>
    </extensions>
  </wpt>
  <wpt lat="45.170636" lon="3.400751">
    <name>Blassac z21094</name>
    <type>ZoneLivre Auvergne-Rhône-Alpes</type>
    <extensions>
      <osmand:color>#10c0f0</osmand:color>
      <osmand:background>square</osmand:background>
      <osmand:icon>public_bookcase</osmand:icon>
    </extensions>
  </wpt>
  <wpt lat="45.795436" lon="4.550346">
    <name>Bibost z21090</name>
    <type>ZoneLivre Auvergne-Rhône-Alpes</type>
    <extensions>
      <osmand:color>#10c0f0</osmand:color>
      <osmand:background>square</osmand:background>
      <osmand:icon>public_bookcase</osmand:icon>
    </extensions>
  </wpt>
  <wpt lat="46.28892" lon="2.74173">
    <name>Commentry z21013</name>
    <type>ZoneLivre Auvergne-Rhône-Alpes</type>
    <extensions>
      <osmand:color>#10c0f0</osmand:color>
      <osmand:background>square</osmand:background>
      <osmand:icon>public_bookcase</osmand:icon>
    </extensions>
  </wpt>
  <wpt lat="46.31771" lon="2.95439">
    <name>Montmarault z21011</name>
    <type>ZoneLivre Auvergne-Rhône-Alpes</type>
    <extensions>
      <osmand:color>#10c0f0</osmand:color>
      <osmand:background>square</osmand:background>
      <osmand:icon>public_bookcase</osmand:icon>
    </extensions>
  </wpt>
  <wpt lat="46.408775" lon="3.054728">
    <name>Le Montet z21009</name>
    <type>ZoneLivre Auvergne-Rhône-Alpes</type>
    <extensions>
      <osmand:color>#10c0f0</osmand:color>
      <osmand:background>square</osmand:background>
      <osmand:icon>public_bookcase</osmand:icon>
    </extensions>
  </wpt>
  <wpt lat="46.10845" lon="5.829737">
    <name>Valserhône z20983</name>
    <type>ZoneLivre Auvergne-Rhône-Alpes</type>
    <extensions>
      <osmand:color>#10c0f0</osmand:color>
      <osmand:background>square</osmand:background>
      <osmand:icon>public_bookcase</osmand:icon>
    </extensions>
  </wpt>
  <wpt lat="45.836979" lon="4.267499">
    <name>Bussières z20974</name>
    <type>ZoneLivre Auvergne-Rhône-Alpes</type>
    <extensions>
      <osmand:color>#10c0f0</osmand:color>
      <osmand:background>square</osmand:background>
      <osmand:icon>public_bookcase</osmand:icon>
    </extensions>
  </wpt>
  <wpt lat="45.9279" lon="4.00615">
    <name>Bully z20970</name>
    <type>ZoneLivre Auvergne-Rhône-Alpes</type>
    <extensions>
      <osmand:color>#10c0f0</osmand:color>
      <osmand:background>square</osmand:background>
      <osmand:icon>public_bookcase</osmand:icon>
    </extensions>
  </wpt>
  <wpt lat="45.972797" lon="4.331679">
    <name>Amplepuis z20938</name>
    <type>ZoneLivre Auvergne-Rhône-Alpes</type>
    <extensions>
      <osmand:color>#10c0f0</osmand:color>
      <osmand:background>square</osmand:background>
      <osmand:icon>public_bookcase</osmand:icon>
    </extensions>
  </wpt>
  <wpt lat="45.9716" lon="4.33243">
    <name>Amplepuis z20936</name>
    <type>ZoneLivre Auvergne-Rhône-Alpes</type>
    <extensions>
      <osmand:color>#10c0f0</osmand:color>
      <osmand:background>square</osmand:background>
      <osmand:icon>public_bookcase</osmand:icon>
    </extensions>
  </wpt>
  <wpt lat="46.02433" lon="4.70696">
    <name>Arnas z20872</name>
    <type>ZoneLivre Auvergne-Rhône-Alpes</type>
    <extensions>
      <osmand:color>#10c0f0</osmand:color>
      <osmand:background>square</osmand:background>
      <osmand:icon>public_bookcase</osmand:icon>
    </extensions>
  </wpt>
  <wpt lat="45.75583" lon="3.61474">
    <name>Aubusson-d'Auvergne z20806</name>
    <type>ZoneLivre Auvergne-Rhône-Alpes</type>
    <extensions>
      <osmand:color>#10c0f0</osmand:color>
      <osmand:background>square</osmand:background>
      <osmand:icon>public_bookcase</osmand:icon>
    </extensions>
  </wpt>
  <wpt lat="45.86702" lon="6.13967">
    <name>Sévrier z20804</name>
    <type>ZoneLivre Auvergne-Rhône-Alpes</type>
    <extensions>
      <osmand:color>#10c0f0</osmand:color>
      <osmand:background>square</osmand:background>
      <osmand:icon>public_bookcase</osmand:icon>
    </extensions>
  </wpt>
  <wpt lat="45.98414" lon="3.08664">
    <name>Combronde z20743</name>
    <type>ZoneLivre Auvergne-Rhône-Alpes</type>
    <extensions>
      <osmand:color>#10c0f0</osmand:color>
      <osmand:background>square</osmand:background>
      <osmand:icon>public_bookcase</osmand:icon>
    </extensions>
  </wpt>
  <wpt lat="45.84885" lon="2.89401">
    <name>Saint-Ours z20740</name>
    <type>ZoneLivre Auvergne-Rhône-Alpes</type>
    <extensions>
      <osmand:color>#10c0f0</osmand:color>
      <osmand:background>square</osmand:background>
      <osmand:icon>public_bookcase</osmand:icon>
    </extensions>
  </wpt>
  <wpt lat="45.83314" lon="2.84994">
    <name>Pontgibaud z20738</name>
    <type>ZoneLivre Auvergne-Rhône-Alpes</type>
    <extensions>
      <osmand:color>#10c0f0</osmand:color>
      <osmand:background>square</osmand:background>
      <osmand:icon>public_bookcase</osmand:icon>
    </extensions>
  </wpt>
  <wpt lat="46.5332" lon="3.74789">
    <name>Diou z20736</name>
    <type>ZoneLivre Auvergne-Rhône-Alpes</type>
    <extensions>
      <osmand:color>#10c0f0</osmand:color>
      <osmand:background>square</osmand:background>
      <osmand:icon>public_bookcase</osmand:icon>
    </extensions>
  </wpt>
  <wpt lat="45.77505" lon="4.85828">
    <name>Lyon z20732</name>
    <type>ZoneLivre Auvergne-Rhône-Alpes</type>
    <extensions>
      <osmand:color>#10c0f0</osmand:color>
      <osmand:background>square</osmand:background>
      <osmand:icon>public_bookcase</osmand:icon>
    </extensions>
  </wpt>
  <wpt lat="45.71084" lon="3.2473">
    <name>Saint-Georges-sur-Allier z20682</name>
    <type>ZoneLivre Auvergne-Rhône-Alpes</type>
    <extensions>
      <osmand:color>#10c0f0</osmand:color>
      <osmand:background>square</osmand:background>
      <osmand:icon>public_bookcase</osmand:icon>
    </extensions>
  </wpt>
  <wpt lat="45.62434" lon="3.22943">
    <name>Parent z20627</name>
    <type>ZoneLivre Auvergne-Rhône-Alpes</type>
    <extensions>
      <osmand:color>#10c0f0</osmand:color>
      <osmand:background>square</osmand:background>
      <osmand:icon>public_bookcase</osmand:icon>
    </extensions>
  </wpt>
  <wpt lat="45.59188" lon="3.10276">
    <name>Montaigut-le-Blanc z20625</name>
    <type>ZoneLivre Auvergne-Rhône-Alpes</type>
    <extensions>
      <osmand:color>#10c0f0</osmand:color>
      <osmand:background>square</osmand:background>
      <osmand:icon>public_bookcase</osmand:icon>
    </extensions>
  </wpt>
  <wpt lat="45.56324" lon="3.07596">
    <name>Montaigut-le-Blanc z20623</name>
    <type>ZoneLivre Auvergne-Rhône-Alpes</type>
    <extensions>
      <osmand:color>#10c0f0</osmand:color>
      <osmand:background>square</osmand:background>
      <osmand:icon>public_bookcase</osmand:icon>
    </extensions>
  </wpt>
  <wpt lat="45.56297" lon="3.10492">
    <name>Clémensat z20621</name>
    <type>ZoneLivre Auvergne-Rhône-Alpes</type>
    <extensions>
      <osmand:color>#10c0f0</osmand:color>
      <osmand:background>square</osmand:background>
      <osmand:icon>public_bookcase</osmand:icon>
    </extensions>
  </wpt>
  <wpt lat="45.55083" lon="3.10596">
    <name>Saint-Floret z20619</name>
    <type>ZoneLivre Auvergne-Rhône-Alpes</type>
    <extensions>
      <osmand:color>#10c0f0</osmand:color>
      <osmand:background>square</osmand:background>
      <osmand:icon>public_bookcase</osmand:icon>
    </extensions>
  </wpt>
  <wpt lat="45.58835" lon="3.12923">
    <name>Champeix z20617</name>
    <type>ZoneLivre Auvergne-Rhône-Alpes</type>
    <extensions>
      <osmand:color>#10c0f0</osmand:color>
      <osmand:background>square</osmand:background>
      <osmand:icon>public_bookcase</osmand:icon>
    </extensions>
  </wpt>
  <wpt lat="45.50079" lon="3.24248">
    <name>Le Broc z20615</name>
    <type>ZoneLivre Auvergne-Rhône-Alpes</type>
    <extensions>
      <osmand:color>#10c0f0</osmand:color>
      <osmand:background>square</osmand:background>
      <osmand:icon>public_bookcase</osmand:icon>
    </extensions>
  </wpt>
  <wpt lat="45.58915" lon="3.16653">
    <name>Neschers z20613</name>
    <type>ZoneLivre Auvergne-Rhône-Alpes</type>
    <extensions>
      <osmand:color>#10c0f0</osmand:color>
      <osmand:background>square</osmand:background>
      <osmand:icon>public_bookcase</osmand:icon>
    </extensions>
  </wpt>
  <wpt lat="45.41562" lon="6.08073">
    <name>Le Moutaret z20609</name>
    <type>ZoneLivre Auvergne-Rhône-Alpes</type>
    <extensions>
      <osmand:color>#10c0f0</osmand:color>
      <osmand:background>square</osmand:background>
      <osmand:icon>public_bookcase</osmand:icon>
    </extensions>
  </wpt>
  <wpt lat="45.55945" lon="5.89811">
    <name>Cognin z20605</name>
    <type>ZoneLivre Auvergne-Rhône-Alpes</type>
    <extensions>
      <osmand:color>#10c0f0</osmand:color>
      <osmand:background>square</osmand:background>
      <osmand:icon>public_bookcase</osmand:icon>
    </extensions>
  </wpt>
  <wpt lat="45.29389" lon="3.38359">
    <name>Brioude z20603</name>
    <type>ZoneLivre Auvergne-Rhône-Alpes</type>
    <extensions>
      <osmand:color>#10c0f0</osmand:color>
      <osmand:background>square</osmand:background>
      <osmand:icon>public_bookcase</osmand:icon>
    </extensions>
  </wpt>
  <wpt lat="46.40356" lon="3.68633">
    <name>Saint-Léon z20599</name>
    <type>ZoneLivre Auvergne-Rhône-Alpes</type>
    <extensions>
      <osmand:color>#10c0f0</osmand:color>
      <osmand:background>square</osmand:background>
      <osmand:icon>public_bookcase</osmand:icon>
    </extensions>
  </wpt>
  <wpt lat="45.88191" lon="6.32501">
    <name>Thônes z20579</name>
    <type>ZoneLivre Auvergne-Rhône-Alpes</type>
    <extensions>
      <osmand:color>#10c0f0</osmand:color>
      <osmand:background>square</osmand:background>
      <osmand:icon>public_bookcase</osmand:icon>
    </extensions>
  </wpt>
  <wpt lat="45.20324" lon="6.67025">
    <name>Modane z20577</name>
    <type>ZoneLivre Auvergne-Rhône-Alpes</type>
    <extensions>
      <osmand:color>#10c0f0</osmand:color>
      <osmand:background>square</osmand:background>
      <osmand:icon>public_bookcase</osmand:icon>
    </extensions>
  </wpt>
  <wpt lat="45.46543" lon="3.20837">
    <name>Chalus z20557</name>
    <type>ZoneLivre Auvergne-Rhône-Alpes</type>
    <extensions>
      <osmand:color>#10c0f0</osmand:color>
      <osmand:background>square</osmand:background>
      <osmand:icon>public_bookcase</osmand:icon>
    </extensions>
  </wpt>
  <wpt lat="45.47384" lon="3.450944">
    <name>Le Vernet-Chaméane z20555</name>
    <type>ZoneLivre Auvergne-Rhône-Alpes</type>
    <extensions>
      <osmand:color>#10c0f0</osmand:color>
      <osmand:background>square</osmand:background>
      <osmand:icon>public_bookcase</osmand:icon>
    </extensions>
  </wpt>
  <wpt lat="45.61299" lon="3.21151">
    <name>Coudes z20553</name>
    <type>ZoneLivre Auvergne-Rhône-Alpes</type>
    <extensions>
      <osmand:color>#10c0f0</osmand:color>
      <osmand:background>square</osmand:background>
      <osmand:icon>public_bookcase</osmand:icon>
    </extensions>
  </wpt>
  <wpt lat="45.48145" lon="3.31677">
    <name>Lamontgie z20550</name>
    <type>ZoneLivre Auvergne-Rhône-Alpes</type>
    <extensions>
      <osmand:color>#10c0f0</osmand:color>
      <osmand:background>square</osmand:background>
      <osmand:icon>public_bookcase</osmand:icon>
    </extensions>
  </wpt>
  <wpt lat="45.51168" lon="2.93343">
    <name>Besse-et-Saint-Anastaise z20548</name>
    <type>ZoneLivre Auvergne-Rhône-Alpes</type>
    <extensions>
      <osmand:color>#10c0f0</osmand:color>
      <osmand:background>square</osmand:background>
      <osmand:icon>public_bookcase</osmand:icon>
    </extensions>
  </wpt>
  <wpt lat="45.43031" lon="6.08848">
    <name>Le Moutaret z20466</name>
    <type>ZoneLivre Auvergne-Rhône-Alpes</type>
    <extensions>
      <osmand:color>#10c0f0</osmand:color>
      <osmand:background>square</osmand:background>
      <osmand:icon>public_bookcase</osmand:icon>
    </extensions>
  </wpt>
  <wpt lat="45.82721" lon="3.07489">
    <name>Blanzat z20433</name>
    <type>ZoneLivre Auvergne-Rhône-Alpes</type>
    <extensions>
      <osmand:color>#10c0f0</osmand:color>
      <osmand:background>square</osmand:background>
      <osmand:icon>public_bookcase</osmand:icon>
    </extensions>
  </wpt>
  <wpt lat="46.46868" lon="2.96226">
    <name>Buxières-les-Mines z20431</name>
    <type>ZoneLivre Auvergne-Rhône-Alpes</type>
    <extensions>
      <osmand:color>#10c0f0</osmand:color>
      <osmand:background>square</osmand:background>
      <osmand:icon>public_bookcase</osmand:icon>
    </extensions>
  </wpt>
  <wpt lat="46.56618" lon="3.33297">
    <name>Moulins z20427</name>
    <type>ZoneLivre Auvergne-Rhône-Alpes</type>
    <extensions>
      <osmand:color>#10c0f0</osmand:color>
      <osmand:background>square</osmand:background>
      <osmand:icon>public_bookcase</osmand:icon>
    </extensions>
  </wpt>
  <wpt lat="45.53655" lon="3.00838">
    <name>Saint-Diéry z20413</name>
    <type>ZoneLivre Auvergne-Rhône-Alpes</type>
    <extensions>
      <osmand:color>#10c0f0</osmand:color>
      <osmand:background>square</osmand:background>
      <osmand:icon>public_bookcase</osmand:icon>
    </extensions>
  </wpt>
  <wpt lat="45.53937" lon="3.04572">
    <name>Saurier z20411</name>
    <type>ZoneLivre Auvergne-Rhône-Alpes</type>
    <extensions>
      <osmand:color>#10c0f0</osmand:color>
      <osmand:background>square</osmand:background>
      <osmand:icon>public_bookcase</osmand:icon>
    </extensions>
  </wpt>
  <wpt lat="46.32179" lon="3.00853">
    <name>Saint-Marcel-en-Murat z20329</name>
    <type>ZoneLivre Auvergne-Rhône-Alpes</type>
    <extensions>
      <osmand:color>#10c0f0</osmand:color>
      <osmand:background>square</osmand:background>
      <osmand:icon>public_bookcase</osmand:icon>
    </extensions>
  </wpt>
  <wpt lat="45.755272" lon="4.832547">
    <name>Lyon z20320</name>
    <type>ZoneLivre Auvergne-Rhône-Alpes</type>
    <extensions>
      <osmand:color>#10c0f0</osmand:color>
      <osmand:background>square</osmand:background>
      <osmand:icon>public_bookcase</osmand:icon>
    </extensions>
  </wpt>
  <wpt lat="46.11717" lon="2.55567">
    <name>Château-sur-Cher z20313</name>
    <type>ZoneLivre Auvergne-Rhône-Alpes</type>
    <extensions>
      <osmand:color>#10c0f0</osmand:color>
      <osmand:background>square</osmand:background>
      <osmand:icon>public_bookcase</osmand:icon>
    </extensions>
  </wpt>
  <wpt lat="46.11708" lon="3.08811">
    <name>Ebreuil z20311</name>
    <type>ZoneLivre Auvergne-Rhône-Alpes</type>
    <extensions>
      <osmand:color>#10c0f0</osmand:color>
      <osmand:background>square</osmand:background>
      <osmand:icon>public_bookcase</osmand:icon>
    </extensions>
  </wpt>
  <wpt lat="46.27144" lon="2.79382">
    <name>Colombier z20240</name>
    <type>ZoneLivre Auvergne-Rhône-Alpes</type>
    <extensions>
      <osmand:color>#10c0f0</osmand:color>
      <osmand:background>square</osmand:background>
      <osmand:icon>public_bookcase</osmand:icon>
    </extensions>
  </wpt>
  <wpt lat="45.63237" lon="4.78241">
    <name>Millery z20204</name>
    <type>ZoneLivre Auvergne-Rhône-Alpes</type>
    <extensions>
      <osmand:color>#10c0f0</osmand:color>
      <osmand:background>square</osmand:background>
      <osmand:icon>public_bookcase</osmand:icon>
    </extensions>
  </wpt>
  <wpt lat="46.09463" lon="5.45352">
    <name>Saint-Alban z20123</name>
    <type>ZoneLivre Auvergne-Rhône-Alpes</type>
    <extensions>
      <osmand:color>#10c0f0</osmand:color>
      <osmand:background>square</osmand:background>
      <osmand:icon>public_bookcase</osmand:icon>
    </extensions>
  </wpt>
  <wpt lat="45.94889" lon="4.58329">
    <name>Val d'Oingt z20066</name>
    <type>ZoneLivre Auvergne-Rhône-Alpes</type>
    <extensions>
      <osmand:color>#10c0f0</osmand:color>
      <osmand:background>square</osmand:background>
      <osmand:icon>public_bookcase</osmand:icon>
    </extensions>
  </wpt>
  <wpt lat="45.92135" lon="4.58537">
    <name>Val d'Oingt z20064</name>
    <type>ZoneLivre Auvergne-Rhône-Alpes</type>
    <extensions>
      <osmand:color>#10c0f0</osmand:color>
      <osmand:background>square</osmand:background>
      <osmand:icon>public_bookcase</osmand:icon>
    </extensions>
  </wpt>
  <wpt lat="45.55171" lon="6.50426">
    <name>La Léchère z19958</name>
    <type>ZoneLivre Auvergne-Rhône-Alpes</type>
    <extensions>
      <osmand:color>#10c0f0</osmand:color>
      <osmand:background>square</osmand:background>
      <osmand:icon>public_bookcase</osmand:icon>
    </extensions>
  </wpt>
  <wpt lat="45.68821" lon="6.41296">
    <name>Venthon z19956</name>
    <type>ZoneLivre Auvergne-Rhône-Alpes</type>
    <extensions>
      <osmand:color>#10c0f0</osmand:color>
      <osmand:background>square</osmand:background>
      <osmand:icon>public_bookcase</osmand:icon>
    </extensions>
  </wpt>
  <wpt lat="45.67334" lon="6.41127">
    <name>Albertville z19954</name>
    <type>ZoneLivre Auvergne-Rhône-Alpes</type>
    <extensions>
      <osmand:color>#10c0f0</osmand:color>
      <osmand:background>square</osmand:background>
      <osmand:icon>public_bookcase</osmand:icon>
    </extensions>
  </wpt>
  <wpt lat="45.239464" lon="5.66416">
    <name>Saint-Egrève z19889</name>
    <type>ZoneLivre Auvergne-Rhône-Alpes</type>
    <extensions>
      <osmand:color>#10c0f0</osmand:color>
      <osmand:background>square</osmand:background>
      <osmand:icon>public_bookcase</osmand:icon>
    </extensions>
  </wpt>
  <wpt lat="45.92465" lon="6.39647">
    <name>Saint-Jean-de-Sixt z19874</name>
    <type>ZoneLivre Auvergne-Rhône-Alpes</type>
    <extensions>
      <osmand:color>#10c0f0</osmand:color>
      <osmand:background>square</osmand:background>
      <osmand:icon>public_bookcase</osmand:icon>
    </extensions>
  </wpt>
  <wpt lat="44.95649" lon="5.72673">
    <name>La Motte d’Aveillans z19857</name>
    <type>ZoneLivre Auvergne-Rhône-Alpes</type>
    <extensions>
      <osmand:color>#10c0f0</osmand:color>
      <osmand:background>square</osmand:background>
      <osmand:icon>public_bookcase</osmand:icon>
    </extensions>
  </wpt>
  <wpt lat="44.95934" lon="5.74386">
    <name>La Motte d’Aveillans z19855</name>
    <type>ZoneLivre Auvergne-Rhône-Alpes</type>
    <extensions>
      <osmand:color>#10c0f0</osmand:color>
      <osmand:background>square</osmand:background>
      <osmand:icon>public_bookcase</osmand:icon>
    </extensions>
  </wpt>
  <wpt lat="45.75381" lon="4.86759">
    <name>Lyon z19839</name>
    <type>ZoneLivre Auvergne-Rhône-Alpes</type>
    <extensions>
      <osmand:color>#10c0f0</osmand:color>
      <osmand:background>square</osmand:background>
      <osmand:icon>public_bookcase</osmand:icon>
    </extensions>
  </wpt>
  <wpt lat="46.19646" lon="5.21308">
    <name>Bourg-en-Bresse z19828</name>
    <type>ZoneLivre Auvergne-Rhône-Alpes</type>
    <extensions>
      <osmand:color>#10c0f0</osmand:color>
      <osmand:background>square</osmand:background>
      <osmand:icon>public_bookcase</osmand:icon>
    </extensions>
  </wpt>
  <wpt lat="46.30956" lon="2.59942">
    <name>Lavault-Sainte-Anne z19789</name>
    <type>ZoneLivre Auvergne-Rhône-Alpes</type>
    <extensions>
      <osmand:color>#10c0f0</osmand:color>
      <osmand:background>square</osmand:background>
      <osmand:icon>public_bookcase</osmand:icon>
    </extensions>
  </wpt>
  <wpt lat="44.44402" lon="4.5395">
    <name>Gras z19781</name>
    <type>ZoneLivre Auvergne-Rhône-Alpes</type>
    <extensions>
      <osmand:color>#10c0f0</osmand:color>
      <osmand:background>square</osmand:background>
      <osmand:icon>public_bookcase</osmand:icon>
    </extensions>
  </wpt>
  <wpt lat="45.59502" lon="5.87374">
    <name>La Motte-Servolex z19508</name>
    <type>ZoneLivre Auvergne-Rhône-Alpes</type>
    <extensions>
      <osmand:color>#10c0f0</osmand:color>
      <osmand:background>square</osmand:background>
      <osmand:icon>public_bookcase</osmand:icon>
    </extensions>
  </wpt>
  <wpt lat="45.59549" lon="5.87249">
    <name>La Motte-Servolex z19506</name>
    <type>ZoneLivre Auvergne-Rhône-Alpes</type>
    <extensions>
      <osmand:color>#10c0f0</osmand:color>
      <osmand:background>square</osmand:background>
      <osmand:icon>public_bookcase</osmand:icon>
    </extensions>
  </wpt>
  <wpt lat="45.59749" lon="5.87585">
    <name>La Motte-Servolex z19504</name>
    <type>ZoneLivre Auvergne-Rhône-Alpes</type>
    <extensions>
      <osmand:color>#10c0f0</osmand:color>
      <osmand:background>square</osmand:background>
      <osmand:icon>public_bookcase</osmand:icon>
    </extensions>
  </wpt>
  <wpt lat="45.59738" lon="5.8778">
    <name>La Motte-Servolex z19502</name>
    <type>ZoneLivre Auvergne-Rhône-Alpes</type>
    <extensions>
      <osmand:color>#10c0f0</osmand:color>
      <osmand:background>square</osmand:background>
      <osmand:icon>public_bookcase</osmand:icon>
    </extensions>
  </wpt>
  <wpt lat="45.7544" lon="6.28198">
    <name>Faverges-Seythenex z19399</name>
    <type>ZoneLivre Auvergne-Rhône-Alpes</type>
    <extensions>
      <osmand:color>#10c0f0</osmand:color>
      <osmand:background>square</osmand:background>
      <osmand:icon>public_bookcase</osmand:icon>
    </extensions>
  </wpt>
  <wpt lat="46.51867" lon="2.701">
    <name>Hérisson z19374</name>
    <type>ZoneLivre Auvergne-Rhône-Alpes</type>
    <extensions>
      <osmand:color>#10c0f0</osmand:color>
      <osmand:background>square</osmand:background>
      <osmand:icon>public_bookcase</osmand:icon>
    </extensions>
  </wpt>
  <wpt lat="45.84991" lon="5.05624">
    <name>Montluel z19372</name>
    <type>ZoneLivre Auvergne-Rhône-Alpes</type>
    <extensions>
      <osmand:color>#10c0f0</osmand:color>
      <osmand:background>square</osmand:background>
      <osmand:icon>public_bookcase</osmand:icon>
    </extensions>
  </wpt>
  <wpt lat="45.73557" lon="4.8375">
    <name>Lyon z19370</name>
    <type>ZoneLivre Auvergne-Rhône-Alpes</type>
    <extensions>
      <osmand:color>#10c0f0</osmand:color>
      <osmand:background>square</osmand:background>
      <osmand:icon>public_bookcase</osmand:icon>
    </extensions>
  </wpt>
  <wpt lat="44.95663" lon="5.43648">
    <name>Saint-Agnan-en-Vercors z19365</name>
    <type>ZoneLivre Auvergne-Rhône-Alpes</type>
    <extensions>
      <osmand:color>#10c0f0</osmand:color>
      <osmand:background>square</osmand:background>
      <osmand:icon>public_bookcase</osmand:icon>
    </extensions>
  </wpt>
  <wpt lat="45.06289" lon="5.30285">
    <name>Auberives-en-Royans z19363</name>
    <type>ZoneLivre Auvergne-Rhône-Alpes</type>
    <extensions>
      <osmand:color>#10c0f0</osmand:color>
      <osmand:background>square</osmand:background>
      <osmand:icon>public_bookcase</osmand:icon>
    </extensions>
  </wpt>
  <wpt lat="45.06688" lon="5.3911">
    <name>Choranche z19361</name>
    <type>ZoneLivre Auvergne-Rhône-Alpes</type>
    <extensions>
      <osmand:color>#10c0f0</osmand:color>
      <osmand:background>square</osmand:background>
      <osmand:icon>public_bookcase</osmand:icon>
    </extensions>
  </wpt>
  <wpt lat="45.45574" lon="6.69367">
    <name>Champagny-en-Vanoise z19347</name>
    <type>ZoneLivre Auvergne-Rhône-Alpes</type>
    <extensions>
      <osmand:color>#10c0f0</osmand:color>
      <osmand:background>square</osmand:background>
      <osmand:icon>public_bookcase</osmand:icon>
    </extensions>
  </wpt>
  <wpt lat="45.45399" lon="6.69392">
    <name>Champagny-en-Vanoise z19345</name>
    <type>ZoneLivre Auvergne-Rhône-Alpes</type>
    <extensions>
      <osmand:color>#10c0f0</osmand:color>
      <osmand:background>square</osmand:background>
      <osmand:icon>public_bookcase</osmand:icon>
    </extensions>
  </wpt>
  <wpt lat="45.0511" lon="5.44944">
    <name>Saint-Julien-en-Vercors z19303</name>
    <type>ZoneLivre Auvergne-Rhône-Alpes</type>
    <extensions>
      <osmand:color>#10c0f0</osmand:color>
      <osmand:background>square</osmand:background>
      <osmand:icon>public_bookcase</osmand:icon>
    </extensions>
  </wpt>
  <wpt lat="45.51169" lon="5.01468">
    <name>Moidieu-Détourbe z19231</name>
    <type>ZoneLivre Auvergne-Rhône-Alpes</type>
    <extensions>
      <osmand:color>#10c0f0</osmand:color>
      <osmand:background>square</osmand:background>
      <osmand:icon>public_bookcase</osmand:icon>
    </extensions>
  </wpt>
  <wpt lat="46.1396" lon="6.31663">
    <name>Tossiat z19207</name>
    <type>ZoneLivre Auvergne-Rhône-Alpes</type>
    <extensions>
      <osmand:color>#10c0f0</osmand:color>
      <osmand:background>square</osmand:background>
      <osmand:icon>public_bookcase</osmand:icon>
    </extensions>
  </wpt>
  <wpt lat="45.777" lon="4.83024">
    <name>Lyon z19190</name>
    <type>ZoneLivre Auvergne-Rhône-Alpes</type>
    <extensions>
      <osmand:color>#10c0f0</osmand:color>
      <osmand:background>square</osmand:background>
      <osmand:icon>public_bookcase</osmand:icon>
    </extensions>
  </wpt>
  <wpt lat="45.56422" lon="5.14801">
    <name>Roche z19153</name>
    <type>ZoneLivre Auvergne-Rhône-Alpes</type>
    <extensions>
      <osmand:color>#10c0f0</osmand:color>
      <osmand:background>square</osmand:background>
      <osmand:icon>public_bookcase</osmand:icon>
    </extensions>
  </wpt>
  <wpt lat="45.52546" lon="5.25278">
    <name>Culin z19147</name>
    <type>ZoneLivre Auvergne-Rhône-Alpes</type>
    <extensions>
      <osmand:color>#10c0f0</osmand:color>
      <osmand:background>square</osmand:background>
      <osmand:icon>public_bookcase</osmand:icon>
    </extensions>
  </wpt>
  <wpt lat="45.43366" lon="5.09502">
    <name>Saint-Julien-de-l'Herms z19006</name>
    <type>ZoneLivre Auvergne-Rhône-Alpes</type>
    <extensions>
      <osmand:color>#10c0f0</osmand:color>
      <osmand:background>square</osmand:background>
      <osmand:icon>public_bookcase</osmand:icon>
    </extensions>
  </wpt>
  <wpt lat="45.73026" lon="4.82871">
    <name>Lyon z18990</name>
    <type>ZoneLivre Auvergne-Rhône-Alpes</type>
    <extensions>
      <osmand:color>#10c0f0</osmand:color>
      <osmand:background>square</osmand:background>
      <osmand:icon>public_bookcase</osmand:icon>
    </extensions>
  </wpt>
  <wpt lat="45.794495" lon="4.034512">
    <name>Bussy-Albieux z18983</name>
    <type>ZoneLivre Auvergne-Rhône-Alpes</type>
    <extensions>
      <osmand:color>#10c0f0</osmand:color>
      <osmand:background>square</osmand:background>
      <osmand:icon>public_bookcase</osmand:icon>
    </extensions>
  </wpt>
  <wpt lat="45.79413" lon="4.032516">
    <name>Bussy-Albieux z18981</name>
    <type>ZoneLivre Auvergne-Rhône-Alpes</type>
    <extensions>
      <osmand:color>#10c0f0</osmand:color>
      <osmand:background>square</osmand:background>
      <osmand:icon>public_bookcase</osmand:icon>
    </extensions>
  </wpt>
  <wpt lat="45.74553" lon="4.003916">
    <name>Boën-sur-Lignon z18979</name>
    <type>ZoneLivre Auvergne-Rhône-Alpes</type>
    <extensions>
      <osmand:color>#10c0f0</osmand:color>
      <osmand:background>square</osmand:background>
      <osmand:icon>public_bookcase</osmand:icon>
    </extensions>
  </wpt>
  <wpt lat="45.745169" lon="4.004468">
    <name>Boën-sur-Lignon z18977</name>
    <type>ZoneLivre Auvergne-Rhône-Alpes</type>
    <extensions>
      <osmand:color>#10c0f0</osmand:color>
      <osmand:background>square</osmand:background>
      <osmand:icon>public_bookcase</osmand:icon>
    </extensions>
  </wpt>
  <wpt lat="45.73839" lon="4.28865">
    <name>Salt-en-Donzy z18973</name>
    <type>ZoneLivre Auvergne-Rhône-Alpes</type>
    <extensions>
      <osmand:color>#10c0f0</osmand:color>
      <osmand:background>square</osmand:background>
      <osmand:icon>public_bookcase</osmand:icon>
    </extensions>
  </wpt>
  <wpt lat="45.44044" lon="4.38698">
    <name>Saint-Étienne z18970</name>
    <type>ZoneLivre Auvergne-Rhône-Alpes</type>
    <extensions>
      <osmand:color>#10c0f0</osmand:color>
      <osmand:background>square</osmand:background>
      <osmand:icon>public_bookcase</osmand:icon>
    </extensions>
  </wpt>
  <wpt lat="45.36476" lon="4.50099">
    <name>Tarentaise z18968</name>
    <type>ZoneLivre Auvergne-Rhône-Alpes</type>
    <extensions>
      <osmand:color>#10c0f0</osmand:color>
      <osmand:background>square</osmand:background>
      <osmand:icon>public_bookcase</osmand:icon>
    </extensions>
  </wpt>
  <wpt lat="45.77649" lon="6.22405">
    <name>Doussard z18966</name>
    <type>ZoneLivre Auvergne-Rhône-Alpes</type>
    <extensions>
      <osmand:color>#10c0f0</osmand:color>
      <osmand:background>square</osmand:background>
      <osmand:icon>public_bookcase</osmand:icon>
    </extensions>
  </wpt>
  <wpt lat="45.58789" lon="5.15897">
    <name>Roche z18951</name>
    <type>ZoneLivre Auvergne-Rhône-Alpes</type>
    <extensions>
      <osmand:color>#10c0f0</osmand:color>
      <osmand:background>square</osmand:background>
      <osmand:icon>public_bookcase</osmand:icon>
    </extensions>
  </wpt>
  <wpt lat="45.571485" lon="5.161643">
    <name>Roche z18948</name>
    <type>ZoneLivre Auvergne-Rhône-Alpes</type>
    <extensions>
      <osmand:color>#10c0f0</osmand:color>
      <osmand:background>square</osmand:background>
      <osmand:icon>public_bookcase</osmand:icon>
    </extensions>
  </wpt>
  <wpt lat="45.59625" lon="5.12977">
    <name>Bonnefamille z18946</name>
    <type>ZoneLivre Auvergne-Rhône-Alpes</type>
    <extensions>
      <osmand:color>#10c0f0</osmand:color>
      <osmand:background>square</osmand:background>
      <osmand:icon>public_bookcase</osmand:icon>
    </extensions>
  </wpt>
  <wpt lat="45.74737" lon="4.69179">
    <name>Grézieu-la-Varenne z18931</name>
    <type>ZoneLivre Auvergne-Rhône-Alpes</type>
    <extensions>
      <osmand:color>#10c0f0</osmand:color>
      <osmand:background>square</osmand:background>
      <osmand:icon>public_bookcase</osmand:icon>
    </extensions>
  </wpt>
  <wpt lat="45.4918" lon="5.07022">
    <name>Savas-Mépin z18897</name>
    <type>ZoneLivre Auvergne-Rhône-Alpes</type>
    <extensions>
      <osmand:color>#10c0f0</osmand:color>
      <osmand:background>square</osmand:background>
      <osmand:icon>public_bookcase</osmand:icon>
    </extensions>
  </wpt>
  <wpt lat="45.47015" lon="5.05463">
    <name>Meyssiez z18895</name>
    <type>ZoneLivre Auvergne-Rhône-Alpes</type>
    <extensions>
      <osmand:color>#10c0f0</osmand:color>
      <osmand:background>square</osmand:background>
      <osmand:icon>public_bookcase</osmand:icon>
    </extensions>
  </wpt>
  <wpt lat="45.81468" lon="4.93233">
    <name>Neyron z18878</name>
    <type>ZoneLivre Auvergne-Rhône-Alpes</type>
    <extensions>
      <osmand:color>#10c0f0</osmand:color>
      <osmand:background>square</osmand:background>
      <osmand:icon>public_bookcase</osmand:icon>
    </extensions>
  </wpt>
  <wpt lat="45.85129" lon="6.05728">
    <name>Montluel z18876</name>
    <type>ZoneLivre Auvergne-Rhône-Alpes</type>
    <extensions>
      <osmand:color>#10c0f0</osmand:color>
      <osmand:background>square</osmand:background>
      <osmand:icon>public_bookcase</osmand:icon>
    </extensions>
  </wpt>
  <wpt lat="45.84164" lon="5.03267">
    <name>La Boisse z18874</name>
    <type>ZoneLivre Auvergne-Rhône-Alpes</type>
    <extensions>
      <osmand:color>#10c0f0</osmand:color>
      <osmand:background>square</osmand:background>
      <osmand:icon>public_bookcase</osmand:icon>
    </extensions>
  </wpt>
  <wpt lat="45.853171" lon="5.055886">
    <name>Montluel z18791</name>
    <type>ZoneLivre Auvergne-Rhône-Alpes</type>
    <extensions>
      <osmand:color>#10c0f0</osmand:color>
      <osmand:background>square</osmand:background>
      <osmand:icon>public_bookcase</osmand:icon>
    </extensions>
  </wpt>
  <wpt lat="45.5667" lon="5.91912">
    <name>Chambéry z18667</name>
    <type>ZoneLivre Auvergne-Rhône-Alpes</type>
    <extensions>
      <osmand:color>#10c0f0</osmand:color>
      <osmand:background>square</osmand:background>
      <osmand:icon>public_bookcase</osmand:icon>
    </extensions>
  </wpt>
  <wpt lat="44.84516" lon="5.62054">
    <name>Saint-Martin-de-Clelles z18665</name>
    <type>ZoneLivre Auvergne-Rhône-Alpes</type>
    <extensions>
      <osmand:color>#10c0f0</osmand:color>
      <osmand:background>square</osmand:background>
      <osmand:icon>public_bookcase</osmand:icon>
    </extensions>
  </wpt>
  <wpt lat="44.84533" lon="5.62141">
    <name>Saint-Martin-de-Clelles z18663</name>
    <type>ZoneLivre Auvergne-Rhône-Alpes</type>
    <extensions>
      <osmand:color>#10c0f0</osmand:color>
      <osmand:background>square</osmand:background>
      <osmand:icon>public_bookcase</osmand:icon>
    </extensions>
  </wpt>
  <wpt lat="45.4912" lon="5.38762">
    <name>Biol z18660</name>
    <type>ZoneLivre Auvergne-Rhône-Alpes</type>
    <extensions>
      <osmand:color>#10c0f0</osmand:color>
      <osmand:background>square</osmand:background>
      <osmand:icon>public_bookcase</osmand:icon>
    </extensions>
  </wpt>
  <wpt lat="45.3396" lon="4.85667">
    <name>Agnin z18658</name>
    <type>ZoneLivre Auvergne-Rhône-Alpes</type>
    <extensions>
      <osmand:color>#10c0f0</osmand:color>
      <osmand:background>square</osmand:background>
      <osmand:icon>public_bookcase</osmand:icon>
    </extensions>
  </wpt>
  <wpt lat="45.15604" lon="5.68057">
    <name>Seyssins z18656</name>
    <type>ZoneLivre Auvergne-Rhône-Alpes</type>
    <extensions>
      <osmand:color>#10c0f0</osmand:color>
      <osmand:background>square</osmand:background>
      <osmand:icon>public_bookcase</osmand:icon>
    </extensions>
  </wpt>
  <wpt lat="45.26433" lon="5.86469">
    <name>Bernin z18654</name>
    <type>ZoneLivre Auvergne-Rhône-Alpes</type>
    <extensions>
      <osmand:color>#10c0f0</osmand:color>
      <osmand:background>square</osmand:background>
      <osmand:icon>public_bookcase</osmand:icon>
    </extensions>
  </wpt>
  <wpt lat="45.23805" lon="5.80413">
    <name>Biviers z18652</name>
    <type>ZoneLivre Auvergne-Rhône-Alpes</type>
    <extensions>
      <osmand:color>#10c0f0</osmand:color>
      <osmand:background>square</osmand:background>
      <osmand:icon>public_bookcase</osmand:icon>
    </extensions>
  </wpt>
  <wpt lat="45.23777" lon="5.80721">
    <name>Biviers z18650</name>
    <type>ZoneLivre Auvergne-Rhône-Alpes</type>
    <extensions>
      <osmand:color>#10c0f0</osmand:color>
      <osmand:background>square</osmand:background>
      <osmand:icon>public_bookcase</osmand:icon>
    </extensions>
  </wpt>
  <wpt lat="45.91181" lon="6.85441">
    <name>Chamonix-Mont-Blanc z18647</name>
    <type>ZoneLivre Auvergne-Rhône-Alpes</type>
    <extensions>
      <osmand:color>#10c0f0</osmand:color>
      <osmand:background>square</osmand:background>
      <osmand:icon>public_bookcase</osmand:icon>
    </extensions>
  </wpt>
  <wpt lat="44.405341" lon="4.130444">
    <name>Les Vans z18641</name>
    <type>ZoneLivre Auvergne-Rhône-Alpes</type>
    <extensions>
      <osmand:color>#10c0f0</osmand:color>
      <osmand:background>square</osmand:background>
      <osmand:icon>public_bookcase</osmand:icon>
    </extensions>
  </wpt>
  <wpt lat="44.39945" lon="4.21279">
    <name>Berrias-et-Casteljau z18639</name>
    <type>ZoneLivre Auvergne-Rhône-Alpes</type>
    <extensions>
      <osmand:color>#10c0f0</osmand:color>
      <osmand:background>square</osmand:background>
      <osmand:icon>public_bookcase</osmand:icon>
    </extensions>
  </wpt>
  <wpt lat="44.58882" lon="4.70509">
    <name>Rochemaure z18637</name>
    <type>ZoneLivre Auvergne-Rhône-Alpes</type>
    <extensions>
      <osmand:color>#10c0f0</osmand:color>
      <osmand:background>square</osmand:background>
      <osmand:icon>public_bookcase</osmand:icon>
    </extensions>
  </wpt>
  <wpt lat="44.55466" lon="4.59769">
    <name>Alba-la-Romaine z18635</name>
    <type>ZoneLivre Auvergne-Rhône-Alpes</type>
    <extensions>
      <osmand:color>#10c0f0</osmand:color>
      <osmand:background>square</osmand:background>
      <osmand:icon>public_bookcase</osmand:icon>
    </extensions>
  </wpt>
  <wpt lat="45.66435" lon="6.3634">
    <name>Albertville z18310</name>
    <type>ZoneLivre Auvergne-Rhône-Alpes</type>
    <extensions>
      <osmand:color>#10c0f0</osmand:color>
      <osmand:background>square</osmand:background>
      <osmand:icon>public_bookcase</osmand:icon>
    </extensions>
  </wpt>
  <wpt lat="45.65667" lon="5.85876">
    <name>Le Bourget du Lac z18239</name>
    <type>ZoneLivre Auvergne-Rhône-Alpes</type>
    <extensions>
      <osmand:color>#10c0f0</osmand:color>
      <osmand:background>square</osmand:background>
      <osmand:icon>public_bookcase</osmand:icon>
    </extensions>
  </wpt>
  <wpt lat="45.64861" lon="5.85837">
    <name>Le Bourget-du-Lac z18237</name>
    <type>ZoneLivre Auvergne-Rhône-Alpes</type>
    <extensions>
      <osmand:color>#10c0f0</osmand:color>
      <osmand:background>square</osmand:background>
      <osmand:icon>public_bookcase</osmand:icon>
    </extensions>
  </wpt>
  <wpt lat="45.19205" lon="6.65276">
    <name>Fourneaux z18232</name>
    <type>ZoneLivre Auvergne-Rhône-Alpes</type>
    <extensions>
      <osmand:color>#10c0f0</osmand:color>
      <osmand:background>square</osmand:background>
      <osmand:icon>public_bookcase</osmand:icon>
    </extensions>
  </wpt>
  <wpt lat="45.64922" lon="4.7944">
    <name>Charly z18222</name>
    <type>ZoneLivre Auvergne-Rhône-Alpes</type>
    <extensions>
      <osmand:color>#10c0f0</osmand:color>
      <osmand:background>square</osmand:background>
      <osmand:icon>public_bookcase</osmand:icon>
    </extensions>
  </wpt>
  <wpt lat="45.47518" lon="5.10295">
    <name>Villeneuve-de-Marc z18171</name>
    <type>ZoneLivre Auvergne-Rhône-Alpes</type>
    <extensions>
      <osmand:color>#10c0f0</osmand:color>
      <osmand:background>square</osmand:background>
      <osmand:icon>public_bookcase</osmand:icon>
    </extensions>
  </wpt>
  <wpt lat="45.86067" lon="6.32852">
    <name>Les Clefs z18080</name>
    <type>ZoneLivre Auvergne-Rhône-Alpes</type>
    <extensions>
      <osmand:color>#10c0f0</osmand:color>
      <osmand:background>square</osmand:background>
      <osmand:icon>public_bookcase</osmand:icon>
    </extensions>
  </wpt>
  <wpt lat="45.85926" lon="6.19622">
    <name>Menthon-Saint-Bernard z18078</name>
    <type>ZoneLivre Auvergne-Rhône-Alpes</type>
    <extensions>
      <osmand:color>#10c0f0</osmand:color>
      <osmand:background>square</osmand:background>
      <osmand:icon>public_bookcase</osmand:icon>
    </extensions>
  </wpt>
  <wpt lat="45.76802" lon="6.26022">
    <name>Faverges-Seythenex z18076</name>
    <type>ZoneLivre Auvergne-Rhône-Alpes</type>
    <extensions>
      <osmand:color>#10c0f0</osmand:color>
      <osmand:background>square</osmand:background>
      <osmand:icon>public_bookcase</osmand:icon>
    </extensions>
  </wpt>
  <wpt lat="46.32926" lon="6.38685">
    <name>Sciez z18066</name>
    <type>ZoneLivre Auvergne-Rhône-Alpes</type>
    <extensions>
      <osmand:color>#10c0f0</osmand:color>
      <osmand:background>square</osmand:background>
      <osmand:icon>public_bookcase</osmand:icon>
    </extensions>
  </wpt>
  <wpt lat="45.81832" lon="4.75027">
    <name>Dardilly z18015</name>
    <type>ZoneLivre Auvergne-Rhône-Alpes</type>
    <extensions>
      <osmand:color>#10c0f0</osmand:color>
      <osmand:background>square</osmand:background>
      <osmand:icon>public_bookcase</osmand:icon>
    </extensions>
  </wpt>
  <wpt lat="45.55408" lon="6.67358">
    <name>Mâcot-la-Plagne z17986</name>
    <type>ZoneLivre Auvergne-Rhône-Alpes</type>
    <extensions>
      <osmand:color>#10c0f0</osmand:color>
      <osmand:background>square</osmand:background>
      <osmand:icon>public_bookcase</osmand:icon>
    </extensions>
  </wpt>
  <wpt lat="45.80303" lon="6.26339">
    <name>Montmin z17984</name>
    <type>ZoneLivre Auvergne-Rhône-Alpes</type>
    <extensions>
      <osmand:color>#10c0f0</osmand:color>
      <osmand:background>square</osmand:background>
      <osmand:icon>public_bookcase</osmand:icon>
    </extensions>
  </wpt>
  <wpt lat="45.82114" lon="5.84714">
    <name>Chindrieux z17982</name>
    <type>ZoneLivre Auvergne-Rhône-Alpes</type>
    <extensions>
      <osmand:color>#10c0f0</osmand:color>
      <osmand:background>square</osmand:background>
      <osmand:icon>public_bookcase</osmand:icon>
    </extensions>
  </wpt>
  <wpt lat="45.77458" lon="4.77765">
    <name>Écully z17942</name>
    <type>ZoneLivre Auvergne-Rhône-Alpes</type>
    <extensions>
      <osmand:color>#10c0f0</osmand:color>
      <osmand:background>square</osmand:background>
      <osmand:icon>public_bookcase</osmand:icon>
    </extensions>
  </wpt>
  <wpt lat="45.0478" lon="3.92524">
    <name>Brives-Charensac z17859</name>
    <type>ZoneLivre Auvergne-Rhône-Alpes</type>
    <extensions>
      <osmand:color>#10c0f0</osmand:color>
      <osmand:background>square</osmand:background>
      <osmand:icon>public_bookcase</osmand:icon>
    </extensions>
  </wpt>
  <wpt lat="44.52578" lon="5.06612">
    <name>Dieulefit z17711</name>
    <type>ZoneLivre Auvergne-Rhône-Alpes</type>
    <extensions>
      <osmand:color>#10c0f0</osmand:color>
      <osmand:background>square</osmand:background>
      <osmand:icon>public_bookcase</osmand:icon>
    </extensions>
  </wpt>
  <wpt lat="46.45204" lon="5.18839">
    <name>Saint-Nizier-le-Bouchoux z17694</name>
    <type>ZoneLivre Auvergne-Rhône-Alpes</type>
    <extensions>
      <osmand:color>#10c0f0</osmand:color>
      <osmand:background>square</osmand:background>
      <osmand:icon>public_bookcase</osmand:icon>
    </extensions>
  </wpt>
  <wpt lat="45.95964" lon="5.35799">
    <name>Ambérieu-en-Bugey z17690</name>
    <type>ZoneLivre Auvergne-Rhône-Alpes</type>
    <extensions>
      <osmand:color>#10c0f0</osmand:color>
      <osmand:background>square</osmand:background>
      <osmand:icon>public_bookcase</osmand:icon>
    </extensions>
  </wpt>
  <wpt lat="45.79158" lon="4.44621">
    <name>Montrottier z17686</name>
    <type>ZoneLivre Auvergne-Rhône-Alpes</type>
    <extensions>
      <osmand:color>#10c0f0</osmand:color>
      <osmand:background>square</osmand:background>
      <osmand:icon>public_bookcase</osmand:icon>
    </extensions>
  </wpt>
  <wpt lat="45.318446" lon="3.168771">
    <name>Blesle z17350</name>
    <type>ZoneLivre Auvergne-Rhône-Alpes</type>
    <extensions>
      <osmand:color>#10c0f0</osmand:color>
      <osmand:background>square</osmand:background>
      <osmand:icon>public_bookcase</osmand:icon>
    </extensions>
  </wpt>
  <wpt lat="45.59722" lon="6.23917">
    <name>Grésy-sur-Isère z17321</name>
    <type>ZoneLivre Auvergne-Rhône-Alpes</type>
    <extensions>
      <osmand:color>#10c0f0</osmand:color>
      <osmand:background>square</osmand:background>
      <osmand:icon>public_bookcase</osmand:icon>
    </extensions>
  </wpt>
  <wpt lat="45.88231" lon="6.32213">
    <name>Thônes z17319</name>
    <type>ZoneLivre Auvergne-Rhône-Alpes</type>
    <extensions>
      <osmand:color>#10c0f0</osmand:color>
      <osmand:background>square</osmand:background>
      <osmand:icon>public_bookcase</osmand:icon>
    </extensions>
  </wpt>
  <wpt lat="45.79717" lon="6.36354">
    <name>Le Bouchet-Mont-Charvin z17317</name>
    <type>ZoneLivre Auvergne-Rhône-Alpes</type>
    <extensions>
      <osmand:color>#10c0f0</osmand:color>
      <osmand:background>square</osmand:background>
      <osmand:icon>public_bookcase</osmand:icon>
    </extensions>
  </wpt>
  <wpt lat="46.01787" lon="5.82781">
    <name>Challonges z17311</name>
    <type>ZoneLivre Auvergne-Rhône-Alpes</type>
    <extensions>
      <osmand:color>#10c0f0</osmand:color>
      <osmand:background>square</osmand:background>
      <osmand:icon>public_bookcase</osmand:icon>
    </extensions>
  </wpt>
  <wpt lat="45.18771" lon="5.73504">
    <name>Grenoble z17280</name>
    <type>ZoneLivre Auvergne-Rhône-Alpes</type>
    <extensions>
      <osmand:color>#10c0f0</osmand:color>
      <osmand:background>square</osmand:background>
      <osmand:icon>public_bookcase</osmand:icon>
    </extensions>
  </wpt>
  <wpt lat="46.13533" lon="4.01259">
    <name>Noailly z17277</name>
    <type>ZoneLivre Auvergne-Rhône-Alpes</type>
    <extensions>
      <osmand:color>#10c0f0</osmand:color>
      <osmand:background>square</osmand:background>
      <osmand:icon>public_bookcase</osmand:icon>
    </extensions>
  </wpt>
  <wpt lat="45.18193" lon="5.73567">
    <name>Grenoble z17275</name>
    <type>ZoneLivre Auvergne-Rhône-Alpes</type>
    <extensions>
      <osmand:color>#10c0f0</osmand:color>
      <osmand:background>square</osmand:background>
      <osmand:icon>public_bookcase</osmand:icon>
    </extensions>
  </wpt>
  <wpt lat="45.63617" lon="6.35549">
    <name>Monthion z17242</name>
    <type>ZoneLivre Auvergne-Rhône-Alpes</type>
    <extensions>
      <osmand:color>#10c0f0</osmand:color>
      <osmand:background>square</osmand:background>
      <osmand:icon>public_bookcase</osmand:icon>
    </extensions>
  </wpt>
  <wpt lat="45.17183" lon="5.80462">
    <name>Venon z17235</name>
    <type>ZoneLivre Auvergne-Rhône-Alpes</type>
    <extensions>
      <osmand:color>#10c0f0</osmand:color>
      <osmand:background>square</osmand:background>
      <osmand:icon>public_bookcase</osmand:icon>
    </extensions>
  </wpt>
  <wpt lat="45.19121" lon="5.73693">
    <name>Grenoble z17233</name>
    <type>ZoneLivre Auvergne-Rhône-Alpes</type>
    <extensions>
      <osmand:color>#10c0f0</osmand:color>
      <osmand:background>square</osmand:background>
      <osmand:icon>public_bookcase</osmand:icon>
    </extensions>
  </wpt>
  <wpt lat="45.86701" lon="6.13971">
    <name>Sevrier z17196</name>
    <type>ZoneLivre Auvergne-Rhône-Alpes</type>
    <extensions>
      <osmand:color>#10c0f0</osmand:color>
      <osmand:background>square</osmand:background>
      <osmand:icon>public_bookcase</osmand:icon>
    </extensions>
  </wpt>
  <wpt lat="45.7867" lon="6.23214">
    <name>Doussard z17097</name>
    <type>ZoneLivre Auvergne-Rhône-Alpes</type>
    <extensions>
      <osmand:color>#10c0f0</osmand:color>
      <osmand:background>square</osmand:background>
      <osmand:icon>public_bookcase</osmand:icon>
    </extensions>
  </wpt>
  <wpt lat="45.67519" lon="6.3803">
    <name>Albertville z16936</name>
    <type>ZoneLivre Auvergne-Rhône-Alpes</type>
    <extensions>
      <osmand:color>#10c0f0</osmand:color>
      <osmand:background>square</osmand:background>
      <osmand:icon>public_bookcase</osmand:icon>
    </extensions>
  </wpt>
  <wpt lat="45.70651" lon="6.37275">
    <name>Allondaz z16933</name>
    <type>ZoneLivre Auvergne-Rhône-Alpes</type>
    <extensions>
      <osmand:color>#10c0f0</osmand:color>
      <osmand:background>square</osmand:background>
      <osmand:icon>public_bookcase</osmand:icon>
    </extensions>
  </wpt>
  <wpt lat="45.48153" lon="6.06385">
    <name>Sainte-Hélène-du-Lac z16870</name>
    <type>ZoneLivre Auvergne-Rhône-Alpes</type>
    <extensions>
      <osmand:color>#10c0f0</osmand:color>
      <osmand:background>square</osmand:background>
      <osmand:icon>public_bookcase</osmand:icon>
    </extensions>
  </wpt>
  <wpt lat="45.56689" lon="6.13316">
    <name>Saint-Jean-de-la-Porte z16868</name>
    <type>ZoneLivre Auvergne-Rhône-Alpes</type>
    <extensions>
      <osmand:color>#10c0f0</osmand:color>
      <osmand:background>square</osmand:background>
      <osmand:icon>public_bookcase</osmand:icon>
    </extensions>
  </wpt>
  <wpt lat="45.56169" lon="6.15891">
    <name>Saint-Pierre-d'Albigny z16866</name>
    <type>ZoneLivre Auvergne-Rhône-Alpes</type>
    <extensions>
      <osmand:color>#10c0f0</osmand:color>
      <osmand:background>square</osmand:background>
      <osmand:icon>public_bookcase</osmand:icon>
    </extensions>
  </wpt>
  <wpt lat="45.69182" lon="6.38129">
    <name>Albertville z16864</name>
    <type>ZoneLivre Auvergne-Rhône-Alpes</type>
    <extensions>
      <osmand:color>#10c0f0</osmand:color>
      <osmand:background>square</osmand:background>
      <osmand:icon>public_bookcase</osmand:icon>
    </extensions>
  </wpt>
  <wpt lat="45.64962" lon="6.37895">
    <name>Grignon z16862</name>
    <type>ZoneLivre Auvergne-Rhône-Alpes</type>
    <extensions>
      <osmand:color>#10c0f0</osmand:color>
      <osmand:background>square</osmand:background>
      <osmand:icon>public_bookcase</osmand:icon>
    </extensions>
  </wpt>
  <wpt lat="45.66871" lon="6.35855">
    <name>Gilly-sur-Isère z16860</name>
    <type>ZoneLivre Auvergne-Rhône-Alpes</type>
    <extensions>
      <osmand:color>#10c0f0</osmand:color>
      <osmand:background>square</osmand:background>
      <osmand:icon>public_bookcase</osmand:icon>
    </extensions>
  </wpt>
  <wpt lat="45.84495" lon="6.03761">
    <name>Chapeiry z16854</name>
    <type>ZoneLivre Auvergne-Rhône-Alpes</type>
    <extensions>
      <osmand:color>#10c0f0</osmand:color>
      <osmand:background>square</osmand:background>
      <osmand:icon>public_bookcase</osmand:icon>
    </extensions>
  </wpt>
  <wpt lat="45.81698" lon="6.02046">
    <name>Alby-sur-Chéran z16849</name>
    <type>ZoneLivre Auvergne-Rhône-Alpes</type>
    <extensions>
      <osmand:color>#10c0f0</osmand:color>
      <osmand:background>square</osmand:background>
      <osmand:icon>public_bookcase</osmand:icon>
    </extensions>
  </wpt>
  <wpt lat="45.67428" lon="6.36432">
    <name>Albertville z16847</name>
    <type>ZoneLivre Auvergne-Rhône-Alpes</type>
    <extensions>
      <osmand:color>#10c0f0</osmand:color>
      <osmand:background>square</osmand:background>
      <osmand:icon>public_bookcase</osmand:icon>
    </extensions>
  </wpt>
  <wpt lat="45.67782" lon="6.39222">
    <name>Albertville z16845</name>
    <type>ZoneLivre Auvergne-Rhône-Alpes</type>
    <extensions>
      <osmand:color>#10c0f0</osmand:color>
      <osmand:background>square</osmand:background>
      <osmand:icon>public_bookcase</osmand:icon>
    </extensions>
  </wpt>
  <wpt lat="45.81878" lon="6.024">
    <name>Alby-sur-Chéran z16688</name>
    <type>ZoneLivre Auvergne-Rhône-Alpes</type>
    <extensions>
      <osmand:color>#10c0f0</osmand:color>
      <osmand:background>square</osmand:background>
      <osmand:icon>public_bookcase</osmand:icon>
    </extensions>
  </wpt>
  <wpt lat="45.83402" lon="6.16591">
    <name>Saint-Jorioz z16685</name>
    <type>ZoneLivre Auvergne-Rhône-Alpes</type>
    <extensions>
      <osmand:color>#10c0f0</osmand:color>
      <osmand:background>square</osmand:background>
      <osmand:icon>public_bookcase</osmand:icon>
    </extensions>
  </wpt>
  <wpt lat="45.79595" lon="6.14908">
    <name>Saint-Eustache z16682</name>
    <type>ZoneLivre Auvergne-Rhône-Alpes</type>
    <extensions>
      <osmand:color>#10c0f0</osmand:color>
      <osmand:background>square</osmand:background>
      <osmand:icon>public_bookcase</osmand:icon>
    </extensions>
  </wpt>
  <wpt lat="45.85442" lon="6.09051">
    <name>Vieugy z16680</name>
    <type>ZoneLivre Auvergne-Rhône-Alpes</type>
    <extensions>
      <osmand:color>#10c0f0</osmand:color>
      <osmand:background>square</osmand:background>
      <osmand:icon>public_bookcase</osmand:icon>
    </extensions>
  </wpt>
  <wpt lat="45.95069" lon="6.64065">
    <name>Sallanches z16678</name>
    <type>ZoneLivre Auvergne-Rhône-Alpes</type>
    <extensions>
      <osmand:color>#10c0f0</osmand:color>
      <osmand:background>square</osmand:background>
      <osmand:icon>public_bookcase</osmand:icon>
    </extensions>
  </wpt>
  <wpt lat="45.93257" lon="6.64017">
    <name>Sallanches z16676</name>
    <type>ZoneLivre Auvergne-Rhône-Alpes</type>
    <extensions>
      <osmand:color>#10c0f0</osmand:color>
      <osmand:background>square</osmand:background>
      <osmand:icon>public_bookcase</osmand:icon>
    </extensions>
  </wpt>
  <wpt lat="45.94196" lon="6.64808">
    <name>Sallanches z16674</name>
    <type>ZoneLivre Auvergne-Rhône-Alpes</type>
    <extensions>
      <osmand:color>#10c0f0</osmand:color>
      <osmand:background>square</osmand:background>
      <osmand:icon>public_bookcase</osmand:icon>
    </extensions>
  </wpt>
  <wpt lat="45.93299" lon="6.63243">
    <name>Sallanches z16672</name>
    <type>ZoneLivre Auvergne-Rhône-Alpes</type>
    <extensions>
      <osmand:color>#10c0f0</osmand:color>
      <osmand:background>square</osmand:background>
      <osmand:icon>public_bookcase</osmand:icon>
    </extensions>
  </wpt>
  <wpt lat="45.93676" lon="6.62609">
    <name>Sallanches z16670</name>
    <type>ZoneLivre Auvergne-Rhône-Alpes</type>
    <extensions>
      <osmand:color>#10c0f0</osmand:color>
      <osmand:background>square</osmand:background>
      <osmand:icon>public_bookcase</osmand:icon>
    </extensions>
  </wpt>
  <wpt lat="45.57624" lon="5.94038">
    <name>Bassens z16626</name>
    <type>ZoneLivre Auvergne-Rhône-Alpes</type>
    <extensions>
      <osmand:color>#10c0f0</osmand:color>
      <osmand:background>square</osmand:background>
      <osmand:icon>public_bookcase</osmand:icon>
    </extensions>
  </wpt>
  <wpt lat="45.75253" lon="3.09621">
    <name>Beaumont z16524</name>
    <type>ZoneLivre Auvergne-Rhône-Alpes</type>
    <extensions>
      <osmand:color>#10c0f0</osmand:color>
      <osmand:background>square</osmand:background>
      <osmand:icon>public_bookcase</osmand:icon>
    </extensions>
  </wpt>
  <wpt lat="44.59862" lon="4.34192">
    <name>Ailhon z16477</name>
    <type>ZoneLivre Auvergne-Rhône-Alpes</type>
    <extensions>
      <osmand:color>#10c0f0</osmand:color>
      <osmand:background>square</osmand:background>
      <osmand:icon>public_bookcase</osmand:icon>
    </extensions>
  </wpt>
  <wpt lat="44.93068" lon="2.43605">
    <name>Aurillac z16460</name>
    <type>ZoneLivre Auvergne-Rhône-Alpes</type>
    <extensions>
      <osmand:color>#10c0f0</osmand:color>
      <osmand:background>square</osmand:background>
      <osmand:icon>public_bookcase</osmand:icon>
    </extensions>
  </wpt>
  <wpt lat="44.92071" lon="2.42738">
    <name>Aurillac z16458</name>
    <type>ZoneLivre Auvergne-Rhône-Alpes</type>
    <extensions>
      <osmand:color>#10c0f0</osmand:color>
      <osmand:background>square</osmand:background>
      <osmand:icon>public_bookcase</osmand:icon>
    </extensions>
  </wpt>
  <wpt lat="44.71388" lon="5.0559">
    <name>Aouste-sur-Sye z16452</name>
    <type>ZoneLivre Auvergne-Rhône-Alpes</type>
    <extensions>
      <osmand:color>#10c0f0</osmand:color>
      <osmand:background>square</osmand:background>
      <osmand:icon>public_bookcase</osmand:icon>
    </extensions>
  </wpt>
  <wpt lat="45.89643" lon="6.64374">
    <name>Combloux z16445</name>
    <type>ZoneLivre Auvergne-Rhône-Alpes</type>
    <extensions>
      <osmand:color>#10c0f0</osmand:color>
      <osmand:background>square</osmand:background>
      <osmand:icon>public_bookcase</osmand:icon>
    </extensions>
  </wpt>
  <wpt lat="45.8212" lon="6.72803">
    <name>Les Contamines-Montjoie z16437</name>
    <type>ZoneLivre Auvergne-Rhône-Alpes</type>
    <extensions>
      <osmand:color>#10c0f0</osmand:color>
      <osmand:background>square</osmand:background>
      <osmand:icon>public_bookcase</osmand:icon>
    </extensions>
  </wpt>
  <wpt lat="45.82253" lon="6.72679">
    <name>Les Contamines-Montjoie z16435</name>
    <type>ZoneLivre Auvergne-Rhône-Alpes</type>
    <extensions>
      <osmand:color>#10c0f0</osmand:color>
      <osmand:background>square</osmand:background>
      <osmand:icon>public_bookcase</osmand:icon>
    </extensions>
  </wpt>
  <wpt lat="45.5897" lon="5.28147">
    <name>Bourgoin-Jallieu z16280</name>
    <type>ZoneLivre Auvergne-Rhône-Alpes</type>
    <extensions>
      <osmand:color>#10c0f0</osmand:color>
      <osmand:background>square</osmand:background>
      <osmand:icon>public_bookcase</osmand:icon>
    </extensions>
  </wpt>
  <wpt lat="45.87884" lon="6.52481">
    <name>La Giettaz z16189</name>
    <type>ZoneLivre Auvergne-Rhône-Alpes</type>
    <extensions>
      <osmand:color>#10c0f0</osmand:color>
      <osmand:background>square</osmand:background>
      <osmand:icon>public_bookcase</osmand:icon>
    </extensions>
  </wpt>
  <wpt lat="45.75905" lon="5.68192">
    <name>Belley z16143</name>
    <type>ZoneLivre Auvergne-Rhône-Alpes</type>
    <extensions>
      <osmand:color>#10c0f0</osmand:color>
      <osmand:background>square</osmand:background>
      <osmand:icon>public_bookcase</osmand:icon>
    </extensions>
  </wpt>
  <wpt lat="45.57096" lon="5.97791">
    <name>Barby z16082</name>
    <type>ZoneLivre Auvergne-Rhône-Alpes</type>
    <extensions>
      <osmand:color>#10c0f0</osmand:color>
      <osmand:background>square</osmand:background>
      <osmand:icon>public_bookcase</osmand:icon>
    </extensions>
  </wpt>
  <wpt lat="44.8174" lon="4.80632">
    <name>Beauchastel z16080</name>
    <type>ZoneLivre Auvergne-Rhône-Alpes</type>
    <extensions>
      <osmand:color>#10c0f0</osmand:color>
      <osmand:background>square</osmand:background>
      <osmand:icon>public_bookcase</osmand:icon>
    </extensions>
  </wpt>
  <wpt lat="44.83287" lon="4.80849">
    <name>Beauchastel z16078</name>
    <type>ZoneLivre Auvergne-Rhône-Alpes</type>
    <extensions>
      <osmand:color>#10c0f0</osmand:color>
      <osmand:background>square</osmand:background>
      <osmand:icon>public_bookcase</osmand:icon>
    </extensions>
  </wpt>
  <wpt lat="44.82518" lon="4.8008">
    <name>Beauchastel z16076</name>
    <type>ZoneLivre Auvergne-Rhône-Alpes</type>
    <extensions>
      <osmand:color>#10c0f0</osmand:color>
      <osmand:background>square</osmand:background>
      <osmand:icon>public_bookcase</osmand:icon>
    </extensions>
  </wpt>
  <wpt lat="44.82659" lon="4.79657">
    <name>Beauchastel z16074</name>
    <type>ZoneLivre Auvergne-Rhône-Alpes</type>
    <extensions>
      <osmand:color>#10c0f0</osmand:color>
      <osmand:background>square</osmand:background>
      <osmand:icon>public_bookcase</osmand:icon>
    </extensions>
  </wpt>
  <wpt lat="44.82561" lon="4.80277">
    <name>Beauchastel z16072</name>
    <type>ZoneLivre Auvergne-Rhône-Alpes</type>
    <extensions>
      <osmand:color>#10c0f0</osmand:color>
      <osmand:background>square</osmand:background>
      <osmand:icon>public_bookcase</osmand:icon>
    </extensions>
  </wpt>
  <wpt lat="45.67394" lon="4.7548">
    <name>Brignais z16070</name>
    <type>ZoneLivre Auvergne-Rhône-Alpes</type>
    <extensions>
      <osmand:color>#10c0f0</osmand:color>
      <osmand:background>square</osmand:background>
      <osmand:icon>public_bookcase</osmand:icon>
    </extensions>
  </wpt>
  <wpt lat="45.67027" lon="4.76022">
    <name>Brignais z16037</name>
    <type>ZoneLivre Auvergne-Rhône-Alpes</type>
    <extensions>
      <osmand:color>#10c0f0</osmand:color>
      <osmand:background>square</osmand:background>
      <osmand:icon>public_bookcase</osmand:icon>
    </extensions>
  </wpt>
  <wpt lat="45.67928" lon="4.76094">
    <name>Brignais z16035</name>
    <type>ZoneLivre Auvergne-Rhône-Alpes</type>
    <extensions>
      <osmand:color>#10c0f0</osmand:color>
      <osmand:background>square</osmand:background>
      <osmand:icon>public_bookcase</osmand:icon>
    </extensions>
  </wpt>
  <wpt lat="45.28222" lon="4.76215">
    <name>Bogy z16002</name>
    <type>ZoneLivre Auvergne-Rhône-Alpes</type>
    <extensions>
      <osmand:color>#10c0f0</osmand:color>
      <osmand:background>square</osmand:background>
      <osmand:icon>public_bookcase</osmand:icon>
    </extensions>
  </wpt>
  <wpt lat="45.56567" lon="4.37045">
    <name>Aveizieux z15969</name>
    <type>ZoneLivre Auvergne-Rhône-Alpes</type>
    <extensions>
      <osmand:color>#10c0f0</osmand:color>
      <osmand:background>square</osmand:background>
      <osmand:icon>public_bookcase</osmand:icon>
    </extensions>
  </wpt>
  <wpt lat="45.71218" lon="4.74573">
    <name>Chaponost z15703</name>
    <type>ZoneLivre Auvergne-Rhône-Alpes</type>
    <extensions>
      <osmand:color>#10c0f0</osmand:color>
      <osmand:background>square</osmand:background>
      <osmand:icon>public_bookcase</osmand:icon>
    </extensions>
  </wpt>
  <wpt lat="45.62799" lon="4.93434">
    <name>Chaponnay z15701</name>
    <type>ZoneLivre Auvergne-Rhône-Alpes</type>
    <extensions>
      <osmand:color>#10c0f0</osmand:color>
      <osmand:background>square</osmand:background>
      <osmand:icon>public_bookcase</osmand:icon>
    </extensions>
  </wpt>
  <wpt lat="45.55871" lon="5.28635">
    <name>Meyrié z15699</name>
    <type>ZoneLivre Auvergne-Rhône-Alpes</type>
    <extensions>
      <osmand:color>#10c0f0</osmand:color>
      <osmand:background>square</osmand:background>
      <osmand:icon>public_bookcase</osmand:icon>
    </extensions>
  </wpt>
  <wpt lat="45.86821" lon="4.66964">
    <name>Belmont-d'Azergues z15633</name>
    <type>ZoneLivre Auvergne-Rhône-Alpes</type>
    <extensions>
      <osmand:color>#10c0f0</osmand:color>
      <osmand:background>square</osmand:background>
      <osmand:icon>public_bookcase</osmand:icon>
    </extensions>
  </wpt>
  <wpt lat="45.55655" lon="5.67569">
    <name>Belmont-Tramonet z15627</name>
    <type>ZoneLivre Auvergne-Rhône-Alpes</type>
    <extensions>
      <osmand:color>#10c0f0</osmand:color>
      <osmand:background>square</osmand:background>
      <osmand:icon>public_bookcase</osmand:icon>
    </extensions>
  </wpt>
  <wpt lat="45.57877" lon="5.6609">
    <name>Belmont-Tramonet z15625</name>
    <type>ZoneLivre Auvergne-Rhône-Alpes</type>
    <extensions>
      <osmand:color>#10c0f0</osmand:color>
      <osmand:background>square</osmand:background>
      <osmand:icon>public_bookcase</osmand:icon>
    </extensions>
  </wpt>
  <wpt lat="45.81714" lon="4.18376">
    <name>Balbigny z15615</name>
    <type>ZoneLivre Auvergne-Rhône-Alpes</type>
    <extensions>
      <osmand:color>#10c0f0</osmand:color>
      <osmand:background>square</osmand:background>
      <osmand:icon>public_bookcase</osmand:icon>
    </extensions>
  </wpt>
  <wpt lat="44.50643" lon="4.37563">
    <name>Balazuc z15613</name>
    <type>ZoneLivre Auvergne-Rhône-Alpes</type>
    <extensions>
      <osmand:color>#10c0f0</osmand:color>
      <osmand:background>square</osmand:background>
      <osmand:icon>public_bookcase</osmand:icon>
    </extensions>
  </wpt>
  <wpt lat="45.29744" lon="2.38658">
    <name>Bassignac z15599</name>
    <type>ZoneLivre Auvergne-Rhône-Alpes</type>
    <extensions>
      <osmand:color>#10c0f0</osmand:color>
      <osmand:background>square</osmand:background>
      <osmand:icon>public_bookcase</osmand:icon>
    </extensions>
  </wpt>
  <wpt lat="45.95514" lon="5.36331">
    <name>Ambérieu-en-Bugey z15597</name>
    <type>ZoneLivre Auvergne-Rhône-Alpes</type>
    <extensions>
      <osmand:color>#10c0f0</osmand:color>
      <osmand:background>square</osmand:background>
      <osmand:icon>public_bookcase</osmand:icon>
    </extensions>
  </wpt>
  <wpt lat="45.51841" lon="5.07882">
    <name>Beauvoir-de-Marc z15574</name>
    <type>ZoneLivre Auvergne-Rhône-Alpes</type>
    <extensions>
      <osmand:color>#10c0f0</osmand:color>
      <osmand:background>square</osmand:background>
      <osmand:icon>public_bookcase</osmand:icon>
    </extensions>
  </wpt>
  <wpt lat="44.3525" lon="4.15681">
    <name>Banne z15527</name>
    <type>ZoneLivre Auvergne-Rhône-Alpes</type>
    <extensions>
      <osmand:color>#10c0f0</osmand:color>
      <osmand:background>square</osmand:background>
      <osmand:icon>public_bookcase</osmand:icon>
    </extensions>
  </wpt>
  <wpt lat="46.44153" lon="3.36304">
    <name>Bessay-sur-Allier z15522</name>
    <type>ZoneLivre Auvergne-Rhône-Alpes</type>
    <extensions>
      <osmand:color>#10c0f0</osmand:color>
      <osmand:background>square</osmand:background>
      <osmand:icon>public_bookcase</osmand:icon>
    </extensions>
  </wpt>
  <wpt lat="46.19931" lon="3.07879">
    <name>Bellenaves z15460</name>
    <type>ZoneLivre Auvergne-Rhône-Alpes</type>
    <extensions>
      <osmand:color>#10c0f0</osmand:color>
      <osmand:background>square</osmand:background>
      <osmand:icon>public_bookcase</osmand:icon>
    </extensions>
  </wpt>
  <wpt lat="45.00893" lon="3.77384">
    <name>Bains z15457</name>
    <type>ZoneLivre Auvergne-Rhône-Alpes</type>
    <extensions>
      <osmand:color>#10c0f0</osmand:color>
      <osmand:background>square</osmand:background>
      <osmand:icon>public_bookcase</osmand:icon>
    </extensions>
  </wpt>
  <wpt lat="46.60164" lon="3.67306">
    <name>Beaulon z15455</name>
    <type>ZoneLivre Auvergne-Rhône-Alpes</type>
    <extensions>
      <osmand:color>#10c0f0</osmand:color>
      <osmand:background>square</osmand:background>
      <osmand:icon>public_bookcase</osmand:icon>
    </extensions>
  </wpt>
  <wpt lat="45.4975" lon="2.63462">
    <name>Bagnols z15451</name>
    <type>ZoneLivre Auvergne-Rhône-Alpes</type>
    <extensions>
      <osmand:color>#10c0f0</osmand:color>
      <osmand:background>square</osmand:background>
      <osmand:icon>public_bookcase</osmand:icon>
    </extensions>
  </wpt>
  <wpt lat="45.50029" lon="2.63103">
    <name>Bagnols z15447</name>
    <type>ZoneLivre Auvergne-Rhône-Alpes</type>
    <extensions>
      <osmand:color>#10c0f0</osmand:color>
      <osmand:background>square</osmand:background>
      <osmand:icon>public_bookcase</osmand:icon>
    </extensions>
  </wpt>
  <wpt lat="46.27406" lon="5.67501">
    <name>Arbent z15225</name>
    <type>ZoneLivre Auvergne-Rhône-Alpes</type>
    <extensions>
      <osmand:color>#10c0f0</osmand:color>
      <osmand:background>square</osmand:background>
      <osmand:icon>public_bookcase</osmand:icon>
    </extensions>
  </wpt>
  <wpt lat="45.96458" lon="4.0098">
    <name>Saint-Jean-Saint-Maurice-sur-Loire z15066</name>
    <type>ZoneLivre Auvergne-Rhône-Alpes</type>
    <extensions>
      <osmand:color>#10c0f0</osmand:color>
      <osmand:background>square</osmand:background>
      <osmand:icon>public_bookcase</osmand:icon>
    </extensions>
  </wpt>
  <wpt lat="46.54893" lon="3.13615">
    <name>Autry-Issards z15041</name>
    <type>ZoneLivre Auvergne-Rhône-Alpes</type>
    <extensions>
      <osmand:color>#10c0f0</osmand:color>
      <osmand:background>square</osmand:background>
      <osmand:icon>public_bookcase</osmand:icon>
    </extensions>
  </wpt>
  <wpt lat="45.9986" lon="4.90134">
    <name>Ambérieux-en-Dombes z14941</name>
    <type>ZoneLivre Auvergne-Rhône-Alpes</type>
    <extensions>
      <osmand:color>#10c0f0</osmand:color>
      <osmand:background>square</osmand:background>
      <osmand:icon>public_bookcase</osmand:icon>
    </extensions>
  </wpt>
  <wpt lat="45.77364" lon="4.03123">
    <name>Arthun z14926</name>
    <type>ZoneLivre Auvergne-Rhône-Alpes</type>
    <extensions>
      <osmand:color>#10c0f0</osmand:color>
      <osmand:background>square</osmand:background>
      <osmand:icon>public_bookcase</osmand:icon>
    </extensions>
  </wpt>
  <wpt lat="46.00362" lon="5.50837">
    <name>Aranc z14855</name>
    <type>ZoneLivre Auvergne-Rhône-Alpes</type>
    <extensions>
      <osmand:color>#10c0f0</osmand:color>
      <osmand:background>square</osmand:background>
      <osmand:icon>public_bookcase</osmand:icon>
    </extensions>
  </wpt>
  <wpt lat="46.18431" lon="6.20911">
    <name>Gaillard z14832</name>
    <type>ZoneLivre Auvergne-Rhône-Alpes</type>
    <extensions>
      <osmand:color>#10c0f0</osmand:color>
      <osmand:background>square</osmand:background>
      <osmand:icon>public_bookcase</osmand:icon>
    </extensions>
  </wpt>
  <wpt lat="46.1931" lon="6.22453">
    <name>Ambilly z14830</name>
    <type>ZoneLivre Auvergne-Rhône-Alpes</type>
    <extensions>
      <osmand:color>#10c0f0</osmand:color>
      <osmand:background>square</osmand:background>
      <osmand:icon>public_bookcase</osmand:icon>
    </extensions>
  </wpt>
  <wpt lat="46.19326" lon="6.22245">
    <name>Ambilly z14828</name>
    <type>ZoneLivre Auvergne-Rhône-Alpes</type>
    <extensions>
      <osmand:color>#10c0f0</osmand:color>
      <osmand:background>square</osmand:background>
      <osmand:icon>public_bookcase</osmand:icon>
    </extensions>
  </wpt>
  <wpt lat="46.2082" lon="6.25571">
    <name>Ville-la-Grand z14826</name>
    <type>ZoneLivre Auvergne-Rhône-Alpes</type>
    <extensions>
      <osmand:color>#10c0f0</osmand:color>
      <osmand:background>square</osmand:background>
      <osmand:icon>public_bookcase</osmand:icon>
    </extensions>
  </wpt>
  <wpt lat="46.20176" lon="6.23432">
    <name>Ville-la-Grand z14824</name>
    <type>ZoneLivre Auvergne-Rhône-Alpes</type>
    <extensions>
      <osmand:color>#10c0f0</osmand:color>
      <osmand:background>square</osmand:background>
      <osmand:icon>public_bookcase</osmand:icon>
    </extensions>
  </wpt>
  <wpt lat="46.17354" lon="6.25935">
    <name>Vétraz-Monthoux z14822</name>
    <type>ZoneLivre Auvergne-Rhône-Alpes</type>
    <extensions>
      <osmand:color>#10c0f0</osmand:color>
      <osmand:background>square</osmand:background>
      <osmand:icon>public_bookcase</osmand:icon>
    </extensions>
  </wpt>
  <wpt lat="46.23535" lon="6.32182">
    <name>Saint-Cergues z14820</name>
    <type>ZoneLivre Auvergne-Rhône-Alpes</type>
    <extensions>
      <osmand:color>#10c0f0</osmand:color>
      <osmand:background>square</osmand:background>
      <osmand:icon>public_bookcase</osmand:icon>
    </extensions>
  </wpt>
  <wpt lat="46.2411" lon="6.32879">
    <name>Saint-Cergues z14818</name>
    <type>ZoneLivre Auvergne-Rhône-Alpes</type>
    <extensions>
      <osmand:color>#10c0f0</osmand:color>
      <osmand:background>square</osmand:background>
      <osmand:icon>public_bookcase</osmand:icon>
    </extensions>
  </wpt>
  <wpt lat="46.23088" lon="6.31818">
    <name>Saint-Cergues z14816</name>
    <type>ZoneLivre Auvergne-Rhône-Alpes</type>
    <extensions>
      <osmand:color>#10c0f0</osmand:color>
      <osmand:background>square</osmand:background>
      <osmand:icon>public_bookcase</osmand:icon>
    </extensions>
  </wpt>
  <wpt lat="46.19021" lon="6.31869">
    <name>Lucinges z14814</name>
    <type>ZoneLivre Auvergne-Rhône-Alpes</type>
    <extensions>
      <osmand:color>#10c0f0</osmand:color>
      <osmand:background>square</osmand:background>
      <osmand:icon>public_bookcase</osmand:icon>
    </extensions>
  </wpt>
  <wpt lat="46.18576" lon="6.29078">
    <name>Cranves-Sales z14812</name>
    <type>ZoneLivre Auvergne-Rhône-Alpes</type>
    <extensions>
      <osmand:color>#10c0f0</osmand:color>
      <osmand:background>square</osmand:background>
      <osmand:icon>public_bookcase</osmand:icon>
    </extensions>
  </wpt>
  <wpt lat="46.15978" lon="6.30181">
    <name>Bonne z14810</name>
    <type>ZoneLivre Auvergne-Rhône-Alpes</type>
    <extensions>
      <osmand:color>#10c0f0</osmand:color>
      <osmand:background>square</osmand:background>
      <osmand:icon>public_bookcase</osmand:icon>
    </extensions>
  </wpt>
  <wpt lat="46.17093" lon="6.32531">
    <name>Bonne z14807</name>
    <type>ZoneLivre Auvergne-Rhône-Alpes</type>
    <extensions>
      <osmand:color>#10c0f0</osmand:color>
      <osmand:background>square</osmand:background>
      <osmand:icon>public_bookcase</osmand:icon>
    </extensions>
  </wpt>
  <wpt lat="46.19215" lon="6.23231">
    <name>Annemasse z14803</name>
    <type>ZoneLivre Auvergne-Rhône-Alpes</type>
    <extensions>
      <osmand:color>#10c0f0</osmand:color>
      <osmand:background>square</osmand:background>
      <osmand:icon>public_bookcase</osmand:icon>
    </extensions>
  </wpt>
  <wpt lat="46.19323" lon="6.23148">
    <name>Annemasse z14801</name>
    <type>ZoneLivre Auvergne-Rhône-Alpes</type>
    <extensions>
      <osmand:color>#10c0f0</osmand:color>
      <osmand:background>square</osmand:background>
      <osmand:icon>public_bookcase</osmand:icon>
    </extensions>
  </wpt>
  <wpt lat="46.28846" lon="5.15869">
    <name>Attignat z14777</name>
    <type>ZoneLivre Auvergne-Rhône-Alpes</type>
    <extensions>
      <osmand:color>#10c0f0</osmand:color>
      <osmand:background>square</osmand:background>
      <osmand:icon>public_bookcase</osmand:icon>
    </extensions>
  </wpt>