{
  "type": "FeatureCollection",
  "features": [
    {
      "type": "Feature",
      "geometry": {
        "type": "Point",
        "coordinates": [
          5.064432,
          47.380879
        ]
      },
      "properties": {
        "id": "25566",
        "name": "Bellefond"
      }
    },
    {
      "type": "Feature",
      "geometry": {
        "type": "Point",
        "coordinates": [
          4.51069,
          46.757072
        ]
      },
      "properties": {
        "id": "25434",
        "name": "Écuisses"
      }
    },
    {
      "type": "Feature",
      "geometry": {
        "type": "Point",
        "coordinates": [
          5.143619,
          47.400136
        ]
      },
      "properties": {
        "id": "25422",
        "name": "Saint-Julien"
      }
    },
    {
      "type": "Feature",
      "geometry": {
        "type": "Point",
        "coordinates": [
          5.123255,
          47.403698
        ]
      },
      "properties": {
        "id": "25420",
        "name": "Clénay"
      }
    },
    {
      "type": "Feature",
      "geometry": {
        "type": "Point",
        "coordinates": [
          5.276804,
          47.410755
        ]
      },
      "properties": {
        "id": "25279",
        "name": "Tanay"
      }
    },
    {
      "type": "Feature",
      "geometry": {
        "type": "Point",
        "coordinates": [
          5.445643,
          47.556247
        ]
      },
      "properties": {
        "id": "25277",
        "name": "Mornay"
      }
    },
    {
      "type": "Feature",
      "geometry": {
        "type": "Point",
        "coordinates": [
          4.859422,
          47.31164
        ]
      },
      "properties": {
        "id": "24668",
        "name": "Fleurey-sur-Ouche"
      }
    },
    {
      "type": "Feature",
      "geometry": {
        "type": "Point",
        "coordinates": [
          5.023668,
          47.367203
        ]
      },
      "properties": {
        "id": "24666",
        "name": "Ahuy"
      }
    },
    {
      "type": "Feature",
      "geometry": {
        "type": "Point",
        "coordinates": [
          5.132522,
          47.3046
        ]
      },
      "properties": {
        "id": "24661",
        "name": "Chevigny-Saint-Sauveur"
      }
    },
    {
      "type": "Feature",
      "geometry": {
        "type": "Point",
        "coordinates": [
          5.817823,
          46.970237
        ]
      },
      "properties": {
        "id": "24636",
        "name": "Pagnoz"
      }
    },
    {
      "type": "Feature",
      "geometry": {
        "type": "Point",
        "coordinates": [
          5.746697,
          46.970586
        ]
      },
      "properties": {
        "id": "24634",
        "name": "Villeneuve-d'Aval"
      }
    },
    {
      "type": "Feature",
      "geometry": {
        "type": "Point",
        "coordinates": [
          5.882956,
          47.235834
        ]
      },
      "properties": {
        "id": "24555",
        "name": "Chemaudin et Vaux"
      }
    },
    {
      "type": "Feature",
      "geometry": {
        "type": "Point",
        "coordinates": [
          5.89207,
          47.220661
        ]
      },
      "properties": {
        "id": "24553",
        "name": "Chemaudin et Vaux"
      }
    },
    {
      "type": "Feature",
      "geometry": {
        "type": "Point",
        "coordinates": [
          5.894718,
          47.226605
        ]
      },
      "properties": {
        "id": "24550",
        "name": "Chemaudin et Vaux"
      }
    },
    {
      "type": "Feature",
      "geometry": {
        "type": "Point",
        "coordinates": [
          6.383057,
          47.556303
        ]
      },
      "properties": {
        "id": "24430",
        "name": "Marast"
      }
    },
    {
      "type": "Feature",
      "geometry": {
        "type": "Point",
        "coordinates": [
          5.0566,
          47.340631
        ]
      },
      "properties": {
        "id": "24077",
        "name": "Dijon"
      }
    },
    {
      "type": "Feature",
      "geometry": {
        "type": "Point",
        "coordinates": [
          5.050471,
          47.317178
        ]
      },
      "properties": {
        "id": "24075",
        "name": "Dijon"
      }
    },
    {
      "type": "Feature",
      "geometry": {
        "type": "Point",
        "coordinates": [
          5.04943,
          47.317849
        ]
      },
      "properties": {
        "id": "24073",
        "name": "Dijon"
      }
    },
    {
      "type": "Feature",
      "geometry": {
        "type": "Point",
        "coordinates": [
          5.050549,
          47.318254
        ]
      },
      "properties": {
        "id": "24071",
        "name": "Dijon"
      }
    },
    {
      "type": "Feature",
      "geometry": {
        "type": "Point",
        "coordinates": [
          5.001448,
          47.293643
        ]
      },
      "properties": {
        "id": "24069",
        "name": "Chenôve"
      }
    },
    {
      "type": "Feature",
      "geometry": {
        "type": "Point",
        "coordinates": [
          5.007395,
          47.301628
        ]
      },
      "properties": {
        "id": "24067",
        "name": "Chenôve"
      }
    },
    {
      "type": "Feature",
      "geometry": {
        "type": "Point",
        "coordinates": [
          5.018542,
          47.306597
        ]
      },
      "properties": {
        "id": "24063",
        "name": "Dijon"
      }
    },
    {
      "type": "Feature",
      "geometry": {
        "type": "Point",
        "coordinates": [
          4.908493,
          47.318552
        ]
      },
      "properties": {
        "id": "24060",
        "name": "Velars-sur-Ouche"
      }
    },
    {
      "type": "Feature",
      "geometry": {
        "type": "Point",
        "coordinates": [
          5.000061,
          47.316896
        ]
      },
      "properties": {
        "id": "24058",
        "name": "Dijon"
      }
    },
    {
      "type": "Feature",
      "geometry": {
        "type": "Point",
        "coordinates": [
          5.037092,
          47.302603
        ]
      },
      "properties": {
        "id": "24055",
        "name": "Dijon"
      }
    },
    {
      "type": "Feature",
      "geometry": {
        "type": "Point",
        "coordinates": [
          5.065475,
          47.316154
        ]
      },
      "properties": {
        "id": "24053",
        "name": "Dijon"
      }
    },
    {
      "type": "Feature",
      "geometry": {
        "type": "Point",
        "coordinates": [
          5.023641,
          47.349587
        ]
      },
      "properties": {
        "id": "24051",
        "name": "Fontaine-lès-Dijon"
      }
    },
    {
      "type": "Feature",
      "geometry": {
        "type": "Point",
        "coordinates": [
          5.031964,
          47.347837
        ]
      },
      "properties": {
        "id": "24049",
        "name": "Fontaine-Lès-Dijon"
      }
    },
    {
      "type": "Feature",
      "geometry": {
        "type": "Point",
        "coordinates": [
          5.025102,
          47.351619
        ]
      },
      "properties": {
        "id": "24046",
        "name": "Fontaine-Lès-Dijon"
      }
    },
    {
      "type": "Feature",
      "geometry": {
        "type": "Point",
        "coordinates": [
          5.031521,
          47.314895
        ]
      },
      "properties": {
        "id": "24044",
        "name": "Dijon"
      }
    },
    {
      "type": "Feature",
      "geometry": {
        "type": "Point",
        "coordinates": [
          5.017568,
          47.345035
        ]
      },
      "properties": {
        "id": "24042",
        "name": "Fontaine-lès-Dijon"
      }
    },
    {
      "type": "Feature",
      "geometry": {
        "type": "Point",
        "coordinates": [
          5.022174,
          47.342412
        ]
      },
      "properties": {
        "id": "24040",
        "name": "Fontaine-lès-Dijon"
      }
    },
    {
      "type": "Feature",
      "geometry": {
        "type": "Point",
        "coordinates": [
          5.021691,
          47.340884
        ]
      },
      "properties": {
        "id": "24038",
        "name": "Fontaine-lès-Dijon"
      }
    },
    {
      "type": "Feature",
      "geometry": {
        "type": "Point",
        "coordinates": [
          5.022249,
          47.339163
        ]
      },
      "properties": {
        "id": "24036",
        "name": "Fontaine-lès-Dijon"
      }
    },
    {
      "type": "Feature",
      "geometry": {
        "type": "Point",
        "coordinates": [
          5.033112,
          47.333244
        ]
      },
      "properties": {
        "id": "24034",
        "name": "Dijon"
      }
    },
    {
      "type": "Feature",
      "geometry": {
        "type": "Point",
        "coordinates": [
          5.052118,
          47.296551
        ]
      },
      "properties": {
        "id": "24032",
        "name": "Longvic"
      }
    },
    {
      "type": "Feature",
      "geometry": {
        "type": "Point",
        "coordinates": [
          4.118295,
          46.450944
        ]
      },
      "properties": {
        "id": "23996",
        "name": "Paray-le-Monial"
      }
    },
    {
      "type": "Feature",
      "geometry": {
        "type": "Point",
        "coordinates": [
          4.23251,
          46.365234
        ]
      },
      "properties": {
        "id": "23771",
        "name": "Saint-Julien-de-Civry"
      }
    },
    {
      "type": "Feature",
      "geometry": {
        "type": "Point",
        "coordinates": [
          4.641852,
          47.364692
        ]
      },
      "properties": {
        "id": "23763",
        "name": "Avosnes"
      }
    },
    {
      "type": "Feature",
      "geometry": {
        "type": "Point",
        "coordinates": [
          4.741612,
          47.444361
        ]
      },
      "properties": {
        "id": "23338",
        "name": "Bligny-le-Sec"
      }
    },
    {
      "type": "Feature",
      "geometry": {
        "type": "Point",
        "coordinates": [
          5.007612,
          47.32428
        ]
      },
      "properties": {
        "id": "23228",
        "name": "Dijon"
      }
    },
    {
      "type": "Feature",
      "geometry": {
        "type": "Point",
        "coordinates": [
          5.018384,
          47.312926
        ]
      },
      "properties": {
        "id": "23225",
        "name": "Dijon"
      }
    },
    {
      "type": "Feature",
      "geometry": {
        "type": "Point",
        "coordinates": [
          5.024515,
          47.306786
        ]
      },
      "properties": {
        "id": "23223",
        "name": "Dijon"
      }
    },
    {
      "type": "Feature",
      "geometry": {
        "type": "Point",
        "coordinates": [
          4.787735,
          47.439828
        ]
      },
      "properties": {
        "id": "23195",
        "name": "Saint-Seine-l'Abbaye"
      }
    },
    {
      "type": "Feature",
      "geometry": {
        "type": "Point",
        "coordinates": [
          5.05749,
          47.314957
        ]
      },
      "properties": {
        "id": "23192",
        "name": "Dijon"
      }
    },
    {
      "type": "Feature",
      "geometry": {
        "type": "Point",
        "coordinates": [
          5.060038,
          47.312866
        ]
      },
      "properties": {
        "id": "23190",
        "name": "Dijon"
      }
    },
    {
      "type": "Feature",
      "geometry": {
        "type": "Point",
        "coordinates": [
          5.041209,
          47.301124
        ]
      },
      "properties": {
        "id": "23181",
        "name": "Dijon"
      }
    },
    {
      "type": "Feature",
      "geometry": {
        "type": "Point",
        "coordinates": [
          5.043081,
          47.307947
        ]
      },
      "properties": {
        "id": "23178",
        "name": "Dijon"
      }
    },
    {
      "type": "Feature",
      "geometry": {
        "type": "Point",
        "coordinates": [
          4.296271,
          46.193369
        ]
      },
      "properties": {
        "id": "23124",
        "name": "Saint-Igny-de-Roche"
      }
    },
    {
      "type": "Feature",
      "geometry": {
        "type": "Point",
        "coordinates": [
          5.08303,
          46.903527
        ]
      },
      "properties": {
        "id": "22702",
        "name": "Saunières"
      }
    },
    {
      "type": "Feature",
      "geometry": {
        "type": "Point",
        "coordinates": [
          6.377596,
          47.820638
        ]
      },
      "properties": {
        "id": "22700",
        "name": "Luxeuil-les-Bains"
      }
    },
    {
      "type": "Feature",
      "geometry": {
        "type": "Point",
        "coordinates": [
          4.407736,
          46.566969
        ]
      },
      "properties": {
        "id": "22683",
        "name": "Marizy"
      }
    },
    {
      "type": "Feature",
      "geometry": {
        "type": "Point",
        "coordinates": [
          4.094894,
          47.317859
        ]
      },
      "properties": {
        "id": "22680",
        "name": "Saint-Agnan"
      }
    },
    {
      "type": "Feature",
      "geometry": {
        "type": "Point",
        "coordinates": [
          5.703913,
          46.838385
        ]
      },
      "properties": {
        "id": "22513",
        "name": "Poligny"
      }
    },
    {
      "type": "Feature",
      "geometry": {
        "type": "Point",
        "coordinates": [
          5.704066,
          46.833501
        ]
      },
      "properties": {
        "id": "22510",
        "name": "Poligny"
      }
    },
    {
      "type": "Feature",
      "geometry": {
        "type": "Point",
        "coordinates": [
          5.109758,
          47.309467
        ]
      },
      "properties": {
        "id": "22431",
        "name": "Quetigny"
      }
    },
    {
      "type": "Feature",
      "geometry": {
        "type": "Point",
        "coordinates": [
          5.051927,
          47.336014
        ]
      },
      "properties": {
        "id": "22418",
        "name": "Dijon"
      }
    },
    {
      "type": "Feature",
      "geometry": {
        "type": "Point",
        "coordinates": [
          5.044338,
          47.339441
        ]
      },
      "properties": {
        "id": "22415",
        "name": "Dijon"
      }
    },
    {
      "type": "Feature",
      "geometry": {
        "type": "Point",
        "coordinates": [
          5.052796,
          47.355484
        ]
      },
      "properties": {
        "id": "22410",
        "name": "Dijon"
      }
    },
    {
      "type": "Feature",
      "geometry": {
        "type": "Point",
        "coordinates": [
          5.044001,
          47.326916
        ]
      },
      "properties": {
        "id": "22408",
        "name": "Dijon"
      }
    },
    {
      "type": "Feature",
      "geometry": {
        "type": "Point",
        "coordinates": [
          5.034442,
          47.315266
        ]
      },
      "properties": {
        "id": "22398",
        "name": "Dijon"
      }
    },
    {
      "type": "Feature",
      "geometry": {
        "type": "Point",
        "coordinates": [
          4.660671,
          47.456945
        ]
      },
      "properties": {
        "id": "22389",
        "name": "Salmaise"
      }
    },
    {
      "type": "Feature",
      "geometry": {
        "type": "Point",
        "coordinates": [
          4.666818,
          47.438413
        ]
      },
      "properties": {
        "id": "22387",
        "name": "Verrey-sous-Salmaise"
      }
    },
    {
      "type": "Feature",
      "geometry": {
        "type": "Point",
        "coordinates": [
          4.298683,
          46.949576
        ]
      },
      "properties": {
        "id": "22385",
        "name": "Autun"
      }
    },
    {
      "type": "Feature",
      "geometry": {
        "type": "Point",
        "coordinates": [
          5.736344,
          46.533674
        ]
      },
      "properties": {
        "id": "22183",
        "name": "Thoiria"
      }
    },
    {
      "type": "Feature",
      "geometry": {
        "type": "Point",
        "coordinates": [
          5.059454,
          47.329068
        ]
      },
      "properties": {
        "id": "22179",
        "name": "Dijon"
      }
    },
    {
      "type": "Feature",
      "geometry": {
        "type": "Point",
        "coordinates": [
          5.052418,
          47.330232
        ]
      },
      "properties": {
        "id": "22176",
        "name": "Dijon"
      }
    },
    {
      "type": "Feature",
      "geometry": {
        "type": "Point",
        "coordinates": [
          5.061036,
          47.334666
        ]
      },
      "properties": {
        "id": "22174",
        "name": "Dijon"
      }
    },
    {
      "type": "Feature",
      "geometry": {
        "type": "Point",
        "coordinates": [
          5.065639,
          47.331268
        ]
      },
      "properties": {
        "id": "22167",
        "name": "Dijon"
      }
    },
    {
      "type": "Feature",
      "geometry": {
        "type": "Point",
        "coordinates": [
          5.071467,
          47.32356
        ]
      },
      "properties": {
        "id": "22165",
        "name": "Dijon"
      }
    },
    {
      "type": "Feature",
      "geometry": {
        "type": "Point",
        "coordinates": [
          5.049832,
          47.32706
        ]
      },
      "properties": {
        "id": "22160",
        "name": "Dijon"
      }
    },
    {
      "type": "Feature",
      "geometry": {
        "type": "Point",
        "coordinates": [
          5.038787,
          47.325536
        ]
      },
      "properties": {
        "id": "22159",
        "name": "Dijon"
      }
    },
    {
      "type": "Feature",
      "geometry": {
        "type": "Point",
        "coordinates": [
          5.180298,
          46.626488
        ]
      },
      "properties": {
        "id": "22104",
        "name": "Sornay"
      }
    },
    {
      "type": "Feature",
      "geometry": {
        "type": "Point",
        "coordinates": [
          3.909092,
          47.491718
        ]
      },
      "properties": {
        "id": "21475",
        "name": "Avallon"
      }
    },
    {
      "type": "Feature",
      "geometry": {
        "type": "Point",
        "coordinates": [
          6.25822,
          46.95203
        ]
      },
      "properties": {
        "id": "21132",
        "name": "Sombacour"
      }
    },
    {
      "type": "Feature",
      "geometry": {
        "type": "Point",
        "coordinates": [
          6.27625,
          46.97047
        ]
      },
      "properties": {
        "id": "21130",
        "name": "Goux-les-Usiers"
      }
    },
    {
      "type": "Feature",
      "geometry": {
        "type": "Point",
        "coordinates": [
          3.43396,
          47.49771
        ]
      },
      "properties": {
        "id": "21128",
        "name": "Billy-sur-Oisy"
      }
    },
    {
      "type": "Feature",
      "geometry": {
        "type": "Point",
        "coordinates": [
          6.28226,
          46.77429
        ]
      },
      "properties": {
        "id": "21066",
        "name": "Labergement-Sainte-Marie"
      }
    },
    {
      "type": "Feature",
      "geometry": {
        "type": "Point",
        "coordinates": [
          5.64446,
          46.71386
        ]
      },
      "properties": {
        "id": "21064",
        "name": "Hauteroche"
      }
    },
    {
      "type": "Feature",
      "geometry": {
        "type": "Point",
        "coordinates": [
          6.0304,
          46.63718
        ]
      },
      "properties": {
        "id": "21058",
        "name": "Foncine-le-Bas"
      }
    },
    {
      "type": "Feature",
      "geometry": {
        "type": "Point",
        "coordinates": [
          4.70733,
          46.33793
        ]
      },
      "properties": {
        "id": "20933",
        "name": "Bussières"
      }
    },
    {
      "type": "Feature",
      "geometry": {
        "type": "Point",
        "coordinates": [
          4.6698,
          47.10548
        ]
      },
      "properties": {
        "id": "20923",
        "name": "Bligny-sur-Ouche"
      }
    },
    {
      "type": "Feature",
      "geometry": {
        "type": "Point",
        "coordinates": [
          4.70964,
          47.30881
        ]
      },
      "properties": {
        "id": "20921",
        "name": "Sombernon"
      }
    },
    {
      "type": "Feature",
      "geometry": {
        "type": "Point",
        "coordinates": [
          5.2056,
          47.41102
        ]
      },
      "properties": {
        "id": "20917",
        "name": "Beire-le-Châtel"
      }
    },
    {
      "type": "Feature",
      "geometry": {
        "type": "Point",
        "coordinates": [
          5.33399,
          47.38253
        ]
      },
      "properties": {
        "id": "20915",
        "name": "Bézouotte"
      }
    },
    {
      "type": "Feature",
      "geometry": {
        "type": "Point",
        "coordinates": [
          5.09999,
          47.39796
        ]
      },
      "properties": {
        "id": "20913",
        "name": "Bretigny"
      }
    },
    {
      "type": "Feature",
      "geometry": {
        "type": "Point",
        "coordinates": [
          5.24919,
          46.59735
        ]
      },
      "properties": {
        "id": "20910",
        "name": "Bruailles"
      }
    },
    {
      "type": "Feature",
      "geometry": {
        "type": "Point",
        "coordinates": [
          5.5043,
          47.47684
        ]
      },
      "properties": {
        "id": "20855",
        "name": "Bouhans-et-Feurg"
      }
    },
    {
      "type": "Feature",
      "geometry": {
        "type": "Point",
        "coordinates": [
          5.80947,
          47.36939
        ]
      },
      "properties": {
        "id": "20764",
        "name": "Autoreille"
      }
    },
    {
      "type": "Feature",
      "geometry": {
        "type": "Point",
        "coordinates": [
          4.60273,
          46.67165
        ]
      },
      "properties": {
        "id": "20642",
        "name": "Domblans"
      }
    },
    {
      "type": "Feature",
      "geometry": {
        "type": "Point",
        "coordinates": [
          5.59716,
          46.76338
        ]
      },
      "properties": {
        "id": "20640",
        "name": "Domblans"
      }
    },
    {
      "type": "Feature",
      "geometry": {
        "type": "Point",
        "coordinates": [
          6.56249,
          47.84144
        ]
      },
      "properties": {
        "id": "20638",
        "name": "Faucogney-et-la-Mer"
      }
    },
    {
      "type": "Feature",
      "geometry": {
        "type": "Point",
        "coordinates": [
          6.76834,
          47.49177
        ]
      },
      "properties": {
        "id": "20463",
        "name": "Bart"
      }
    },
    {
      "type": "Feature",
      "geometry": {
        "type": "Point",
        "coordinates": [
          6.785423,
          47.614318
        ]
      },
      "properties": {
        "id": "20461",
        "name": "Buc (90)"
      }
    },
    {
      "type": "Feature",
      "geometry": {
        "type": "Point",
        "coordinates": [
          3.51208,
          47.10491
        ]
      },
      "properties": {
        "id": "20437",
        "name": "Saint-Saulge"
      }
    },
    {
      "type": "Feature",
      "geometry": {
        "type": "Point",
        "coordinates": [
          3.55334,
          47.79681
        ]
      },
      "properties": {
        "id": "20435",
        "name": "Auxerre"
      }
    },
    {
      "type": "Feature",
      "geometry": {
        "type": "Point",
        "coordinates": [
          5.13494,
          47.29898
        ]
      },
      "properties": {
        "id": "20423",
        "name": "Chevigny-Saint-Sauveur"
      }
    },
    {
      "type": "Feature",
      "geometry": {
        "type": "Point",
        "coordinates": [
          5.54962,
          47.20701
        ]
      },
      "properties": {
        "id": "20421",
        "name": "Offlanges"
      }
    },
    {
      "type": "Feature",
      "geometry": {
        "type": "Point",
        "coordinates": [
          5.43118,
          47.14532
        ]
      },
      "properties": {
        "id": "20419",
        "name": "Billey"
      }
    },
    {
      "type": "Feature",
      "geometry": {
        "type": "Point",
        "coordinates": [
          5.901469,
          47.063329
        ]
      },
      "properties": {
        "id": "20307",
        "name": "Le Val"
      }
    },
    {
      "type": "Feature",
      "geometry": {
        "type": "Point",
        "coordinates": [
          5.828537,
          47.125195
        ]
      },
      "properties": {
        "id": "20305",
        "name": "Villars Saint-Georges"
      }
    },
    {
      "type": "Feature",
      "geometry": {
        "type": "Point",
        "coordinates": [
          5.79819,
          46.97657
        ]
      },
      "properties": {
        "id": "20303",
        "name": "Mouchard"
      }
    },
    {
      "type": "Feature",
      "geometry": {
        "type": "Point",
        "coordinates": [
          6.72946,
          47.16299
        ]
      },
      "properties": {
        "id": "20296",
        "name": "Le Russey"
      }
    },
    {
      "type": "Feature",
      "geometry": {
        "type": "Point",
        "coordinates": [
          5.30464,
          47.10275
        ]
      },
      "properties": {
        "id": "20246",
        "name": "Saint-Symphorien-sur-Saône"
      }
    },
    {
      "type": "Feature",
      "geometry": {
        "type": "Point",
        "coordinates": [
          4.8823,
          46.81667
        ]
      },
      "properties": {
        "id": "20225",
        "name": "Crissey"
      }
    },
    {
      "type": "Feature",
      "geometry": {
        "type": "Point",
        "coordinates": [
          4.60085,
          46.82306
        ]
      },
      "properties": {
        "id": "20223",
        "name": "Saint-Bérain-sur-Dheune"
      }
    },
    {
      "type": "Feature",
      "geometry": {
        "type": "Point",
        "coordinates": [
          4.54393,
          46.77326
        ]
      },
      "properties": {
        "id": "20221",
        "name": "Saint-Julien-sur-Dheune"
      }
    },
    {
      "type": "Feature",
      "geometry": {
        "type": "Point",
        "coordinates": [
          4.30036,
          46.60668
        ]
      },
      "properties": {
        "id": "20219",
        "name": "Ciry-le-Noble"
      }
    },
    {
      "type": "Feature",
      "geometry": {
        "type": "Point",
        "coordinates": [
          2.95597,
          47.28398
        ]
      },
      "properties": {
        "id": "20215",
        "name": "Pouilly-sur-Loire"
      }
    },
    {
      "type": "Feature",
      "geometry": {
        "type": "Point",
        "coordinates": [
          5.77487,
          47.76247
        ]
      },
      "properties": {
        "id": "19887",
        "name": "Preigney"
      }
    },
    {
      "type": "Feature",
      "geometry": {
        "type": "Point",
        "coordinates": [
          3.51753,
          48.18103
        ]
      },
      "properties": {
        "id": "19783",
        "name": "Les Siéges"
      }
    },
    {
      "type": "Feature",
      "geometry": {
        "type": "Point",
        "coordinates": [
          6.07444,
          46.65998
        ]
      },
      "properties": {
        "id": "19482",
        "name": "Foncine-le-Haut"
      }
    },
    {
      "type": "Feature",
      "geometry": {
        "type": "Point",
        "coordinates": [
          5.8108,
          46.55704
        ]
      },
      "properties": {
        "id": "19480",
        "name": "La Frasnée"
      }
    },
    {
      "type": "Feature",
      "geometry": {
        "type": "Point",
        "coordinates": [
          5.80309,
          46.57383
        ]
      },
      "properties": {
        "id": "19478",
        "name": "Saint-Maurice-Crillat"
      }
    },
    {
      "type": "Feature",
      "geometry": {
        "type": "Point",
        "coordinates": [
          6.83113,
          47.61931
        ]
      },
      "properties": {
        "id": "19451",
        "name": "Bavilliers"
      }
    },
    {
      "type": "Feature",
      "geometry": {
        "type": "Point",
        "coordinates": [
          5.66071,
          46.52691
        ]
      },
      "properties": {
        "id": "19299",
        "name": "La Tour-du-Meix"
      }
    },
    {
      "type": "Feature",
      "geometry": {
        "type": "Point",
        "coordinates": [
          6.99718,
          47.65727
        ]
      },
      "properties": {
        "id": "19254",
        "name": "Fontaine"
      }
    },
    {
      "type": "Feature",
      "geometry": {
        "type": "Point",
        "coordinates": [
          4.69451,
          46.71278
        ]
      },
      "properties": {
        "id": "19188",
        "name": "Buxy"
      }
    },
    {
      "type": "Feature",
      "geometry": {
        "type": "Point",
        "coordinates": [
          4.90885,
          46.95841
        ]
      },
      "properties": {
        "id": "19185",
        "name": "Saint-Loup-Géanges"
      }
    },
    {
      "type": "Feature",
      "geometry": {
        "type": "Point",
        "coordinates": [
          6.99904,
          47.57519
        ]
      },
      "properties": {
        "id": "18306",
        "name": "Grosne"
      }
    },
    {
      "type": "Feature",
      "geometry": {
        "type": "Point",
        "coordinates": [
          6.92514,
          47.4862
        ]
      },
      "properties": {
        "id": "18304",
        "name": "Beaucourt"
      }
    },
    {
      "type": "Feature",
      "geometry": {
        "type": "Point",
        "coordinates": [
          6.954364,
          47.445905
        ]
      },
      "properties": {
        "id": "18302",
        "name": "Croix (90)"
      }
    },
    {
      "type": "Feature",
      "geometry": {
        "type": "Point",
        "coordinates": [
          6.96324,
          47.47097
        ]
      },
      "properties": {
        "id": "18300",
        "name": "Saint-Dizier-l'Évêque"
      }
    },
    {
      "type": "Feature",
      "geometry": {
        "type": "Point",
        "coordinates": [
          5.926196,
          47.238077
        ]
      },
      "properties": {
        "id": "18144",
        "name": "Serre-les-Sapins"
      }
    },
    {
      "type": "Feature",
      "geometry": {
        "type": "Point",
        "coordinates": [
          5.02364,
          47.32226
        ]
      },
      "properties": {
        "id": "18074",
        "name": "Dijon"
      }
    },
    {
      "type": "Feature",
      "geometry": {
        "type": "Point",
        "coordinates": [
          5.82425,
          47.00165
        ]
      },
      "properties": {
        "id": "17955",
        "name": "Port-Lesney"
      }
    },
    {
      "type": "Feature",
      "geometry": {
        "type": "Point",
        "coordinates": [
          6.12738,
          47.65203
        ]
      },
      "properties": {
        "id": "17804",
        "name": "Pusey"
      }
    },
    {
      "type": "Feature",
      "geometry": {
        "type": "Point",
        "coordinates": [
          6.919372,
          47.670665
        ]
      },
      "properties": {
        "id": "17770",
        "name": "Roppe"
      }
    },
    {
      "type": "Feature",
      "geometry": {
        "type": "Point",
        "coordinates": [
          5.82298,
          47.03656
        ]
      },
      "properties": {
        "id": "17394",
        "name": "Buffard"
      }
    },
    {
      "type": "Feature",
      "geometry": {
        "type": "Point",
        "coordinates": [
          6.25155,
          46.74429
        ]
      },
      "properties": {
        "id": "17370",
        "name": "Brey-et-Maison-du-Bois"
      }
    },
    {
      "type": "Feature",
      "geometry": {
        "type": "Point",
        "coordinates": [
          5.03318,
          46.91223
        ]
      },
      "properties": {
        "id": "17359",
        "name": "Bragny-sur-Saône"
      }
    },
    {
      "type": "Feature",
      "geometry": {
        "type": "Point",
        "coordinates": [
          4.62224,
          46.66052
        ]
      },
      "properties": {
        "id": "17352",
        "name": "Bissy-sur-Fley"
      }
    },
    {
      "type": "Feature",
      "geometry": {
        "type": "Point",
        "coordinates": [
          5.4497,
          46.58101
        ]
      },
      "properties": {
        "id": "17269",
        "name": "Beaufort-Orbagna"
      }
    },
    {
      "type": "Feature",
      "geometry": {
        "type": "Point",
        "coordinates": [
          6.99814,
          47.6731
        ]
      },
      "properties": {
        "id": "16925",
        "name": "Larivière"
      }
    },
    {
      "type": "Feature",
      "geometry": {
        "type": "Point",
        "coordinates": [
          6.40242,
          47.5381
        ]
      },
      "properties": {
        "id": "16649",
        "name": "Autrey-le-Vay"
      }
    },
    {
      "type": "Feature",
      "geometry": {
        "type": "Point",
        "coordinates": [
          5.43046,
          46.35965
        ]
      },
      "properties": {
        "id": "16604",
        "name": "Broissia"
      }
    },
    {
      "type": "Feature",
      "geometry": {
        "type": "Point",
        "coordinates": [
          5.4374,
          46.57578
        ]
      },
      "properties": {
        "id": "16522",
        "name": "Beaufort-Orbagna"
      }
    },
    {
      "type": "Feature",
      "geometry": {
        "type": "Point",
        "coordinates": [
          3.75154,
          46.62518
        ]
      },
      "properties": {
        "id": "16274",
        "name": "Bourbon-Lancy"
      }
    },
    {
      "type": "Feature",
      "geometry": {
        "type": "Point",
        "coordinates": [
          6.0658,
          46.55827
        ]
      },
      "properties": {
        "id": "16140",
        "name": "Bellefontaine"
      }
    },
    {
      "type": "Feature",
      "geometry": {
        "type": "Point",
        "coordinates": [
          3.76743,
          46.61873
        ]
      },
      "properties": {
        "id": "16117",
        "name": "Bourbon-Lancy"
      }
    },
    {
      "type": "Feature",
      "geometry": {
        "type": "Point",
        "coordinates": [
          3.74974,
          46.62681
        ]
      },
      "properties": {
        "id": "16115",
        "name": "Bourbon-Lancy"
      }
    },
    {
      "type": "Feature",
      "geometry": {
        "type": "Point",
        "coordinates": [
          3.75423,
          46.62
        ]
      },
      "properties": {
        "id": "16113",
        "name": "Bourbon-Lancy"
      }
    },
    {
      "type": "Feature",
      "geometry": {
        "type": "Point",
        "coordinates": [
          3.75806,
          46.62307
        ]
      },
      "properties": {
        "id": "16111",
        "name": "Bourbon-Lancy"
      }
    },
    {
      "type": "Feature",
      "geometry": {
        "type": "Point",
        "coordinates": [
          3.77569,
          46.62079
        ]
      },
      "properties": {
        "id": "16109",
        "name": "Bourbon-Lancy"
      }
    },
    {
      "type": "Feature",
      "geometry": {
        "type": "Point",
        "coordinates": [
          3.77344,
          46.61865
        ]
      },
      "properties": {
        "id": "16107",
        "name": "Bourbon-Lancy"
      }
    },
    {
      "type": "Feature",
      "geometry": {
        "type": "Point",
        "coordinates": [
          3.76656,
          46.62032
        ]
      },
      "properties": {
        "id": "16104",
        "name": "Bourbon-Lancy"
      }
    },
    {
      "type": "Feature",
      "geometry": {
        "type": "Point",
        "coordinates": [
          5.72377,
          46.81378
        ]
      },
      "properties": {
        "id": "15944",
        "name": "Barretaine"
      }
    },
    {
      "type": "Feature",
      "geometry": {
        "type": "Point",
        "coordinates": [
          5.71001,
          46.82057
        ]
      },
      "properties": {
        "id": "15940",
        "name": "Barretaine"
      }
    },
    {
      "type": "Feature",
      "geometry": {
        "type": "Point",
        "coordinates": [
          3.552884,
          47.844712
        ]
      },
      "properties": {
        "id": "15912",
        "name": "Monéteau"
      }
    },
    {
      "type": "Feature",
      "geometry": {
        "type": "Point",
        "coordinates": [
          5.72588,
          46.95023
        ]
      },
      "properties": {
        "id": "15762",
        "name": "Saint-Cyr-Montmalin"
      }
    },
    {
      "type": "Feature",
      "geometry": {
        "type": "Point",
        "coordinates": [
          4.13986,
          46.69327
        ]
      },
      "properties": {
        "id": "15684",
        "name": "Toulon-sur-Arroux"
      }
    },
    {
      "type": "Feature",
      "geometry": {
        "type": "Point",
        "coordinates": [
          3.51364,
          47.92423
        ]
      },
      "properties": {
        "id": "15649",
        "name": "Bassou"
      }
    },
    {
      "type": "Feature",
      "geometry": {
        "type": "Point",
        "coordinates": [
          5.44337,
          46.83447
        ]
      },
      "properties": {
        "id": "15635",
        "name": "Beauvernois"
      }
    },
    {
      "type": "Feature",
      "geometry": {
        "type": "Point",
        "coordinates": [
          6.74243,
          47.47354
        ]
      },
      "properties": {
        "id": "15570",
        "name": "Berche"
      }
    },
    {
      "type": "Feature",
      "geometry": {
        "type": "Point",
        "coordinates": [
          6.35652,
          47.34788
        ]
      },
      "properties": {
        "id": "15568",
        "name": "Baume-les-Dames"
      }
    },
    {
      "type": "Feature",
      "geometry": {
        "type": "Point",
        "coordinates": [
          6.36167,
          47.35251
        ]
      },
      "properties": {
        "id": "15565",
        "name": "Baume-les-Dames"
      }
    },
    {
      "type": "Feature",
      "geometry": {
        "type": "Point",
        "coordinates": [
          6.04373,
          47.245523
        ]
      },
      "properties": {
        "id": "15510",
        "name": "Besançon"
      }
    },
    {
      "type": "Feature",
      "geometry": {
        "type": "Point",
        "coordinates": [
          6.031347,
          47.242583
        ]
      },
      "properties": {
        "id": "15508",
        "name": "Besançon"
      }
    },
    {
      "type": "Feature",
      "geometry": {
        "type": "Point",
        "coordinates": [
          6.046281,
          47.242774
        ]
      },
      "properties": {
        "id": "15506",
        "name": "Besançon"
      }
    },
    {
      "type": "Feature",
      "geometry": {
        "type": "Point",
        "coordinates": [
          3.71839,
          47.81618
        ]
      },
      "properties": {
        "id": "15251",
        "name": "Beine"
      }
    },
    {
      "type": "Feature",
      "geometry": {
        "type": "Point",
        "coordinates": [
          6.933717,
          47.700298
        ]
      },
      "properties": {
        "id": "15236",
        "name": "Anjoutey"
      }
    },
    {
      "type": "Feature",
      "geometry": {
        "type": "Point",
        "coordinates": [
          6.041928,
          47.229303
        ]
      },
      "properties": {
        "id": "15208",
        "name": "Besançon"
      }
    },
    {
      "type": "Feature",
      "geometry": {
        "type": "Point",
        "coordinates": [
          6.031522,
          47.232107
        ]
      },
      "properties": {
        "id": "15206",
        "name": "Besançon"
      }
    },
    {
      "type": "Feature",
      "geometry": {
        "type": "Point",
        "coordinates": [
          6.030529,
          47.26306
        ]
      },
      "properties": {
        "id": "15204",
        "name": "Besançon"
      }
    },
    {
      "type": "Feature",
      "geometry": {
        "type": "Point",
        "coordinates": [
          6.019759,
          47.254902
        ]
      },
      "properties": {
        "id": "15202",
        "name": "Besançon"
      }
    },
    {
      "type": "Feature",
      "geometry": {
        "type": "Point",
        "coordinates": [
          6.013303,
          47.23096
        ]
      },
      "properties": {
        "id": "15200",
        "name": "Besançon"
      }
    },
    {
      "type": "Feature",
      "geometry": {
        "type": "Point",
        "coordinates": [
          6.00244,
          47.246661
        ]
      },
      "properties": {
        "id": "15197",
        "name": "Besançon"
      }
    },
    {
      "type": "Feature",
      "geometry": {
        "type": "Point",
        "coordinates": [
          5.990534,
          47.234271
        ]
      },
      "properties": {
        "id": "15195",
        "name": "Besançon"
      }
    },
    {
      "type": "Feature",
      "geometry": {
        "type": "Point",
        "coordinates": [
          5.69582,
          47.54223
        ]
      },
      "properties": {
        "id": "15099",
        "name": "Autet"
      }
    },
    {
      "type": "Feature",
      "geometry": {
        "type": "Point",
        "coordinates": [
          6.40635,
          47.61497
        ]
      },
      "properties": {
        "id": "15038",
        "name": "Arpenans"
      }
    },
    {
      "type": "Feature",
      "geometry": {
        "type": "Point",
        "coordinates": [
          4.22939,
          47.93289
        ]
      },
      "properties": {
        "id": "14928",
        "name": "Arthonnay"
      }
    },
    {
      "type": "Feature",
      "geometry": {
        "type": "Point",
        "coordinates": [
          3.581457,
          47.781742
        ]
      },
      "properties": {
        "id": "14914",
        "name": "Auxerre"
      }
    },
    {
      "type": "Feature",
      "geometry": {
        "type": "Point",
        "coordinates": [
          3.588983,
          47.795045
        ]
      },
      "properties": {
        "id": "14912",
        "name": "Auxerre"
      }
    },
    {
      "type": "Feature",
      "geometry": {
        "type": "Point",
        "coordinates": [
          3.584882,
          47.798092
        ]
      },
      "properties": {
        "id": "14910",
        "name": "Auxerre"
      }
    },
    {
      "type": "Feature",
      "geometry": {
        "type": "Point",
        "coordinates": [
          3.563079,
          47.786743
        ]
      },
      "properties": {
        "id": "14908",
        "name": "Auxerre"
      }
    },
    {
      "type": "Feature",
      "geometry": {
        "type": "Point",
        "coordinates": [
          3.559055,
          47.792721
        ]
      },
      "properties": {
        "id": "14906",
        "name": "Auxerre"
      }
    },
    {
      "type": "Feature",
      "geometry": {
        "type": "Point",
        "coordinates": [
          3.547675,
          47.793204
        ]
      },
      "properties": {
        "id": "14904",
        "name": "Auxerre"
      }
    },
    {
      "type": "Feature",
      "geometry": {
        "type": "Point",
        "coordinates": [
          3.568113,
          47.798179
        ]
      },
      "properties": {
        "id": "14902",
        "name": "Auxerre"
      }
    },
    {
      "type": "Feature",
      "geometry": {
        "type": "Point",
        "coordinates": [
          3.560632,
          47.801292
        ]
      },
      "properties": {
        "id": "14900",
        "name": "Auxerre"
      }
    },
    {
      "type": "Feature",
      "geometry": {
        "type": "Point",
        "coordinates": [
          3.549909,
          47.79987
        ]
      },
      "properties": {
        "id": "14898",
        "name": "Auxerre"
      }
    },
    {
      "type": "Feature",
      "geometry": {
        "type": "Point",
        "coordinates": [
          3.55379,
          47.808107
        ]
      },
      "properties": {
        "id": "14896",
        "name": "Auxerre"
      }
    },
    {
      "type": "Feature",
      "geometry": {
        "type": "Point",
        "coordinates": [
          3.576487,
          47.815815
        ]
      },
      "properties": {
        "id": "14894",
        "name": "Auxerre"
      }
    },
    {
      "type": "Feature",
      "geometry": {
        "type": "Point",
        "coordinates": [
          5.7827,
          47.03343
        ]
      },
      "properties": {
        "id": "14874",
        "name": "Arc-et-Senans"
      }
    },
    {
      "type": "Feature",
      "geometry": {
        "type": "Point",
        "coordinates": [
          4.84411,
          47.13917
        ]
      },
      "properties": {
        "id": "14872",
        "name": "Arcenant"
      }
    },
    {
      "type": "Feature",
      "geometry": {
        "type": "Point",
        "coordinates": [
          6.66071,
          47.52121
        ]
      },
      "properties": {
        "id": "14869",
        "name": "Arcey"
      }
    },
    {
      "type": "Feature",
      "geometry": {
        "type": "Point",
        "coordinates": [
          6.65618,
          47.52313
        ]
      },
      "properties": {
        "id": "14866",
        "name": "Arcey"
      }
    },
    {
      "type": "Feature",
      "geometry": {
        "type": "Point",
        "coordinates": [
          4.15906,
          47.76646
        ]
      },
      "properties": {
        "id": "14791",
        "name": "Ancy-le-Franc"
      }
    },
    {
      "type": "Feature",
      "geometry": {
        "type": "Point",
        "coordinates": [
          5.04708,
          47.38503
        ]
      },
      "properties": {
        "id": "14769",
        "name": "Asnières-lès-Dijon"
      }
    },
    {
      "type": "Feature",
      "geometry": {
        "type": "Point",
        "coordinates": [
          5.18987,
          47.34256
        ]
      },
      "properties": {
        "id": "14758",
        "name": "Arc-sur-Tille"
      }
    },
    {
      "type": "Feature",
      "geometry": {
        "type": "Point",
        "coordinates": [
          3.88626,
          47.53463
        ]
      },
      "properties": {
        "id": "14745",
        "name": "Annay-la-Côté"
      }
    },
    {
      "type": "Feature",
      "geometry": {
        "type": "Point",
        "coordinates": [
          6.00103,
          46.91217
        ]
      },
      "properties": {
        "id": "14593",
        "name": "Arc-sous-Montenot"
      }
    },
    {
      "type": "Feature",
      "geometry": {
        "type": "Point",
        "coordinates": [
          5.27709,
          46.95764
        ]
      },
      "properties": {
        "id": "14562",
        "name": "Annoire"
      }
    },
    {
      "type": "Feature",
      "geometry": {
        "type": "Point",
        "coordinates": [
          3.48796,
          47.51945
        ]
      },
      "properties": {
        "id": "14513",
        "name": "Andryes"
      }
    },
    {
      "type": "Feature",
      "geometry": {
        "type": "Point",
        "coordinates": [
          4.09914,
          47.07675
        ]
      },
      "properties": {
        "id": "14488",
        "name": "Anost"
      }
    },
    {
      "type": "Feature",
      "geometry": {
        "type": "Point",
        "coordinates": [
          4.68493,
          46.84681
        ]
      },
      "properties": {
        "id": "14486",
        "name": "Aluze"
      }
    },
    {
      "type": "Feature",
      "geometry": {
        "type": "Point",
        "coordinates": [
          6.49539,
          47.74984
        ]
      },
      "properties": {
        "id": "14466",
        "name": "Lantenot"
      }
    },
    {
      "type": "Feature",
      "geometry": {
        "type": "Point",
        "coordinates": [
          5.56489,
          47.16537
        ]
      },
      "properties": {
        "id": "14463",
        "name": "Amange"
      }
    },
    {
      "type": "Feature",
      "geometry": {
        "type": "Point",
        "coordinates": [
          6.89698,
          47.53388
        ]
      },
      "properties": {
        "id": "14449",
        "name": "Allenjoie"
      }
    },
    {
      "type": "Feature",
      "geometry": {
        "type": "Point",
        "coordinates": [
          4.91808,
          46.78804
        ]
      },
      "properties": {
        "id": "14435",
        "name": "Châtenoy-en-Bresse"
      }
    },
    {
      "type": "Feature",
      "geometry": {
        "type": "Point",
        "coordinates": [
          4.98144,
          46.90547
        ]
      },
      "properties": {
        "id": "14419",
        "name": "Allerey-sur-Saône"
      }
    },
    {
      "type": "Feature",
      "geometry": {
        "type": "Point",
        "coordinates": [
          6.25015,
          47.84592
        ]
      },
      "properties": {
        "id": "14391",
        "name": "Ainvelle"
      }
    },
    {
      "type": "Feature",
      "geometry": {
        "type": "Point",
        "coordinates": [
          4.97765,
          47.12845
        ]
      },
      "properties": {
        "id": "14389",
        "name": "Agencourt"
      }
    },
    {
      "type": "Feature",
      "geometry": {
        "type": "Point",
        "coordinates": [
          3.67992,
          47.12464
        ]
      },
      "properties": {
        "id": "14369",
        "name": "Achun"
      }
    },
    {
      "type": "Feature",
      "geometry": {
        "type": "Point",
        "coordinates": [
          4.76352,
          47.28296
        ]
      },
      "properties": {
        "id": "14366",
        "name": "Agey"
      }
    },
    {
      "type": "Feature",
      "geometry": {
        "type": "Point",
        "coordinates": [
          4.76761,
          47.28443
        ]
      },
      "properties": {
        "id": "14364",
        "name": "Agey"
      }
    },
    {
      "type": "Feature",
      "geometry": {
        "type": "Point",
        "coordinates": [
          6.3823,
          47.27526
        ]
      },
      "properties": {
        "id": "14355",
        "name": "Passavant"
      }
    },
    {
      "type": "Feature",
      "geometry": {
        "type": "Point",
        "coordinates": [
          6.35598,
          47.28926
        ]
      },
      "properties": {
        "id": "14353",
        "name": "Saint-Juan"
      }
    },
    {
      "type": "Feature",
      "geometry": {
        "type": "Point",
        "coordinates": [
          5.87419,
          47.13418
        ]
      },
      "properties": {
        "id": "14350",
        "name": "Abbans-Dessous"
      }
    },
    {
      "type": "Feature",
      "geometry": {
        "type": "Point",
        "coordinates": [
          5.66151,
          47.02343
        ]
      },
      "properties": {
        "id": "14202",
        "name": "Santans"
      }
    },
    {
      "type": "Feature",
      "geometry": {
        "type": "Point",
        "coordinates": [
          4.82403,
          46.7789
        ]
      },
      "properties": {
        "id": "13762",
        "name": "Chalon-sur-Saône"
      }
    },
    {
      "type": "Feature",
      "geometry": {
        "type": "Point",
        "coordinates": [
          4.83975,
          46.78511
        ]
      },
      "properties": {
        "id": "13760",
        "name": "Chalon-sur-Saône"
      }
    },
    {
      "type": "Feature",
      "geometry": {
        "type": "Point",
        "coordinates": [
          4.82373,
          46.3055
        ]
      },
      "properties": {
        "id": "13758",
        "name": "Mâcon"
      }
    },
    {
      "type": "Feature",
      "geometry": {
        "type": "Point",
        "coordinates": [
          4.83386,
          46.77354
        ]
      },
      "properties": {
        "id": "13756",
        "name": "Saint-Rémy (71)"
      }
    },
    {
      "type": "Feature",
      "geometry": {
        "type": "Point",
        "coordinates": [
          5.51653,
          47.26005
        ]
      },
      "properties": {
        "id": "13421",
        "name": "Champagney (39)"
      }
    },
    {
      "type": "Feature",
      "geometry": {
        "type": "Point",
        "coordinates": [
          6.98841,
          47.52278
        ]
      },
      "properties": {
        "id": "13330",
        "name": "Thiancourt"
      }
    },
    {
      "type": "Feature",
      "geometry": {
        "type": "Point",
        "coordinates": [
          6.891762,
          47.635556
        ]
      },
      "properties": {
        "id": "13319",
        "name": "Pérouse"
      }
    },
    {
      "type": "Feature",
      "geometry": {
        "type": "Point",
        "coordinates": [
          6.960574,
          47.5954
        ]
      },
      "properties": {
        "id": "13317",
        "name": "Autrechêne"
      }
    },
    {
      "type": "Feature",
      "geometry": {
        "type": "Point",
        "coordinates": [
          5.530272,
          46.653691
        ]
      },
      "properties": {
        "id": "13132",
        "name": "Courbouzon"
      }
    },
    {
      "type": "Feature",
      "geometry": {
        "type": "Point",
        "coordinates": [
          6.96063,
          47.70329
        ]
      },
      "properties": {
        "id": "13114",
        "name": "Saint-Germain-le-Châtelet"
      }
    },
    {
      "type": "Feature",
      "geometry": {
        "type": "Point",
        "coordinates": [
          6.97182,
          47.73604
        ]
      },
      "properties": {
        "id": "13102",
        "name": "Rougemont-le-Château"
      }
    },
    {
      "type": "Feature",
      "geometry": {
        "type": "Point",
        "coordinates": [
          5.49341,
          46.62469
        ]
      },
      "properties": {
        "id": "12399",
        "name": "Cesancey"
      }
    },
    {
      "type": "Feature",
      "geometry": {
        "type": "Point",
        "coordinates": [
          5.95589,
          46.5761
        ]
      },
      "properties": {
        "id": "12373",
        "name": "Saint-Laurent-en-Grandvaux"
      }
    },
    {
      "type": "Feature",
      "geometry": {
        "type": "Point",
        "coordinates": [
          3.6462,
          46.86847
        ]
      },
      "properties": {
        "id": "11841",
        "name": "Cercy-la-Tour"
      }
    },
    {
      "type": "Feature",
      "geometry": {
        "type": "Point",
        "coordinates": [
          3.51315,
          47.96196
        ]
      },
      "properties": {
        "id": "11762",
        "name": "Migennes"
      }
    },
    {
      "type": "Feature",
      "geometry": {
        "type": "Point",
        "coordinates": [
          3.6173,
          47.99189
        ]
      },
      "properties": {
        "id": "11760",
        "name": "Brienon-sur-Armançon"
      }
    },
    {
      "type": "Feature",
      "geometry": {
        "type": "Point",
        "coordinates": [
          6.852682,
          47.65827
        ]
      },
      "properties": {
        "id": "11647",
        "name": "Belfort"
      }
    },
    {
      "type": "Feature",
      "geometry": {
        "type": "Point",
        "coordinates": [
          2.92714,
          47.3964
        ]
      },
      "properties": {
        "id": "11241",
        "name": "Cosne-Cours-sur-Loire"
      }
    },
    {
      "type": "Feature",
      "geometry": {
        "type": "Point",
        "coordinates": [
          2.92324,
          47.41037
        ]
      },
      "properties": {
        "id": "11239",
        "name": "Cosne-Cours-sur-Loire"
      }
    },
    {
      "type": "Feature",
      "geometry": {
        "type": "Point",
        "coordinates": [
          4.96948,
          47.24486
        ]
      },
      "properties": {
        "id": "9932",
        "name": "Fixin"
      }
    },
    {
      "type": "Feature",
      "geometry": {
        "type": "Point",
        "coordinates": [
          3.85783,
          47.52779
        ]
      },
      "properties": {
        "id": "9336",
        "name": "Tharot"
      }
    },
    {
      "type": "Feature",
      "geometry": {
        "type": "Point",
        "coordinates": [
          4.447,
          46.80195
        ]
      },
      "properties": {
        "id": "9302",
        "name": "Le Creusot"
      }
    },
    {
      "type": "Feature",
      "geometry": {
        "type": "Point",
        "coordinates": [
          4.43857,
          46.79914
        ]
      },
      "properties": {
        "id": "9300",
        "name": "Le Creusot"
      }
    },
    {
      "type": "Feature",
      "geometry": {
        "type": "Point",
        "coordinates": [
          4.42625,
          46.79987
        ]
      },
      "properties": {
        "id": "9298",
        "name": "Le Creusot"
      }
    },
    {
      "type": "Feature",
      "geometry": {
        "type": "Point",
        "coordinates": [
          4.43144,
          46.80731
        ]
      },
      "properties": {
        "id": "9296",
        "name": "Le Creusot"
      }
    },
    {
      "type": "Feature",
      "geometry": {
        "type": "Point",
        "coordinates": [
          4.43324,
          46.78966
        ]
      },
      "properties": {
        "id": "9294",
        "name": "Le Creusot"
      }
    },
    {
      "type": "Feature",
      "geometry": {
        "type": "Point",
        "coordinates": [
          4.44789,
          46.79652
        ]
      },
      "properties": {
        "id": "9292",
        "name": "Le Creusot"
      }
    },
    {
      "type": "Feature",
      "geometry": {
        "type": "Point",
        "coordinates": [
          4.4174,
          46.79492
        ]
      },
      "properties": {
        "id": "9290",
        "name": "Le Creusot"
      }
    },
    {
      "type": "Feature",
      "geometry": {
        "type": "Point",
        "coordinates": [
          4.43252,
          46.81194
        ]
      },
      "properties": {
        "id": "9288",
        "name": "Le Creusot"
      }
    },
    {
      "type": "Feature",
      "geometry": {
        "type": "Point",
        "coordinates": [
          4.43662,
          46.80539
        ]
      },
      "properties": {
        "id": "9286",
        "name": "Le Creusot"
      }
    },
    {
      "type": "Feature",
      "geometry": {
        "type": "Point",
        "coordinates": [
          4.4269,
          46.80673
        ]
      },
      "properties": {
        "id": "9284",
        "name": "Le Creusot"
      }
    },
    {
      "type": "Feature",
      "geometry": {
        "type": "Point",
        "coordinates": [
          4.4288,
          46.8053
        ]
      },
      "properties": {
        "id": "9282",
        "name": "Le Creusot"
      }
    },
    {
      "type": "Feature",
      "geometry": {
        "type": "Point",
        "coordinates": [
          4.42312,
          46.80321
        ]
      },
      "properties": {
        "id": "9278",
        "name": "Le Creusot"
      }
    },
    {
      "type": "Feature",
      "geometry": {
        "type": "Point",
        "coordinates": [
          4.42097,
          46.80596
        ]
      },
      "properties": {
        "id": "9277",
        "name": "Le Creusot"
      }
    },
    {
      "type": "Feature",
      "geometry": {
        "type": "Point",
        "coordinates": [
          3.66038,
          47.62803
        ]
      },
      "properties": {
        "id": "9163",
        "name": "Trucy-sur-Yonne"
      }
    },
    {
      "type": "Feature",
      "geometry": {
        "type": "Point",
        "coordinates": [
          3.2887,
          47.73766
        ]
      },
      "properties": {
        "id": "9161",
        "name": "Toucy"
      }
    },
    {
      "type": "Feature",
      "geometry": {
        "type": "Point",
        "coordinates": [
          3.97325,
          47.85662
        ]
      },
      "properties": {
        "id": "9159",
        "name": "Tonnerre"
      }
    },
    {
      "type": "Feature",
      "geometry": {
        "type": "Point",
        "coordinates": [
          4.167936,
          47.569067
        ]
      },
      "properties": {
        "id": "9157",
        "name": "Vassy-sous-Pisy"
      }
    },
    {
      "type": "Feature",
      "geometry": {
        "type": "Point",
        "coordinates": [
          4.05321,
          47.56885
        ]
      },
      "properties": {
        "id": "9155",
        "name": "Thizy"
      }
    },
    {
      "type": "Feature",
      "geometry": {
        "type": "Point",
        "coordinates": [
          3.94552,
          47.89239
        ]
      },
      "properties": {
        "id": "9153",
        "name": "Vézinnes"
      }
    },
    {
      "type": "Feature",
      "geometry": {
        "type": "Point",
        "coordinates": [
          3.12994,
          47.73296
        ]
      },
      "properties": {
        "id": "9151",
        "name": "Tannerre-en-Puisaye"
      }
    },
    {
      "type": "Feature",
      "geometry": {
        "type": "Point",
        "coordinates": [
          3.20467,
          48.32012
        ]
      },
      "properties": {
        "id": "9149",
        "name": "Serbonnes"
      }
    },
    {
      "type": "Feature",
      "geometry": {
        "type": "Point",
        "coordinates": [
          3.73362,
          47.66418
        ]
      },
      "properties": {
        "id": "9127",
        "name": "Vermenton"
      }
    },
    {
      "type": "Feature",
      "geometry": {
        "type": "Point",
        "coordinates": [
          3.73728,
          47.66455
        ]
      },
      "properties": {
        "id": "9125",
        "name": "Vermenton"
      }
    },
    {
      "type": "Feature",
      "geometry": {
        "type": "Point",
        "coordinates": [
          3.637038,
          47.806769
        ]
      },
      "properties": {
        "id": "9123",
        "name": "Venoy"
      }
    },
    {
      "type": "Feature",
      "geometry": {
        "type": "Point",
        "coordinates": [
          3.35785,
          48.21567
        ]
      },
      "properties": {
        "id": "9121",
        "name": "Saligny"
      }
    },
    {
      "type": "Feature",
      "geometry": {
        "type": "Point",
        "coordinates": [
          3.26234,
          47.62077
        ]
      },
      "properties": {
        "id": "9119",
        "name": "Saints-en-Puisaye"
      }
    },
    {
      "type": "Feature",
      "geometry": {
        "type": "Point",
        "coordinates": [
          3.669519,
          47.648483
        ]
      },
      "properties": {
        "id": "9117",
        "name": "Sainte-Pallaye"
      }
    },
    {
      "type": "Feature",
      "geometry": {
        "type": "Point",
        "coordinates": [
          3.25754,
          48.21198
        ]
      },
      "properties": {
        "id": "9115",
        "name": "Saint-Martin-du-Tertre"
      }
    },
    {
      "type": "Feature",
      "geometry": {
        "type": "Point",
        "coordinates": [
          3.06934,
          47.64318
        ]
      },
      "properties": {
        "id": "9111",
        "name": "Saint-Fargeau"
      }
    },
    {
      "type": "Feature",
      "geometry": {
        "type": "Point",
        "coordinates": [
          3.30624,
          48.35164
        ]
      },
      "properties": {
        "id": "9109",
        "name": "Plessis-Saint-Jean"
      }
    },
    {
      "type": "Feature",
      "geometry": {
        "type": "Point",
        "coordinates": [
          3.14672,
          48.05471
        ]
      },
      "properties": {
        "id": "9107",
        "name": "Piffonds"
      }
    },
    {
      "type": "Feature",
      "geometry": {
        "type": "Point",
        "coordinates": [
          3.48399,
          47.96411
        ]
      },
      "properties": {
        "id": "9105",
        "name": "Laroche-Saint-Cydroine"
      }
    },
    {
      "type": "Feature",
      "geometry": {
        "type": "Point",
        "coordinates": [
          3.85425,
          47.72785
        ]
      },
      "properties": {
        "id": "9103",
        "name": "Lichères-près-Aigremont"
      }
    },
    {
      "type": "Feature",
      "geometry": {
        "type": "Point",
        "coordinates": [
          4.0907,
          47.80179
        ]
      },
      "properties": {
        "id": "9101",
        "name": "Lézinnes"
      }
    },
    {
      "type": "Feature",
      "geometry": {
        "type": "Point",
        "coordinates": [
          3.73908,
          48.08708
        ]
      },
      "properties": {
        "id": "9099",
        "name": "Turny"
      }
    },
    {
      "type": "Feature",
      "geometry": {
        "type": "Point",
        "coordinates": [
          3.311766,
          48.150487
        ]
      },
      "properties": {
        "id": "9086",
        "name": "Rosoy"
      }
    },
    {
      "type": "Feature",
      "geometry": {
        "type": "Point",
        "coordinates": [
          3.13139,
          47.91344
        ]
      },
      "properties": {
        "id": "9084",
        "name": "Prunoy"
      }
    },
    {
      "type": "Feature",
      "geometry": {
        "type": "Point",
        "coordinates": [
          3.87248,
          47.49207
        ]
      },
      "properties": {
        "id": "9082",
        "name": "Pontaubert"
      }
    },
    {
      "type": "Feature",
      "geometry": {
        "type": "Point",
        "coordinates": [
          3.88249,
          47.49752
        ]
      },
      "properties": {
        "id": "9080",
        "name": "Pontaubert"
      }
    },
    {
      "type": "Feature",
      "geometry": {
        "type": "Point",
        "coordinates": [
          3.86058,
          47.48964
        ]
      },
      "properties": {
        "id": "9078",
        "name": "Pontaubert"
      }
    },
    {
      "type": "Feature",
      "geometry": {
        "type": "Point",
        "coordinates": [
          3.85929,
          47.48771
        ]
      },
      "properties": {
        "id": "9076",
        "name": "Pontaubert"
      }
    },
    {
      "type": "Feature",
      "geometry": {
        "type": "Point",
        "coordinates": [
          3.19682,
          48.29517
        ]
      },
      "properties": {
        "id": "9074",
        "name": "Pont-sur-Yonne"
      }
    },
    {
      "type": "Feature",
      "geometry": {
        "type": "Point",
        "coordinates": [
          3.44393,
          48.18324
        ]
      },
      "properties": {
        "id": "9072",
        "name": "Pont-sur-Vanne"
      }
    },
    {
      "type": "Feature",
      "geometry": {
        "type": "Point",
        "coordinates": [
          3.444,
          48.28112
        ]
      },
      "properties": {
        "id": "9070",
        "name": "La Postolle"
      }
    },
    {
      "type": "Feature",
      "geometry": {
        "type": "Point",
        "coordinates": [
          4.00394,
          47.58672
        ]
      },
      "properties": {
        "id": "9068",
        "name": "L'Isle-sur-Serein"
      }
    },
    {
      "type": "Feature",
      "geometry": {
        "type": "Point",
        "coordinates": [
          4.2962,
          47.77578
        ]
      },
      "properties": {
        "id": "9066",
        "name": "Jully"
      }
    },
    {
      "type": "Feature",
      "geometry": {
        "type": "Point",
        "coordinates": [
          3.23402,
          48.30933
        ]
      },
      "properties": {
        "id": "9064",
        "name": "Michery"
      }
    },
    {
      "type": "Feature",
      "geometry": {
        "type": "Point",
        "coordinates": [
          3.34081,
          48.17411
        ]
      },
      "properties": {
        "id": "9062",
        "name": "Malay-le-Grand"
      }
    },
    {
      "type": "Feature",
      "geometry": {
        "type": "Point",
        "coordinates": [
          3.0968,
          48.23907
        ]
      },
      "properties": {
        "id": "9060",
        "name": "Lixy"
      }
    },
    {
      "type": "Feature",
      "geometry": {
        "type": "Point",
        "coordinates": [
          3.11909,
          47.60874
        ]
      },
      "properties": {
        "id": "9058",
        "name": "Saint-Fargeau"
      }
    },
    {
      "type": "Feature",
      "geometry": {
        "type": "Point",
        "coordinates": [
          3.71841,
          48.00126
        ]
      },
      "properties": {
        "id": "9056",
        "name": "Saint-Florentin"
      }
    },
    {
      "type": "Feature",
      "geometry": {
        "type": "Point",
        "coordinates": [
          4.29604,
          47.81609
        ]
      },
      "properties": {
        "id": "9052",
        "name": "Gigny"
      }
    },
    {
      "type": "Feature",
      "geometry": {
        "type": "Point",
        "coordinates": [
          3.64024,
          48.15388
        ]
      },
      "properties": {
        "id": "9050",
        "name": "Fournaudin"
      }
    },
    {
      "type": "Feature",
      "geometry": {
        "type": "Point",
        "coordinates": [
          3.87843,
          47.95076
        ]
      },
      "properties": {
        "id": "9048",
        "name": "Flogny-la-Chapelle"
      }
    },
    {
      "type": "Feature",
      "geometry": {
        "type": "Point",
        "coordinates": [
          3.48167,
          47.88504
        ]
      },
      "properties": {
        "id": "9046",
        "name": "Fleury-la-Vallée"
      }
    },
    {
      "type": "Feature",
      "geometry": {
        "type": "Point",
        "coordinates": [
          3.606077,
          47.719685
        ]
      },
      "properties": {
        "id": "9044",
        "name": "Escolives-Sainte-Camille"
      }
    },
    {
      "type": "Feature",
      "geometry": {
        "type": "Point",
        "coordinates": [
          3.470835,
          47.728866
        ]
      },
      "properties": {
        "id": "9042",
        "name": "Escamps"
      }
    },
    {
      "type": "Feature",
      "geometry": {
        "type": "Point",
        "coordinates": [
          3.98094,
          47.87431
        ]
      },
      "properties": {
        "id": "9040",
        "name": "Épineuil"
      }
    },
    {
      "type": "Feature",
      "geometry": {
        "type": "Point",
        "coordinates": [
          3.81176,
          47.38478
        ]
      },
      "properties": {
        "id": "9038",
        "name": "Domecy-sur-Cure"
      }
    },
    {
      "type": "Feature",
      "geometry": {
        "type": "Point",
        "coordinates": [
          3.81037,
          47.41609
        ]
      },
      "properties": {
        "id": "9036",
        "name": "Domecy-sur-Cure"
      }
    },
    {
      "type": "Feature",
      "geometry": {
        "type": "Point",
        "coordinates": [
          3.95856,
          47.89517
        ]
      },
      "properties": {
        "id": "9034",
        "name": "Dannemoine"
      }
    },
    {
      "type": "Feature",
      "geometry": {
        "type": "Point",
        "coordinates": [
          3.50573,
          47.9628
        ]
      },
      "properties": {
        "id": "9032",
        "name": "Migennes"
      }
    },
    {
      "type": "Feature",
      "geometry": {
        "type": "Point",
        "coordinates": [
          3.52923,
          47.96034
        ]
      },
      "properties": {
        "id": "9030",
        "name": "Migennes"
      }
    },
    {
      "type": "Feature",
      "geometry": {
        "type": "Point",
        "coordinates": [
          3.5049,
          47.96902
        ]
      },
      "properties": {
        "id": "9028",
        "name": "Migennes"
      }
    },
    {
      "type": "Feature",
      "geometry": {
        "type": "Point",
        "coordinates": [
          3.68073,
          47.86511
        ]
      },
      "properties": {
        "id": "9026",
        "name": "Montigny-la-Resle"
      }
    },
    {
      "type": "Feature",
      "geometry": {
        "type": "Point",
        "coordinates": [
          3.22494,
          48.22316
        ]
      },
      "properties": {
        "id": "9022",
        "name": "Nailly"
      }
    },
    {
      "type": "Feature",
      "geometry": {
        "type": "Point",
        "coordinates": [
          3.525989,
          47.794425
        ]
      },
      "properties": {
        "id": "9020",
        "name": "Saint-Georges-sur-Baulche"
      }
    },
    {
      "type": "Feature",
      "geometry": {
        "type": "Point",
        "coordinates": [
          3.608923,
          47.903052
        ]
      },
      "properties": {
        "id": "9018",
        "name": "Seignelay"
      }
    },
    {
      "type": "Feature",
      "geometry": {
        "type": "Point",
        "coordinates": [
          3.40231,
          48.19017
        ]
      },
      "properties": {
        "id": "9016",
        "name": "Villiers-Louis"
      }
    },
    {
      "type": "Feature",
      "geometry": {
        "type": "Point",
        "coordinates": [
          3.33522,
          47.88883
        ]
      },
      "properties": {
        "id": "9014",
        "name": "Montholon"
      }
    },
    {
      "type": "Feature",
      "geometry": {
        "type": "Point",
        "coordinates": [
          3.63172,
          47.70554
        ]
      },
      "properties": {
        "id": "9012",
        "name": "Vincelles"
      }
    },
    {
      "type": "Feature",
      "geometry": {
        "type": "Point",
        "coordinates": [
          4.04941,
          47.78658
        ]
      },
      "properties": {
        "id": "9010",
        "name": "Vireaux"
      }
    },
    {
      "type": "Feature",
      "geometry": {
        "type": "Point",
        "coordinates": [
          3.39394,
          48.25045
        ]
      },
      "properties": {
        "id": "9008",
        "name": "Voisines"
      }
    },
    {
      "type": "Feature",
      "geometry": {
        "type": "Point",
        "coordinates": [
          3.55497,
          47.52925
        ]
      },
      "properties": {
        "id": "8981",
        "name": "Crain"
      }
    },
    {
      "type": "Feature",
      "geometry": {
        "type": "Point",
        "coordinates": [
          3.75548,
          47.77481
        ]
      },
      "properties": {
        "id": "8979",
        "name": "Courgis"
      }
    },
    {
      "type": "Feature",
      "geometry": {
        "type": "Point",
        "coordinates": [
          4.06975,
          47.85646
        ]
      },
      "properties": {
        "id": "8977",
        "name": "Tanlay"
      }
    },
    {
      "type": "Feature",
      "geometry": {
        "type": "Point",
        "coordinates": [
          4.081,
          47.82707
        ]
      },
      "properties": {
        "id": "8975",
        "name": "Tanlay"
      }
    },
    {
      "type": "Feature",
      "geometry": {
        "type": "Point",
        "coordinates": [
          3.73699,
          47.7029
        ]
      },
      "properties": {
        "id": "8973",
        "name": "Deux Rivières"
      }
    },
    {
      "type": "Feature",
      "geometry": {
        "type": "Point",
        "coordinates": [
          2.99463,
          48.20087
        ]
      },
      "properties": {
        "id": "8971",
        "name": "Chéroy"
      }
    },
    {
      "type": "Feature",
      "geometry": {
        "type": "Point",
        "coordinates": [
          3.53195,
          47.95553
        ]
      },
      "properties": {
        "id": "8969",
        "name": "Cheny"
      }
    },
    {
      "type": "Feature",
      "geometry": {
        "type": "Point",
        "coordinates": [
          3.53658,
          47.95534
        ]
      },
      "properties": {
        "id": "8967",
        "name": "Cheny"
      }
    },
    {
      "type": "Feature",
      "geometry": {
        "type": "Point",
        "coordinates": [
          3.21735,
          48.08025
        ]
      },
      "properties": {
        "id": "8965",
        "name": "Chaumot"
      }
    },
    {
      "type": "Feature",
      "geometry": {
        "type": "Point",
        "coordinates": [
          3.1044,
          48.32316
        ]
      },
      "properties": {
        "id": "8962",
        "name": "Chaumont"
      }
    },
    {
      "type": "Feature",
      "geometry": {
        "type": "Point",
        "coordinates": [
          4.09621,
          47.63221
        ]
      },
      "properties": {
        "id": "8960",
        "name": "Châtel-Gérard"
      }
    },
    {
      "type": "Feature",
      "geometry": {
        "type": "Point",
        "coordinates": [
          3.632988,
          47.533654
        ]
      },
      "properties": {
        "id": "8958",
        "name": "Châtel-Censoir"
      }
    },
    {
      "type": "Feature",
      "geometry": {
        "type": "Point",
        "coordinates": [
          3.63181,
          47.5327
        ]
      },
      "properties": {
        "id": "8956",
        "name": "Châtel-Censoir"
      }
    },
    {
      "type": "Feature",
      "geometry": {
        "type": "Point",
        "coordinates": [
          3.095468,
          47.886629
        ]
      },
      "properties": {
        "id": "8954",
        "name": "Charny (89)"
      }
    },
    {
      "type": "Feature",
      "geometry": {
        "type": "Point",
        "coordinates": [
          3.466087,
          47.823158
        ]
      },
      "properties": {
        "id": "8952",
        "name": "Charbuy"
      }
    },
    {
      "type": "Feature",
      "geometry": {
        "type": "Point",
        "coordinates": [
          3.459575,
          47.830431
        ]
      },
      "properties": {
        "id": "8950",
        "name": "Charbuy"
      }
    },
    {
      "type": "Feature",
      "geometry": {
        "type": "Point",
        "coordinates": [
          3.599707,
          47.740413
        ]
      },
      "properties": {
        "id": "8948",
        "name": "Champs-sur-Yonne"
      }
    },
    {
      "type": "Feature",
      "geometry": {
        "type": "Point",
        "coordinates": [
          3.4057,
          47.95406
        ]
      },
      "properties": {
        "id": "8946",
        "name": "Champlay"
      }
    },
    {
      "type": "Feature",
      "geometry": {
        "type": "Point",
        "coordinates": [
          3.43488,
          47.95226
        ]
      },
      "properties": {
        "id": "8944",
        "name": "Champlay"
      }
    },
    {
      "type": "Feature",
      "geometry": {
        "type": "Point",
        "coordinates": [
          3.07817,
          47.77877
        ]
      },
      "properties": {
        "id": "8942",
        "name": "Champignelles"
      }
    },
    {
      "type": "Feature",
      "geometry": {
        "type": "Point",
        "coordinates": [
          3.48676,
          48.13185
        ]
      },
      "properties": {
        "id": "8940",
        "name": "Cerisiers"
      }
    },
    {
      "type": "Feature",
      "geometry": {
        "type": "Point",
        "coordinates": [
          3.45704,
          48.01014
        ]
      },
      "properties": {
        "id": "8938",
        "name": "Brion"
      }
    },
    {
      "type": "Feature",
      "geometry": {
        "type": "Point",
        "coordinates": [
          3.47939,
          47.99485
        ]
      },
      "properties": {
        "id": "8936",
        "name": "Brion"
      }
    },
    {
      "type": "Feature",
      "geometry": {
        "type": "Point",
        "coordinates": [
          3.61076,
          47.99039
        ]
      },
      "properties": {
        "id": "8934",
        "name": "Brienon-sur-Armançon"
      }
    },
    {
      "type": "Feature",
      "geometry": {
        "type": "Point",
        "coordinates": [
          3.11874,
          48.2309
        ]
      },
      "properties": {
        "id": "8932",
        "name": "Brannay"
      }
    },
    {
      "type": "Feature",
      "geometry": {
        "type": "Point",
        "coordinates": [
          2.94927,
          47.69331
        ]
      },
      "properties": {
        "id": "8930",
        "name": "Bléneau"
      }
    },
    {
      "type": "Feature",
      "geometry": {
        "type": "Point",
        "coordinates": [
          3.89243,
          47.89963
        ]
      },
      "properties": {
        "id": "8928",
        "name": "Bernouil"
      }
    },
    {
      "type": "Feature",
      "geometry": {
        "type": "Point",
        "coordinates": [
          3.92111,
          47.4877
        ]
      },
      "properties": {
        "id": "8926",
        "name": "Avallon"
      }
    },
    {
      "type": "Feature",
      "geometry": {
        "type": "Point",
        "coordinates": [
          3.90633,
          47.49835
        ]
      },
      "properties": {
        "id": "8924",
        "name": "Avallon"
      }
    },
    {
      "type": "Feature",
      "geometry": {
        "type": "Point",
        "coordinates": [
          3.32212,
          48.04476
        ]
      },
      "properties": {
        "id": "8921",
        "name": "Armeau"
      }
    },
    {
      "type": "Feature",
      "geometry": {
        "type": "Point",
        "coordinates": [
          3.75823,
          47.60302
        ]
      },
      "properties": {
        "id": "8920",
        "name": "Arcy-sur-Cure"
      }
    },
    {
      "type": "Feature",
      "geometry": {
        "type": "Point",
        "coordinates": [
          3.57807,
          48.08839
        ]
      },
      "properties": {
        "id": "8918",
        "name": "Arces-Dilo"
      }
    },
    {
      "type": "Feature",
      "geometry": {
        "type": "Point",
        "coordinates": [
          3.534615,
          47.883175
        ]
      },
      "properties": {
        "id": "8916",
        "name": "Appoigny"
      }
    },
    {
      "type": "Feature",
      "geometry": {
        "type": "Point",
        "coordinates": [
          3.526635,
          47.880569
        ]
      },
      "properties": {
        "id": "8914",
        "name": "Appoigny"
      }
    },
    {
      "type": "Feature",
      "geometry": {
        "type": "Point",
        "coordinates": [
          6.70676,
          47.56288
        ]
      },
      "properties": {
        "id": "8875",
        "name": "Trémoins"
      }
    },
    {
      "type": "Feature",
      "geometry": {
        "type": "Point",
        "coordinates": [
          6.66471,
          47.69134
        ]
      },
      "properties": {
        "id": "8863",
        "name": "Champagney"
      }
    },
    {
      "type": "Feature",
      "geometry": {
        "type": "Point",
        "coordinates": [
          5.027573,
          47.320527
        ]
      },
      "properties": {
        "id": "8765",
        "name": "Dijon"
      }
    },
    {
      "type": "Feature",
      "geometry": {
        "type": "Point",
        "coordinates": [
          4.83545,
          47.02516
        ]
      },
      "properties": {
        "id": "8760",
        "name": "Beaune"
      }
    },
    {
      "type": "Feature",
      "geometry": {
        "type": "Point",
        "coordinates": [
          5.74996,
          46.92707
        ]
      },
      "properties": {
        "id": "8758",
        "name": "Villette-lès-Arbois"
      }
    },
    {
      "type": "Feature",
      "geometry": {
        "type": "Point",
        "coordinates": [
          5.71965,
          46.95373
        ]
      },
      "properties": {
        "id": "8756",
        "name": "Saint-Cyr-Montmalin"
      }
    },
    {
      "type": "Feature",
      "geometry": {
        "type": "Point",
        "coordinates": [
          5.61655,
          47.25131
        ]
      },
      "properties": {
        "id": "8754",
        "name": "Thervay"
      }
    },
    {
      "type": "Feature",
      "geometry": {
        "type": "Point",
        "coordinates": [
          5.79374,
          46.5074
        ]
      },
      "properties": {
        "id": "8752",
        "name": "Étival"
      }
    },
    {
      "type": "Feature",
      "geometry": {
        "type": "Point",
        "coordinates": [
          3.32955,
          47.55896
        ]
      },
      "properties": {
        "id": "8701",
        "name": "Sougères-en-Puisaye"
      }
    },
    {
      "type": "Feature",
      "geometry": {
        "type": "Point",
        "coordinates": [
          3.3798,
          48.22093
        ]
      },
      "properties": {
        "id": "8693",
        "name": "Fontaine-la-Gaillarde"
      }
    },
    {
      "type": "Feature",
      "geometry": {
        "type": "Point",
        "coordinates": [
          3.27675,
          48.19865
        ]
      },
      "properties": {
        "id": "8691",
        "name": "Sens"
      }
    },
    {
      "type": "Feature",
      "geometry": {
        "type": "Point",
        "coordinates": [
          6.92386,
          47.606
        ]
      },
      "properties": {
        "id": "8661",
        "name": "Vézelois"
      }
    },
    {
      "type": "Feature",
      "geometry": {
        "type": "Point",
        "coordinates": [
          6.919584,
          47.607125
        ]
      },
      "properties": {
        "id": "8659",
        "name": "Vézelois"
      }
    },
    {
      "type": "Feature",
      "geometry": {
        "type": "Point",
        "coordinates": [
          6.91345,
          47.608807
        ]
      },
      "properties": {
        "id": "8657",
        "name": "Vézelois"
      }
    },
    {
      "type": "Feature",
      "geometry": {
        "type": "Point",
        "coordinates": [
          6.83469,
          47.673528
        ]
      },
      "properties": {
        "id": "8655",
        "name": "Valdoie"
      }
    },
    {
      "type": "Feature",
      "geometry": {
        "type": "Point",
        "coordinates": [
          6.863585,
          47.616991
        ]
      },
      "properties": {
        "id": "8646",
        "name": "Danjoutin"
      }
    },
    {
      "type": "Feature",
      "geometry": {
        "type": "Point",
        "coordinates": [
          6.856075,
          47.642799
        ]
      },
      "properties": {
        "id": "8641",
        "name": "Belfort"
      }
    },
    {
      "type": "Feature",
      "geometry": {
        "type": "Point",
        "coordinates": [
          6.86075,
          47.640864
        ]
      },
      "properties": {
        "id": "8637",
        "name": "Belfort"
      }
    },
    {
      "type": "Feature",
      "geometry": {
        "type": "Point",
        "coordinates": [
          5.90829,
          47.18378
        ]
      },
      "properties": {
        "id": "8621",
        "name": "Montferrand-le-Château"
      }
    },
    {
      "type": "Feature",
      "geometry": {
        "type": "Point",
        "coordinates": [
          6.027208,
          47.239195
        ]
      },
      "properties": {
        "id": "8619",
        "name": "Besançon"
      }
    },
    {
      "type": "Feature",
      "geometry": {
        "type": "Point",
        "coordinates": [
          3.12732,
          48.31952
        ]
      },
      "properties": {
        "id": "8608",
        "name": "Champigny"
      }
    },
    {
      "type": "Feature",
      "geometry": {
        "type": "Point",
        "coordinates": [
          4.31822,
          46.92118
        ]
      },
      "properties": {
        "id": "8146",
        "name": "Autun"
      }
    },
    {
      "type": "Feature",
      "geometry": {
        "type": "Point",
        "coordinates": [
          4.31838,
          46.95226
        ]
      },
      "properties": {
        "id": "8143",
        "name": "Autun"
      }
    },
    {
      "type": "Feature",
      "geometry": {
        "type": "Point",
        "coordinates": [
          6.842787,
          47.633938
        ]
      },
      "properties": {
        "id": "8064",
        "name": "Belfort"
      }
    },
    {
      "type": "Feature",
      "geometry": {
        "type": "Point",
        "coordinates": [
          5.507149,
          46.636806
        ]
      },
      "properties": {
        "id": "7702",
        "name": "Gevingey"
      }
    },
    {
      "type": "Feature",
      "geometry": {
        "type": "Point",
        "coordinates": [
          5.48634,
          47.07279
        ]
      },
      "properties": {
        "id": "7670",
        "name": "Dole"
      }
    },
    {
      "type": "Feature",
      "geometry": {
        "type": "Point",
        "coordinates": [
          5.49739,
          47.08383
        ]
      },
      "properties": {
        "id": "7668",
        "name": "Dole"
      }
    },
    {
      "type": "Feature",
      "geometry": {
        "type": "Point",
        "coordinates": [
          4.82279,
          46.55616
        ]
      },
      "properties": {
        "id": "7573",
        "name": "Royer"
      }
    },
    {
      "type": "Feature",
      "geometry": {
        "type": "Point",
        "coordinates": [
          4.85978,
          46.78327
        ]
      },
      "properties": {
        "id": "7571",
        "name": "Chalon-sur-Saône"
      }
    },
    {
      "type": "Feature",
      "geometry": {
        "type": "Point",
        "coordinates": [
          3.02244,
          47.17857
        ]
      },
      "properties": {
        "id": "5237",
        "name": "La Charité-sur-Loire"
      }
    },
    {
      "type": "Feature",
      "geometry": {
        "type": "Point",
        "coordinates": [
          3.01888,
          47.17706
        ]
      },
      "properties": {
        "id": "5235",
        "name": "La Charité-sur-Loire"
      }
    },
    {
      "type": "Feature",
      "geometry": {
        "type": "Point",
        "coordinates": [
          3.24057,
          46.972961
        ]
      },
      "properties": {
        "id": "5233",
        "name": "Sauvigny-les-Bois"
      }
    },
    {
      "type": "Feature",
      "geometry": {
        "type": "Point",
        "coordinates": [
          3.459679,
          47.193578
        ]
      },
      "properties": {
        "id": "5231",
        "name": "Moussy"
      }
    },
    {
      "type": "Feature",
      "geometry": {
        "type": "Point",
        "coordinates": [
          3.3927,
          47.04254
        ]
      },
      "properties": {
        "id": "5229",
        "name": "Saint-Firmin"
      }
    },
    {
      "type": "Feature",
      "geometry": {
        "type": "Point",
        "coordinates": [
          4.816893,
          46.320569
        ]
      },
      "properties": {
        "id": "4956",
        "name": "Mâcon"
      }
    },
    {
      "type": "Feature",
      "geometry": {
        "type": "Point",
        "coordinates": [
          5.461184,
          46.667534
        ]
      },
      "properties": {
        "id": "4954",
        "name": "Courlaoux"
      }
    },
    {
      "type": "Feature",
      "geometry": {
        "type": "Point",
        "coordinates": [
          5.1348,
          47.30192
        ]
      },
      "properties": {
        "id": "4730",
        "name": "Chevigny-Saint-Sauveur"
      }
    },
    {
      "type": "Feature",
      "geometry": {
        "type": "Point",
        "coordinates": [
          3.24357,
          48.2804
        ]
      },
      "properties": {
        "id": "4574",
        "name": "Gisy-les-Nobles"
      }
    },
    {
      "type": "Feature",
      "geometry": {
        "type": "Point",
        "coordinates": [
          4.84891,
          46.7832
        ]
      },
      "properties": {
        "id": "4572",
        "name": "Chalon-sur-Saône"
      }
    },
    {
      "type": "Feature",
      "geometry": {
        "type": "Point",
        "coordinates": [
          4.80419,
          46.59213
        ]
      },
      "properties": {
        "id": "4570",
        "name": "Etrigny"
      }
    },
    {
      "type": "Feature",
      "geometry": {
        "type": "Point",
        "coordinates": [
          6.14914,
          47.61172
        ]
      },
      "properties": {
        "id": "4531",
        "name": "Échenoz-la-Méline"
      }
    },
    {
      "type": "Feature",
      "geometry": {
        "type": "Point",
        "coordinates": [
          6.13574,
          47.6028
        ]
      },
      "properties": {
        "id": "4529",
        "name": "Échenoz-la-Méline"
      }
    },
    {
      "type": "Feature",
      "geometry": {
        "type": "Point",
        "coordinates": [
          6.850123,
          47.619025
        ]
      },
      "properties": {
        "id": "4527",
        "name": "Danjoutin"
      }
    },
    {
      "type": "Feature",
      "geometry": {
        "type": "Point",
        "coordinates": [
          6.791919,
          47.581192
        ]
      },
      "properties": {
        "id": "4525",
        "name": "Brevilliers"
      }
    },
    {
      "type": "Feature",
      "geometry": {
        "type": "Point",
        "coordinates": [
          6.84043,
          47.48214
        ]
      },
      "properties": {
        "id": "4523",
        "name": "Audincourt"
      }
    },
    {
      "type": "Feature",
      "geometry": {
        "type": "Point",
        "coordinates": [
          6.837839,
          47.638974
        ]
      },
      "properties": {
        "id": "4521",
        "name": "Belfort"
      }
    },
    {
      "type": "Feature",
      "geometry": {
        "type": "Point",
        "coordinates": [
          6.8276,
          47.74173
        ]
      },
      "properties": {
        "id": "4518",
        "name": "Giromagny"
      }
    },
    {
      "type": "Feature",
      "geometry": {
        "type": "Point",
        "coordinates": [
          3.40036,
          48.2931
        ]
      },
      "properties": {
        "id": "4418",
        "name": "Thorigny-sur-Oreuse"
      }
    },
    {
      "type": "Feature",
      "geometry": {
        "type": "Point",
        "coordinates": [
          3.30767,
          48.29018
        ]
      },
      "properties": {
        "id": "4416",
        "name": "La Chapelle-sur-Oreuse"
      }
    },
    {
      "type": "Feature",
      "geometry": {
        "type": "Point",
        "coordinates": [
          3.23784,
          48.24892
        ]
      },
      "properties": {
        "id": "4414",
        "name": "Villenavotte"
      }
    },
    {
      "type": "Feature",
      "geometry": {
        "type": "Point",
        "coordinates": [
          3.32527,
          48.24916
        ]
      },
      "properties": {
        "id": "4412",
        "name": "Soucy"
      }
    },
    {
      "type": "Feature",
      "geometry": {
        "type": "Point",
        "coordinates": [
          3.27761,
          48.18503
        ]
      },
      "properties": {
        "id": "3952",
        "name": "Sens"
      }
    },
    {
      "type": "Feature",
      "geometry": {
        "type": "Point",
        "coordinates": [
          3.29066,
          48.19503
        ]
      },
      "properties": {
        "id": "3950",
        "name": "Sens"
      }
    },
    {
      "type": "Feature",
      "geometry": {
        "type": "Point",
        "coordinates": [
          3.26795,
          48.19757
        ]
      },
      "properties": {
        "id": "3948",
        "name": "Sens"
      }
    },
    {
      "type": "Feature",
      "geometry": {
        "type": "Point",
        "coordinates": [
          3.30389,
          48.19625
        ]
      },
      "properties": {
        "id": "3946",
        "name": "Sens"
      }
    },
    {
      "type": "Feature",
      "geometry": {
        "type": "Point",
        "coordinates": [
          3.28213,
          48.19497
        ]
      },
      "properties": {
        "id": "3944",
        "name": "Sens"
      }
    },
    {
      "type": "Feature",
      "geometry": {
        "type": "Point",
        "coordinates": [
          3.18972,
          47.0895
        ]
      },
      "properties": {
        "id": "3413",
        "name": "Guerigny"
      }
    },
    {
      "type": "Feature",
      "geometry": {
        "type": "Point",
        "coordinates": [
          3.19515,
          47.08722
        ]
      },
      "properties": {
        "id": "3411",
        "name": "Guerigny"
      }
    },
    {
      "type": "Feature",
      "geometry": {
        "type": "Point",
        "coordinates": [
          3.153774,
          46.990823
        ]
      },
      "properties": {
        "id": "3409",
        "name": "Nevers"
      }
    },
    {
      "type": "Feature",
      "geometry": {
        "type": "Point",
        "coordinates": [
          3.153371,
          46.983563
        ]
      },
      "properties": {
        "id": "3407",
        "name": "Nevers"
      }
    },
    {
      "type": "Feature",
      "geometry": {
        "type": "Point",
        "coordinates": [
          3.81818,
          47.28905
        ]
      },
      "properties": {
        "id": "3259",
        "name": "Lormes"
      }
    },
    {
      "type": "Feature",
      "geometry": {
        "type": "Point",
        "coordinates": [
          3.577791,
          47.780261
        ]
      },
      "properties": {
        "id": "3257",
        "name": "Auxerre"
      }
    },
    {
      "type": "Feature",
      "geometry": {
        "type": "Point",
        "coordinates": [
          3.17417,
          47.92048
        ]
      },
      "properties": {
        "id": "3255",
        "name": "Chevillon"
      }
    },
    {
      "type": "Feature",
      "geometry": {
        "type": "Point",
        "coordinates": [
          3.10615,
          47.93335
        ]
      },
      "properties": {
        "id": "3253",
        "name": "Dicy"
      }
    },
    {
      "type": "Feature",
      "geometry": {
        "type": "Point",
        "coordinates": [
          3.27945,
          47.36868
        ]
      },
      "properties": {
        "id": "3251",
        "name": "Menou"
      }
    },
    {
      "type": "Feature",
      "geometry": {
        "type": "Point",
        "coordinates": [
          3.23436,
          47.5692
        ]
      },
      "properties": {
        "id": "3249",
        "name": "Sainte-Colombe-sur-Loing"
      }
    },
    {
      "type": "Feature",
      "geometry": {
        "type": "Point",
        "coordinates": [
          5.01312,
          47.33759
        ]
      },