<?xml version='1.0' encoding='UTF-8' standalone='yes' ?>
<gpx version="1.1" creator="Binnette" xmlns="http://www.topografix.com/GPX/1/1" xmlns:osmand="https://osmand.net" xmlns:xsi="http://www.w3.org/2001/XMLSchema-instance" xsi:schemaLocation="http://www.topografix.com/GPX/1/1 http://www.topografix.com/GPX/1/1/gpx.xsd">
  <wpt lat="48.634268" lon="-4.408935">
    <name>Guissény z25658</name>
    <type>ZoneLivre Bretagne</type>
    <extensions>
      <osmand:color>#10c0f0</osmand:color>
      <osmand:background>square</osmand:background>
      <osmand:icon>public_bookcase</osmand:icon>
    </extensions>
  </wpt>
  <wpt lat="48.462512" lon="-1.4422">
    <name>Saint-Ouen-la-Rouërie z25576</name>
    <type>ZoneLivre Bretagne</type>
    <extensions>
      <osmand:color>#10c0f0</osmand:color>
      <osmand:background>square</osmand:background>
      <osmand:icon>public_bookcase</osmand:icon>
    </extensions>
  </wpt>
  <wpt lat="48.465931" lon="-1.504092">
    <name>La Fontenelle z25573</name>
    <type>ZoneLivre Bretagne</type>
    <extensions>
      <osmand:color>#10c0f0</osmand:color>
      <osmand:background>square</osmand:background>
      <osmand:icon>public_bookcase</osmand:icon>
    </extensions>
  </wpt>
  <wpt lat="48.127562" lon="-2.157612">
    <name>Muel z25562</name>
    <type>ZoneLivre Bretagne</type>
    <extensions>
      <osmand:color>#10c0f0</osmand:color>
      <osmand:background>square</osmand:background>
      <osmand:icon>public_bookcase</osmand:icon>
    </extensions>
  </wpt>
  <wpt lat="48.578939" lon="-2.221352">
    <name>Saint-Cast-le-Guildo z25488</name>
    <type>ZoneLivre Bretagne</type>
    <extensions>
      <osmand:color>#10c0f0</osmand:color>
      <osmand:background>square</osmand:background>
      <osmand:icon>public_bookcase</osmand:icon>
    </extensions>
  </wpt>
  <wpt lat="48.637925" lon="-2.259482">
    <name>Saint-Cast-le-Guildo z25485</name>
    <type>ZoneLivre Bretagne</type>
    <extensions>
      <osmand:color>#10c0f0</osmand:color>
      <osmand:background>square</osmand:background>
      <osmand:icon>public_bookcase</osmand:icon>
    </extensions>
  </wpt>
  <wpt lat="48.491097" lon="-1.293659">
    <name>Le Ferré z25448</name>
    <type>ZoneLivre Bretagne</type>
    <extensions>
      <osmand:color>#10c0f0</osmand:color>
      <osmand:background>square</osmand:background>
      <osmand:icon>public_bookcase</osmand:icon>
    </extensions>
  </wpt>
  <wpt lat="48.835997" lon="-3.314328">
    <name>Penvénan z25148</name>
    <type>ZoneLivre Bretagne</type>
    <extensions>
      <osmand:color>#10c0f0</osmand:color>
      <osmand:background>square</osmand:background>
      <osmand:icon>public_bookcase</osmand:icon>
    </extensions>
  </wpt>
  <wpt lat="48.842584" lon="-3.228527">
    <name>Plougrescant z25144</name>
    <type>ZoneLivre Bretagne</type>
    <extensions>
      <osmand:color>#10c0f0</osmand:color>
      <osmand:background>square</osmand:background>
      <osmand:icon>public_bookcase</osmand:icon>
    </extensions>
  </wpt>
  <wpt lat="47.836976" lon="-1.680307">
    <name>Bain-de-Bretagne z24856</name>
    <type>ZoneLivre Bretagne</type>
    <extensions>
      <osmand:color>#10c0f0</osmand:color>
      <osmand:background>square</osmand:background>
      <osmand:icon>public_bookcase</osmand:icon>
    </extensions>
  </wpt>
  <wpt lat="47.84256" lon="-1.680452">
    <name>Bain-de-Bretagne z24854</name>
    <type>ZoneLivre Bretagne</type>
    <extensions>
      <osmand:color>#10c0f0</osmand:color>
      <osmand:background>square</osmand:background>
      <osmand:icon>public_bookcase</osmand:icon>
    </extensions>
  </wpt>
  <wpt lat="47.855835" lon="-1.511052">
    <name>Lalleu z24791</name>
    <type>ZoneLivre Bretagne</type>
    <extensions>
      <osmand:color>#10c0f0</osmand:color>
      <osmand:background>square</osmand:background>
      <osmand:icon>public_bookcase</osmand:icon>
    </extensions>
  </wpt>
  <wpt lat="47.912421" lon="-1.378143">
    <name>Retiers z24788</name>
    <type>ZoneLivre Bretagne</type>
    <extensions>
      <osmand:color>#10c0f0</osmand:color>
      <osmand:background>square</osmand:background>
      <osmand:icon>public_bookcase</osmand:icon>
    </extensions>
  </wpt>
  <wpt lat="47.856042" lon="-1.479901">
    <name>Thourie z24691</name>
    <type>ZoneLivre Bretagne</type>
    <extensions>
      <osmand:color>#10c0f0</osmand:color>
      <osmand:background>square</osmand:background>
      <osmand:icon>public_bookcase</osmand:icon>
    </extensions>
  </wpt>
  <wpt lat="47.883307" lon="-1.441188">
    <name>Coësmes z24688</name>
    <type>ZoneLivre Bretagne</type>
    <extensions>
      <osmand:color>#10c0f0</osmand:color>
      <osmand:background>square</osmand:background>
      <osmand:icon>public_bookcase</osmand:icon>
    </extensions>
  </wpt>
  <wpt lat="47.920169" lon="-1.429467">
    <name>Le Theil-de-Bretagne z24685</name>
    <type>ZoneLivre Bretagne</type>
    <extensions>
      <osmand:color>#10c0f0</osmand:color>
      <osmand:background>square</osmand:background>
      <osmand:icon>public_bookcase</osmand:icon>
    </extensions>
  </wpt>
  <wpt lat="48.005698" lon="-1.477814">
    <name>Amanlis z24683</name>
    <type>ZoneLivre Bretagne</type>
    <extensions>
      <osmand:color>#10c0f0</osmand:color>
      <osmand:background>square</osmand:background>
      <osmand:icon>public_bookcase</osmand:icon>
    </extensions>
  </wpt>
  <wpt lat="47.73305" lon="-3.424184">
    <name>Ploemeur z24514</name>
    <type>ZoneLivre Bretagne</type>
    <extensions>
      <osmand:color>#10c0f0</osmand:color>
      <osmand:background>square</osmand:background>
      <osmand:icon>public_bookcase</osmand:icon>
    </extensions>
  </wpt>
  <wpt lat="48.511134" lon="-1.18077">
    <name>Monthault z24505</name>
    <type>ZoneLivre Bretagne</type>
    <extensions>
      <osmand:color>#10c0f0</osmand:color>
      <osmand:background>square</osmand:background>
      <osmand:icon>public_bookcase</osmand:icon>
    </extensions>
  </wpt>
  <wpt lat="48.552584" lon="-1.586049">
    <name>Sains z24492</name>
    <type>ZoneLivre Bretagne</type>
    <extensions>
      <osmand:color>#10c0f0</osmand:color>
      <osmand:background>square</osmand:background>
      <osmand:icon>public_bookcase</osmand:icon>
    </extensions>
  </wpt>
  <wpt lat="48.108688" lon="-1.514761">
    <name>Noyal-sur-Vilaine z24490</name>
    <type>ZoneLivre Bretagne</type>
    <extensions>
      <osmand:color>#10c0f0</osmand:color>
      <osmand:background>square</osmand:background>
      <osmand:icon>public_bookcase</osmand:icon>
    </extensions>
  </wpt>
  <wpt lat="48.12023" lon="-1.526448">
    <name>Noyal-sur-Vilaine z24487</name>
    <type>ZoneLivre Bretagne</type>
    <extensions>
      <osmand:color>#10c0f0</osmand:color>
      <osmand:background>square</osmand:background>
      <osmand:icon>public_bookcase</osmand:icon>
    </extensions>
  </wpt>
  <wpt lat="47.978667" lon="-1.721683">
    <name>Laillé z24485</name>
    <type>ZoneLivre Bretagne</type>
    <extensions>
      <osmand:color>#10c0f0</osmand:color>
      <osmand:background>square</osmand:background>
      <osmand:icon>public_bookcase</osmand:icon>
    </extensions>
  </wpt>
  <wpt lat="48.150798" lon="-1.786045">
    <name>Pacé z24483</name>
    <type>ZoneLivre Bretagne</type>
    <extensions>
      <osmand:color>#10c0f0</osmand:color>
      <osmand:background>square</osmand:background>
      <osmand:icon>public_bookcase</osmand:icon>
    </extensions>
  </wpt>
  <wpt lat="48.443027" lon="-1.914317">
    <name>Saint-Pierre de Plesguen z24480</name>
    <type>ZoneLivre Bretagne</type>
    <extensions>
      <osmand:color>#10c0f0</osmand:color>
      <osmand:background>square</osmand:background>
      <osmand:icon>public_bookcase</osmand:icon>
    </extensions>
  </wpt>
  <wpt lat="48.503857" lon="-1.800122">
    <name>Baguer-Morvan z24477</name>
    <type>ZoneLivre Bretagne</type>
    <extensions>
      <osmand:color>#10c0f0</osmand:color>
      <osmand:background>square</osmand:background>
      <osmand:icon>public_bookcase</osmand:icon>
    </extensions>
  </wpt>
  <wpt lat="48.11809" lon="-1.208577">
    <name>Vitré z24468</name>
    <type>ZoneLivre Bretagne</type>
    <extensions>
      <osmand:color>#10c0f0</osmand:color>
      <osmand:background>square</osmand:background>
      <osmand:icon>public_bookcase</osmand:icon>
    </extensions>
  </wpt>
  <wpt lat="48.083421" lon="-1.098102">
    <name>Mondevert z24465</name>
    <type>ZoneLivre Bretagne</type>
    <extensions>
      <osmand:color>#10c0f0</osmand:color>
      <osmand:background>square</osmand:background>
      <osmand:icon>public_bookcase</osmand:icon>
    </extensions>
  </wpt>
  <wpt lat="48.506361" lon="-2.812379">
    <name>Ploufragan z24440</name>
    <type>ZoneLivre Bretagne</type>
    <extensions>
      <osmand:color>#10c0f0</osmand:color>
      <osmand:background>square</osmand:background>
      <osmand:icon>public_bookcase</osmand:icon>
    </extensions>
  </wpt>
  <wpt lat="48.44859" lon="-1.66382">
    <name>Cuguen z24299</name>
    <type>ZoneLivre Bretagne</type>
    <extensions>
      <osmand:color>#10c0f0</osmand:color>
      <osmand:background>square</osmand:background>
      <osmand:icon>public_bookcase</osmand:icon>
    </extensions>
  </wpt>
  <wpt lat="48.041062" lon="-1.706987">
    <name>Chartres-de-Bretagne z24297</name>
    <type>ZoneLivre Bretagne</type>
    <extensions>
      <osmand:color>#10c0f0</osmand:color>
      <osmand:background>square</osmand:background>
      <osmand:icon>public_bookcase</osmand:icon>
    </extensions>
  </wpt>
  <wpt lat="48.063276" lon="-1.772286">
    <name>Chavagne z23784</name>
    <type>ZoneLivre Bretagne</type>
    <extensions>
      <osmand:color>#10c0f0</osmand:color>
      <osmand:background>square</osmand:background>
      <osmand:icon>public_bookcase</osmand:icon>
    </extensions>
  </wpt>
  <wpt lat="48.285438" lon="-1.888648">
    <name>Cardroc z23782</name>
    <type>ZoneLivre Bretagne</type>
    <extensions>
      <osmand:color>#10c0f0</osmand:color>
      <osmand:background>square</osmand:background>
      <osmand:icon>public_bookcase</osmand:icon>
    </extensions>
  </wpt>
  <wpt lat="47.677508" lon="-2.297319">
    <name>Malansac z23681</name>
    <type>ZoneLivre Bretagne</type>
    <extensions>
      <osmand:color>#10c0f0</osmand:color>
      <osmand:background>square</osmand:background>
      <osmand:icon>public_bookcase</osmand:icon>
    </extensions>
  </wpt>
  <wpt lat="47.667963" lon="-2.106765">
    <name>Saint-Perreux z23679</name>
    <type>ZoneLivre Bretagne</type>
    <extensions>
      <osmand:color>#10c0f0</osmand:color>
      <osmand:background>square</osmand:background>
      <osmand:icon>public_bookcase</osmand:icon>
    </extensions>
  </wpt>
  <wpt lat="47.597223" lon="-2.107813">
    <name>Rieux z23676</name>
    <type>ZoneLivre Bretagne</type>
    <extensions>
      <osmand:color>#10c0f0</osmand:color>
      <osmand:background>square</osmand:background>
      <osmand:icon>public_bookcase</osmand:icon>
    </extensions>
  </wpt>
  <wpt lat="47.541581" lon="-2.324357">
    <name>Marzan z23673</name>
    <type>ZoneLivre Bretagne</type>
    <extensions>
      <osmand:color>#10c0f0</osmand:color>
      <osmand:background>square</osmand:background>
      <osmand:icon>public_bookcase</osmand:icon>
    </extensions>
  </wpt>
  <wpt lat="47.556989" lon="-2.907598">
    <name>Arzon z23670</name>
    <type>ZoneLivre Bretagne</type>
    <extensions>
      <osmand:color>#10c0f0</osmand:color>
      <osmand:background>square</osmand:background>
      <osmand:icon>public_bookcase</osmand:icon>
    </extensions>
  </wpt>
  <wpt lat="47.566196" lon="-2.725221">
    <name>Saint-Armel (56) z23668</name>
    <type>ZoneLivre Bretagne</type>
    <extensions>
      <osmand:color>#10c0f0</osmand:color>
      <osmand:background>square</osmand:background>
      <osmand:icon>public_bookcase</osmand:icon>
    </extensions>
  </wpt>
  <wpt lat="47.591761" lon="-2.457456">
    <name>Noyal-Muzillac z23666</name>
    <type>ZoneLivre Bretagne</type>
    <extensions>
      <osmand:color>#10c0f0</osmand:color>
      <osmand:background>square</osmand:background>
      <osmand:icon>public_bookcase</osmand:icon>
    </extensions>
  </wpt>
  <wpt lat="47.529168" lon="-2.482827">
    <name>Billiers z23664</name>
    <type>ZoneLivre Bretagne</type>
    <extensions>
      <osmand:color>#10c0f0</osmand:color>
      <osmand:background>square</osmand:background>
      <osmand:icon>public_bookcase</osmand:icon>
    </extensions>
  </wpt>
  <wpt lat="47.703013" lon="-2.652512">
    <name>Saint-Nolff z23312</name>
    <type>ZoneLivre Bretagne</type>
    <extensions>
      <osmand:color>#10c0f0</osmand:color>
      <osmand:background>square</osmand:background>
      <osmand:icon>public_bookcase</osmand:icon>
    </extensions>
  </wpt>
  <wpt lat="47.723687" lon="-3.342912">
    <name>Locmiquélic z23148</name>
    <type>ZoneLivre Bretagne</type>
    <extensions>
      <osmand:color>#10c0f0</osmand:color>
      <osmand:background>square</osmand:background>
      <osmand:icon>public_bookcase</osmand:icon>
    </extensions>
  </wpt>
  <wpt lat="48.121455" lon="-1.693214">
    <name>Rennes z23130</name>
    <type>ZoneLivre Bretagne</type>
    <extensions>
      <osmand:color>#10c0f0</osmand:color>
      <osmand:background>square</osmand:background>
      <osmand:icon>public_bookcase</osmand:icon>
    </extensions>
  </wpt>
  <wpt lat="48.006369" lon="-4.096562">
    <name>Quimper z22669</name>
    <type>ZoneLivre Bretagne</type>
    <extensions>
      <osmand:color>#10c0f0</osmand:color>
      <osmand:background>square</osmand:background>
      <osmand:icon>public_bookcase</osmand:icon>
    </extensions>
  </wpt>
  <wpt lat="48.797394" lon="-3.022085">
    <name>Ploubazlanec z22667</name>
    <type>ZoneLivre Bretagne</type>
    <extensions>
      <osmand:color>#10c0f0</osmand:color>
      <osmand:background>square</osmand:background>
      <osmand:icon>public_bookcase</osmand:icon>
    </extensions>
  </wpt>
  <wpt lat="47.982852" lon="-4.108678">
    <name>Quimper z22501</name>
    <type>ZoneLivre Bretagne</type>
    <extensions>
      <osmand:color>#10c0f0</osmand:color>
      <osmand:background>square</osmand:background>
      <osmand:icon>public_bookcase</osmand:icon>
    </extensions>
  </wpt>
  <wpt lat="48.299065" lon="-1.431511">
    <name>Mézières-sur-Couesnon z22498</name>
    <type>ZoneLivre Bretagne</type>
    <extensions>
      <osmand:color>#10c0f0</osmand:color>
      <osmand:background>square</osmand:background>
      <osmand:icon>public_bookcase</osmand:icon>
    </extensions>
  </wpt>
  <wpt lat="48.675848" lon="-4.337583">
    <name>Brignogan-Plages z22472</name>
    <type>ZoneLivre Bretagne</type>
    <extensions>
      <osmand:color>#10c0f0</osmand:color>
      <osmand:background>square</osmand:background>
      <osmand:icon>public_bookcase</osmand:icon>
    </extensions>
  </wpt>
  <wpt lat="48.608409" lon="-4.298916">
    <name>Plouider z22470</name>
    <type>ZoneLivre Bretagne</type>
    <extensions>
      <osmand:color>#10c0f0</osmand:color>
      <osmand:background>square</osmand:background>
      <osmand:icon>public_bookcase</osmand:icon>
    </extensions>
  </wpt>
  <wpt lat="48.671352" lon="-4.328002">
    <name>Brignogan-Plages z22468</name>
    <type>ZoneLivre Bretagne</type>
    <extensions>
      <osmand:color>#10c0f0</osmand:color>
      <osmand:background>square</osmand:background>
      <osmand:icon>public_bookcase</osmand:icon>
    </extensions>
  </wpt>
  <wpt lat="48.664784" lon="-4.326701">
    <name>Brignogan-Plages z22466</name>
    <type>ZoneLivre Bretagne</type>
    <extensions>
      <osmand:color>#10c0f0</osmand:color>
      <osmand:background>square</osmand:background>
      <osmand:icon>public_bookcase</osmand:icon>
    </extensions>
  </wpt>
  <wpt lat="48.667036" lon="-4.319421">
    <name>Brignogan-Plages z22464</name>
    <type>ZoneLivre Bretagne</type>
    <extensions>
      <osmand:color>#10c0f0</osmand:color>
      <osmand:background>square</osmand:background>
      <osmand:icon>public_bookcase</osmand:icon>
    </extensions>
  </wpt>
  <wpt lat="48.649508" lon="-4.320408">
    <name>Plouneour Trez z22462</name>
    <type>ZoneLivre Bretagne</type>
    <extensions>
      <osmand:color>#10c0f0</osmand:color>
      <osmand:background>square</osmand:background>
      <osmand:icon>public_bookcase</osmand:icon>
    </extensions>
  </wpt>
  <wpt lat="47.995255" lon="-3.393134">
    <name>Berné z22218</name>
    <type>ZoneLivre Bretagne</type>
    <extensions>
      <osmand:color>#10c0f0</osmand:color>
      <osmand:background>square</osmand:background>
      <osmand:icon>public_bookcase</osmand:icon>
    </extensions>
  </wpt>
  <wpt lat="48.102323" lon="-1.674393">
    <name>Rennes z22118</name>
    <type>ZoneLivre Bretagne</type>
    <extensions>
      <osmand:color>#10c0f0</osmand:color>
      <osmand:background>square</osmand:background>
      <osmand:icon>public_bookcase</osmand:icon>
    </extensions>
  </wpt>
  <wpt lat="48.577349" lon="-4.030392">
    <name>Plouvorn z22114</name>
    <type>ZoneLivre Bretagne</type>
    <extensions>
      <osmand:color>#10c0f0</osmand:color>
      <osmand:background>square</osmand:background>
      <osmand:icon>public_bookcase</osmand:icon>
    </extensions>
  </wpt>
  <wpt lat="48.08759" lon="-1.65901">
    <name>Rennes z22097</name>
    <type>ZoneLivre Bretagne</type>
    <extensions>
      <osmand:color>#10c0f0</osmand:color>
      <osmand:background>square</osmand:background>
      <osmand:icon>public_bookcase</osmand:icon>
    </extensions>
  </wpt>
  <wpt lat="48.662607" lon="-4.103034">
    <name>Clèder z21716</name>
    <type>ZoneLivre Bretagne</type>
    <extensions>
      <osmand:color>#10c0f0</osmand:color>
      <osmand:background>square</osmand:background>
      <osmand:icon>public_bookcase</osmand:icon>
    </extensions>
  </wpt>
  <wpt lat="47.619886" lon="-2.918203">
    <name>Baden z21713</name>
    <type>ZoneLivre Bretagne</type>
    <extensions>
      <osmand:color>#10c0f0</osmand:color>
      <osmand:background>square</osmand:background>
      <osmand:icon>public_bookcase</osmand:icon>
    </extensions>
  </wpt>
  <wpt lat="47.640016" lon="-2.947978">
    <name>Le Bono z21711</name>
    <type>ZoneLivre Bretagne</type>
    <extensions>
      <osmand:color>#10c0f0</osmand:color>
      <osmand:background>square</osmand:background>
      <osmand:icon>public_bookcase</osmand:icon>
    </extensions>
  </wpt>
  <wpt lat="48.084953" lon="-1.645887">
    <name>Rennes z21674</name>
    <type>ZoneLivre Bretagne</type>
    <extensions>
      <osmand:color>#10c0f0</osmand:color>
      <osmand:background>square</osmand:background>
      <osmand:icon>public_bookcase</osmand:icon>
    </extensions>
  </wpt>
  <wpt lat="48.57674" lon="-3.00328">
    <name>Bringolo z21098</name>
    <type>ZoneLivre Bretagne</type>
    <extensions>
      <osmand:color>#10c0f0</osmand:color>
      <osmand:background>square</osmand:background>
      <osmand:icon>public_bookcase</osmand:icon>
    </extensions>
  </wpt>
  <wpt lat="48.67387" lon="-3.0288">
    <name>Tréméven z21060</name>
    <type>ZoneLivre Bretagne</type>
    <extensions>
      <osmand:color>#10c0f0</osmand:color>
      <osmand:background>square</osmand:background>
      <osmand:icon>public_bookcase</osmand:icon>
    </extensions>
  </wpt>
  <wpt lat="48.69654" lon="-3.00765">
    <name>Pléhédel z21056</name>
    <type>ZoneLivre Bretagne</type>
    <extensions>
      <osmand:color>#10c0f0</osmand:color>
      <osmand:background>square</osmand:background>
      <osmand:icon>public_bookcase</osmand:icon>
    </extensions>
  </wpt>
  <wpt lat="48.600355" lon="-2.825369">
    <name>Binic-Étables-sur-Mer z20851</name>
    <type>ZoneLivre Bretagne</type>
    <extensions>
      <osmand:color>#10c0f0</osmand:color>
      <osmand:background>square</osmand:background>
      <osmand:icon>public_bookcase</osmand:icon>
    </extensions>
  </wpt>
  <wpt lat="48.62642" lon="-2.83466">
    <name>Étables-sur-Mer z20849</name>
    <type>ZoneLivre Bretagne</type>
    <extensions>
      <osmand:color>#10c0f0</osmand:color>
      <osmand:background>square</osmand:background>
      <osmand:icon>public_bookcase</osmand:icon>
    </extensions>
  </wpt>
  <wpt lat="48.53047" lon="-4.11665">
    <name>Bodilis z20847</name>
    <type>ZoneLivre Bretagne</type>
    <extensions>
      <osmand:color>#10c0f0</osmand:color>
      <osmand:background>square</osmand:background>
      <osmand:icon>public_bookcase</osmand:icon>
    </extensions>
  </wpt>
  <wpt lat="48.413928" lon="-3.956199">
    <name>Commana z20808</name>
    <type>ZoneLivre Bretagne</type>
    <extensions>
      <osmand:color>#10c0f0</osmand:color>
      <osmand:background>square</osmand:background>
      <osmand:icon>public_bookcase</osmand:icon>
    </extensions>
  </wpt>
  <wpt lat="48.50475" lon="-2.75314">
    <name>Saint-Brieuc z20747</name>
    <type>ZoneLivre Bretagne</type>
    <extensions>
      <osmand:color>#10c0f0</osmand:color>
      <osmand:background>square</osmand:background>
      <osmand:icon>public_bookcase</osmand:icon>
    </extensions>
  </wpt>
  <wpt lat="48.10348" lon="-1.06035">
    <name>Bréal-sous-Vitré z20597</name>
    <type>ZoneLivre Bretagne</type>
    <extensions>
      <osmand:color>#10c0f0</osmand:color>
      <osmand:background>square</osmand:background>
      <osmand:icon>public_bookcase</osmand:icon>
    </extensions>
  </wpt>
  <wpt lat="47.53045" lon="-3.14609">
    <name>Saint-Pierre-Quiberon z20470</name>
    <type>ZoneLivre Bretagne</type>
    <extensions>
      <osmand:color>#10c0f0</osmand:color>
      <osmand:background>square</osmand:background>
      <osmand:icon>public_bookcase</osmand:icon>
    </extensions>
  </wpt>
  <wpt lat="47.83969" lon="-3.69728">
    <name>Riec-sur-Belon z20238</name>
    <type>ZoneLivre Bretagne</type>
    <extensions>
      <osmand:color>#10c0f0</osmand:color>
      <osmand:background>square</osmand:background>
      <osmand:icon>public_bookcase</osmand:icon>
    </extensions>
  </wpt>
  <wpt lat="47.62777" lon="-2.82281">
    <name>Arradon z20181</name>
    <type>ZoneLivre Bretagne</type>
    <extensions>
      <osmand:color>#10c0f0</osmand:color>
      <osmand:background>square</osmand:background>
      <osmand:icon>public_bookcase</osmand:icon>
    </extensions>
  </wpt>
  <wpt lat="48.00216" lon="-2.09786">
    <name>Plélan-le-Grand z20169</name>
    <type>ZoneLivre Bretagne</type>
    <extensions>
      <osmand:color>#10c0f0</osmand:color>
      <osmand:background>square</osmand:background>
      <osmand:icon>public_bookcase</osmand:icon>
    </extensions>
  </wpt>
  <wpt lat="48.36957" lon="-1.57078">
    <name>Saint-Rémy-du-Plain z20058</name>
    <type>ZoneLivre Bretagne</type>
    <extensions>
      <osmand:color>#10c0f0</osmand:color>
      <osmand:background>square</osmand:background>
      <osmand:icon>public_bookcase</osmand:icon>
    </extensions>
  </wpt>
  <wpt lat="48.02262" lon="-1.751579">
    <name>Bruz z20001</name>
    <type>ZoneLivre Bretagne</type>
    <extensions>
      <osmand:color>#10c0f0</osmand:color>
      <osmand:background>square</osmand:background>
      <osmand:icon>public_bookcase</osmand:icon>
    </extensions>
  </wpt>
  <wpt lat="48.02459" lon="-1.74522">
    <name>Bruz z19999</name>
    <type>ZoneLivre Bretagne</type>
    <extensions>
      <osmand:color>#10c0f0</osmand:color>
      <osmand:background>square</osmand:background>
      <osmand:icon>public_bookcase</osmand:icon>
    </extensions>
  </wpt>
  <wpt lat="48.09849" lon="-1.6564">
    <name>Rennes z19997</name>
    <type>ZoneLivre Bretagne</type>
    <extensions>
      <osmand:color>#10c0f0</osmand:color>
      <osmand:background>square</osmand:background>
      <osmand:icon>public_bookcase</osmand:icon>
    </extensions>
  </wpt>
  <wpt lat="48.0291" lon="-1.76054">
    <name>Bruz z19978</name>
    <type>ZoneLivre Bretagne</type>
    <extensions>
      <osmand:color>#10c0f0</osmand:color>
      <osmand:background>square</osmand:background>
      <osmand:icon>public_bookcase</osmand:icon>
    </extensions>
  </wpt>
  <wpt lat="47.605982" lon="-2.792933">
    <name>Île-d'Arz z19941</name>
    <type>ZoneLivre Bretagne</type>
    <extensions>
      <osmand:color>#10c0f0</osmand:color>
      <osmand:background>square</osmand:background>
      <osmand:icon>public_bookcase</osmand:icon>
    </extensions>
  </wpt>
  <wpt lat="47.7426" lon="-2.68107">
    <name>Monterblanc z19939</name>
    <type>ZoneLivre Bretagne</type>
    <extensions>
      <osmand:color>#10c0f0</osmand:color>
      <osmand:background>square</osmand:background>
      <osmand:icon>public_bookcase</osmand:icon>
    </extensions>
  </wpt>
  <wpt lat="48.10334" lon="-3.49151">
    <name>Langonnet z19910</name>
    <type>ZoneLivre Bretagne</type>
    <extensions>
      <osmand:color>#10c0f0</osmand:color>
      <osmand:background>square</osmand:background>
      <osmand:icon>public_bookcase</osmand:icon>
    </extensions>
  </wpt>
  <wpt lat="48.1266" lon="-3.71702">
    <name>Roudouallec z19908</name>
    <type>ZoneLivre Bretagne</type>
    <extensions>
      <osmand:color>#10c0f0</osmand:color>
      <osmand:background>square</osmand:background>
      <osmand:icon>public_bookcase</osmand:icon>
    </extensions>
  </wpt>
  <wpt lat="47.83951" lon="-4.16886">
    <name>Île-Tudy z19906</name>
    <type>ZoneLivre Bretagne</type>
    <extensions>
      <osmand:color>#10c0f0</osmand:color>
      <osmand:background>square</osmand:background>
      <osmand:icon>public_bookcase</osmand:icon>
    </extensions>
  </wpt>
  <wpt lat="47.7665" lon="-3.54734">
    <name>Clohars-Carnoët z19902</name>
    <type>ZoneLivre Bretagne</type>
    <extensions>
      <osmand:color>#10c0f0</osmand:color>
      <osmand:background>square</osmand:background>
      <osmand:icon>public_bookcase</osmand:icon>
    </extensions>
  </wpt>
  <wpt lat="47.82277" lon="-3.74859">
    <name>Névez z19891</name>
    <type>ZoneLivre Bretagne</type>
    <extensions>
      <osmand:color>#10c0f0</osmand:color>
      <osmand:background>square</osmand:background>
      <osmand:icon>public_bookcase</osmand:icon>
    </extensions>
  </wpt>
  <wpt lat="47.77235" lon="-3.60988">
    <name>Clohars-Carnoët z19885</name>
    <type>ZoneLivre Bretagne</type>
    <extensions>
      <osmand:color>#10c0f0</osmand:color>
      <osmand:background>square</osmand:background>
      <osmand:icon>public_bookcase</osmand:icon>
    </extensions>
  </wpt>
  <wpt lat="47.87654" lon="-3.54374">
    <name>Quimperlé z19882</name>
    <type>ZoneLivre Bretagne</type>
    <extensions>
      <osmand:color>#10c0f0</osmand:color>
      <osmand:background>square</osmand:background>
      <osmand:icon>public_bookcase</osmand:icon>
    </extensions>
  </wpt>
  <wpt lat="47.99746" lon="-4.12875">
    <name>Quimper z19872</name>
    <type>ZoneLivre Bretagne</type>
    <extensions>
      <osmand:color>#10c0f0</osmand:color>
      <osmand:background>square</osmand:background>
      <osmand:icon>public_bookcase</osmand:icon>
    </extensions>
  </wpt>
  <wpt lat="48.49757" lon="-4.43035">
    <name>Plabennec z19859</name>
    <type>ZoneLivre Bretagne</type>
    <extensions>
      <osmand:color>#10c0f0</osmand:color>
      <osmand:background>square</osmand:background>
      <osmand:icon>public_bookcase</osmand:icon>
    </extensions>
  </wpt>
  <wpt lat="47.60407" lon="-2.59354">
    <name>La Trinité-Surzur z19851</name>
    <type>ZoneLivre Bretagne</type>
    <extensions>
      <osmand:color>#10c0f0</osmand:color>
      <osmand:background>square</osmand:background>
      <osmand:icon>public_bookcase</osmand:icon>
    </extensions>
  </wpt>
  <wpt lat="47.75813" lon="-2.37532">
    <name>Pleucadeuc z19778</name>
    <type>ZoneLivre Bretagne</type>
    <extensions>
      <osmand:color>#10c0f0</osmand:color>
      <osmand:background>square</osmand:background>
      <osmand:icon>public_bookcase</osmand:icon>
    </extensions>
  </wpt>
  <wpt lat="47.8639" lon="-3.76825">
    <name>Pont-Aven z19776</name>
    <type>ZoneLivre Bretagne</type>
    <extensions>
      <osmand:color>#10c0f0</osmand:color>
      <osmand:background>square</osmand:background>
      <osmand:icon>public_bookcase</osmand:icon>
    </extensions>
  </wpt>
  <wpt lat="47.85597" lon="-3.74734">
    <name>Pont-Aven z19774</name>
    <type>ZoneLivre Bretagne</type>
    <extensions>
      <osmand:color>#10c0f0</osmand:color>
      <osmand:background>square</osmand:background>
      <osmand:icon>public_bookcase</osmand:icon>
    </extensions>
  </wpt>
  <wpt lat="47.85484" lon="-3.85252">
    <name>Trégunc z19772</name>
    <type>ZoneLivre Bretagne</type>
    <extensions>
      <osmand:color>#10c0f0</osmand:color>
      <osmand:background>square</osmand:background>
      <osmand:icon>public_bookcase</osmand:icon>
    </extensions>
  </wpt>
  <wpt lat="47.81912" lon="-3.79368">
    <name>Nevez z19770</name>
    <type>ZoneLivre Bretagne</type>
    <extensions>
      <osmand:color>#10c0f0</osmand:color>
      <osmand:background>square</osmand:background>
      <osmand:icon>public_bookcase</osmand:icon>
    </extensions>
  </wpt>
  <wpt lat="47.85758" lon="-3.60502">
    <name>Baye z19470</name>
    <type>ZoneLivre Bretagne</type>
    <extensions>
      <osmand:color>#10c0f0</osmand:color>
      <osmand:background>square</osmand:background>
      <osmand:icon>public_bookcase</osmand:icon>
    </extensions>
  </wpt>
  <wpt lat="48.35675" lon="-4.6287">
    <name>Locmaria-Plouzané z19445</name>
    <type>ZoneLivre Bretagne</type>
    <extensions>
      <osmand:color>#10c0f0</osmand:color>
      <osmand:background>square</osmand:background>
      <osmand:icon>public_bookcase</osmand:icon>
    </extensions>
  </wpt>
  <wpt lat="47.63065" lon="-2.28738">
    <name>Caden z19376</name>
    <type>ZoneLivre Bretagne</type>
    <extensions>
      <osmand:color>#10c0f0</osmand:color>
      <osmand:background>square</osmand:background>
      <osmand:icon>public_bookcase</osmand:icon>
    </extensions>
  </wpt>
  <wpt lat="48.61939" lon="-2.13268">
    <name>Saint-Briac-sur-Mer z19319</name>
    <type>ZoneLivre Bretagne</type>
    <extensions>
      <osmand:color>#10c0f0</osmand:color>
      <osmand:background>square</osmand:background>
      <osmand:icon>public_bookcase</osmand:icon>
    </extensions>
  </wpt>
  <wpt lat="47.67536" lon="-3.16864">
    <name>Belz z19252</name>
    <type>ZoneLivre Bretagne</type>
    <extensions>
      <osmand:color>#10c0f0</osmand:color>
      <osmand:background>square</osmand:background>
      <osmand:icon>public_bookcase</osmand:icon>
    </extensions>
  </wpt>
  <wpt lat="47.56287" lon="-2.50079">
    <name>Muzillac z19235</name>
    <type>ZoneLivre Bretagne</type>
    <extensions>
      <osmand:color>#10c0f0</osmand:color>
      <osmand:background>square</osmand:background>
      <osmand:icon>public_bookcase</osmand:icon>
    </extensions>
  </wpt>
  <wpt lat="47.55356" lon="-2.48233">
    <name>Muzillac z19233</name>
    <type>ZoneLivre Bretagne</type>
    <extensions>
      <osmand:color>#10c0f0</osmand:color>
      <osmand:background>square</osmand:background>
      <osmand:icon>public_bookcase</osmand:icon>
    </extensions>
  </wpt>
  <wpt lat="48.47716" lon="-2.34124">
    <name>Plédéliac z19157</name>
    <type>ZoneLivre Bretagne</type>
    <extensions>
      <osmand:color>#10c0f0</osmand:color>
      <osmand:background>square</osmand:background>
      <osmand:icon>public_bookcase</osmand:icon>
    </extensions>
  </wpt>
  <wpt lat="48.57582" lon="-3.82276">
    <name>Morlaix z18933</name>
    <type>ZoneLivre Bretagne</type>
    <extensions>
      <osmand:color>#10c0f0</osmand:color>
      <osmand:background>square</osmand:background>
      <osmand:icon>public_bookcase</osmand:icon>
    </extensions>
  </wpt>
  <wpt lat="47.5718" lon="-2.7113">
    <name>Saint-Armel (56) z18218</name>
    <type>ZoneLivre Bretagne</type>
    <extensions>
      <osmand:color>#10c0f0</osmand:color>
      <osmand:background>square</osmand:background>
      <osmand:icon>public_bookcase</osmand:icon>
    </extensions>
  </wpt>
  <wpt lat="47.51277" lon="-2.62279">
    <name>Damgan z18215</name>
    <type>ZoneLivre Bretagne</type>
    <extensions>
      <osmand:color>#10c0f0</osmand:color>
      <osmand:background>square</osmand:background>
      <osmand:icon>public_bookcase</osmand:icon>
    </extensions>
  </wpt>
  <wpt lat="47.5791" lon="-2.35664">
    <name>Péaule z18212</name>
    <type>ZoneLivre Bretagne</type>
    <extensions>
      <osmand:color>#10c0f0</osmand:color>
      <osmand:background>square</osmand:background>
      <osmand:icon>public_bookcase</osmand:icon>
    </extensions>
  </wpt>
  <wpt lat="47.65914" lon="-2.44826">
    <name>Questembert z18210</name>
    <type>ZoneLivre Bretagne</type>
    <extensions>
      <osmand:color>#10c0f0</osmand:color>
      <osmand:background>square</osmand:background>
      <osmand:icon>public_bookcase</osmand:icon>
    </extensions>
  </wpt>
  <wpt lat="47.81897" lon="-2.28171">
    <name>Ruffiac z18206</name>
    <type>ZoneLivre Bretagne</type>
    <extensions>
      <osmand:color>#10c0f0</osmand:color>
      <osmand:background>square</osmand:background>
      <osmand:icon>public_bookcase</osmand:icon>
    </extensions>
  </wpt>
  <wpt lat="47.88051" lon="-2.42292">
    <name>Montertelot z18204</name>
    <type>ZoneLivre Bretagne</type>
    <extensions>
      <osmand:color>#10c0f0</osmand:color>
      <osmand:background>square</osmand:background>
      <osmand:icon>public_bookcase</osmand:icon>
    </extensions>
  </wpt>
  <wpt lat="47.86552" lon="-2.42297">
    <name>Val d'Oust z18202</name>
    <type>ZoneLivre Bretagne</type>
    <extensions>
      <osmand:color>#10c0f0</osmand:color>
      <osmand:background>square</osmand:background>
      <osmand:icon>public_bookcase</osmand:icon>
    </extensions>
  </wpt>
  <wpt lat="48.11698" lon="-1.36133">
    <name>Saint-Jean-sur-Vilaine z18200</name>
    <type>ZoneLivre Bretagne</type>
    <extensions>
      <osmand:color>#10c0f0</osmand:color>
      <osmand:background>square</osmand:background>
      <osmand:icon>public_bookcase</osmand:icon>
    </extensions>
  </wpt>
  <wpt lat="48.37902" lon="-1.88168">
    <name>Saint-Domineuc z18198</name>
    <type>ZoneLivre Bretagne</type>
    <extensions>
      <osmand:color>#10c0f0</osmand:color>
      <osmand:background>square</osmand:background>
      <osmand:icon>public_bookcase</osmand:icon>
    </extensions>
  </wpt>
  <wpt lat="48.37269" lon="-1.87583">
    <name>Saint-Domineuc z18195</name>
    <type>ZoneLivre Bretagne</type>
    <extensions>
      <osmand:color>#10c0f0</osmand:color>
      <osmand:background>square</osmand:background>
      <osmand:icon>public_bookcase</osmand:icon>
    </extensions>
  </wpt>
  <wpt lat="48.37124" lon="-1.87575">
    <name>Saint-Domineuc z18193</name>
    <type>ZoneLivre Bretagne</type>
    <extensions>
      <osmand:color>#10c0f0</osmand:color>
      <osmand:background>square</osmand:background>
      <osmand:icon>public_bookcase</osmand:icon>
    </extensions>
  </wpt>
  <wpt lat="48.30683" lon="-1.6724">
    <name>Montreuil-sur-Ille z18191</name>
    <type>ZoneLivre Bretagne</type>
    <extensions>
      <osmand:color>#10c0f0</osmand:color>
      <osmand:background>square</osmand:background>
      <osmand:icon>public_bookcase</osmand:icon>
    </extensions>
  </wpt>
  <wpt lat="48.48651" lon="-1.83748">
    <name>Le Tronchet z18189</name>
    <type>ZoneLivre Bretagne</type>
    <extensions>
      <osmand:color>#10c0f0</osmand:color>
      <osmand:background>square</osmand:background>
      <osmand:icon>public_bookcase</osmand:icon>
    </extensions>
  </wpt>
  <wpt lat="48.33276" lon="-1.53561">
    <name>Sens-de-Bretagne z18187</name>
    <type>ZoneLivre Bretagne</type>
    <extensions>
      <osmand:color>#10c0f0</osmand:color>
      <osmand:background>square</osmand:background>
      <osmand:icon>public_bookcase</osmand:icon>
    </extensions>
  </wpt>
  <wpt lat="48.34262" lon="-1.44694">
    <name>Saint-Christophe-de-Valains z18185</name>
    <type>ZoneLivre Bretagne</type>
    <extensions>
      <osmand:color>#10c0f0</osmand:color>
      <osmand:background>square</osmand:background>
      <osmand:icon>public_bookcase</osmand:icon>
    </extensions>
  </wpt>
  <wpt lat="48.31366" lon="-1.30873">
    <name>La Chapelle-Saint-Aubert z18183</name>
    <type>ZoneLivre Bretagne</type>
    <extensions>
      <osmand:color>#10c0f0</osmand:color>
      <osmand:background>square</osmand:background>
      <osmand:icon>public_bookcase</osmand:icon>
    </extensions>
  </wpt>
  <wpt lat="48.1176" lon="-1.60369">
    <name>Cesson-Sévigné z18134</name>
    <type>ZoneLivre Bretagne</type>
    <extensions>
      <osmand:color>#10c0f0</osmand:color>
      <osmand:background>square</osmand:background>
      <osmand:icon>public_bookcase</osmand:icon>
    </extensions>
  </wpt>
  <wpt lat="47.87074" lon="-3.91851">
    <name>Concarneau z18132</name>
    <type>ZoneLivre Bretagne</type>
    <extensions>
      <osmand:color>#10c0f0</osmand:color>
      <osmand:background>square</osmand:background>
      <osmand:icon>public_bookcase</osmand:icon>
    </extensions>
  </wpt>
  <wpt lat="47.84659" lon="-4.04105">
    <name>Fouesnant z18130</name>
    <type>ZoneLivre Bretagne</type>
    <extensions>
      <osmand:color>#10c0f0</osmand:color>
      <osmand:background>square</osmand:background>
      <osmand:icon>public_bookcase</osmand:icon>
    </extensions>
  </wpt>
  <wpt lat="47.65605" lon="-2.86945">
    <name>Ploeren z18084</name>
    <type>ZoneLivre Bretagne</type>
    <extensions>
      <osmand:color>#10c0f0</osmand:color>
      <osmand:background>square</osmand:background>
      <osmand:icon>public_bookcase</osmand:icon>
    </extensions>
  </wpt>
  <wpt lat="48.02207" lon="-4.53899">
    <name>Audierne z18070</name>
    <type>ZoneLivre Bretagne</type>
    <extensions>
      <osmand:color>#10c0f0</osmand:color>
      <osmand:background>square</osmand:background>
      <osmand:icon>public_bookcase</osmand:icon>
    </extensions>
  </wpt>
  <wpt lat="48.41438" lon="-4.35258">
    <name>Guipavas z17978</name>
    <type>ZoneLivre Bretagne</type>
    <extensions>
      <osmand:color>#10c0f0</osmand:color>
      <osmand:background>square</osmand:background>
      <osmand:icon>public_bookcase</osmand:icon>
    </extensions>
  </wpt>
  <wpt lat="48.066793" lon="-3.912334">
    <name>Langolen z17976</name>
    <type>ZoneLivre Bretagne</type>
    <extensions>
      <osmand:color>#10c0f0</osmand:color>
      <osmand:background>square</osmand:background>
      <osmand:icon>public_bookcase</osmand:icon>
    </extensions>
  </wpt>
  <wpt lat="48.43567" lon="-4.40015">
    <name>Guipavas z17974</name>
    <type>ZoneLivre Bretagne</type>
    <extensions>
      <osmand:color>#10c0f0</osmand:color>
      <osmand:background>square</osmand:background>
      <osmand:icon>public_bookcase</osmand:icon>
    </extensions>
  </wpt>
  <wpt lat="48.328491" lon="-1.64089">
    <name>Feins z17972</name>
    <type>ZoneLivre Bretagne</type>
    <extensions>
      <osmand:color>#10c0f0</osmand:color>
      <osmand:background>square</osmand:background>
      <osmand:icon>public_bookcase</osmand:icon>
    </extensions>
  </wpt>
  <wpt lat="48.43764" lon="-1.34361">
    <name>Les Portes du Coglais z17968</name>
    <type>ZoneLivre Bretagne</type>
    <extensions>
      <osmand:color>#10c0f0</osmand:color>
      <osmand:background>square</osmand:background>
      <osmand:icon>public_bookcase</osmand:icon>
    </extensions>
  </wpt>
  <wpt lat="48.74486" lon="-4.01535">
    <name>Île-de-Batz z17966</name>
    <type>ZoneLivre Bretagne</type>
    <extensions>
      <osmand:color>#10c0f0</osmand:color>
      <osmand:background>square</osmand:background>
      <osmand:icon>public_bookcase</osmand:icon>
    </extensions>
  </wpt>
  <wpt lat="48.15048" lon="-1.23644">
    <name>Montreuil-sous-Pérouse z17964</name>
    <type>ZoneLivre Bretagne</type>
    <extensions>
      <osmand:color>#10c0f0</osmand:color>
      <osmand:background>square</osmand:background>
      <osmand:icon>public_bookcase</osmand:icon>
    </extensions>
  </wpt>
  <wpt lat="48.60586" lon="-2.15097">
    <name>Lancieux z17959</name>
    <type>ZoneLivre Bretagne</type>
    <extensions>
      <osmand:color>#10c0f0</osmand:color>
      <osmand:background>square</osmand:background>
      <osmand:icon>public_bookcase</osmand:icon>
    </extensions>
  </wpt>
  <wpt lat="47.5706" lon="-3.08001">
    <name>Carnac z17948</name>
    <type>ZoneLivre Bretagne</type>
    <extensions>
      <osmand:color>#10c0f0</osmand:color>
      <osmand:background>square</osmand:background>
      <osmand:icon>public_bookcase</osmand:icon>
    </extensions>
  </wpt>
  <wpt lat="47.80358" lon="-1.74125">
    <name>La Noé-Blanche z17877</name>
    <type>ZoneLivre Bretagne</type>
    <extensions>
      <osmand:color>#10c0f0</osmand:color>
      <osmand:background>square</osmand:background>
      <osmand:icon>public_bookcase</osmand:icon>
    </extensions>
  </wpt>
  <wpt lat="48.50862" lon="-4.76469">
    <name>Porspoder z17822</name>
    <type>ZoneLivre Bretagne</type>
    <extensions>
      <osmand:color>#10c0f0</osmand:color>
      <osmand:background>square</osmand:background>
      <osmand:icon>public_bookcase</osmand:icon>
    </extensions>
  </wpt>
  <wpt lat="48.50287" lon="-4.4237">
    <name>Plabennec z17682</name>
    <type>ZoneLivre Bretagne</type>
    <extensions>
      <osmand:color>#10c0f0</osmand:color>
      <osmand:background>square</osmand:background>
      <osmand:icon>public_bookcase</osmand:icon>
    </extensions>
  </wpt>
  <wpt lat="47.62474" lon="-2.85936">
    <name>Arradon z17385</name>
    <type>ZoneLivre Bretagne</type>
    <extensions>
      <osmand:color>#10c0f0</osmand:color>
      <osmand:background>square</osmand:background>
      <osmand:icon>public_bookcase</osmand:icon>
    </extensions>
  </wpt>
  <wpt lat="47.69658" lon="-2.89843">
    <name>Pluneret z17383</name>
    <type>ZoneLivre Bretagne</type>
    <extensions>
      <osmand:color>#10c0f0</osmand:color>
      <osmand:background>square</osmand:background>
      <osmand:icon>public_bookcase</osmand:icon>
    </extensions>
  </wpt>
  <wpt lat="47.5181" lon="-2.66929">
    <name>Sarzeau z17381</name>
    <type>ZoneLivre Bretagne</type>
    <extensions>
      <osmand:color>#10c0f0</osmand:color>
      <osmand:background>square</osmand:background>
      <osmand:icon>public_bookcase</osmand:icon>
    </extensions>
  </wpt>
  <wpt lat="47.91959" lon="-2.27784">
    <name>Augan z17379</name>
    <type>ZoneLivre Bretagne</type>
    <extensions>
      <osmand:color>#10c0f0</osmand:color>
      <osmand:background>square</osmand:background>
      <osmand:icon>public_bookcase</osmand:icon>
    </extensions>
  </wpt>
  <wpt lat="48.12136" lon="-2.38799">
    <name>Brignac z17377</name>
    <type>ZoneLivre Bretagne</type>
    <extensions>
      <osmand:color>#10c0f0</osmand:color>
      <osmand:background>square</osmand:background>
      <osmand:icon>public_bookcase</osmand:icon>
    </extensions>
  </wpt>
  <wpt lat="47.87949" lon="-2.77439">
    <name>Bignan z17328</name>
    <type>ZoneLivre Bretagne</type>
    <extensions>
      <osmand:color>#10c0f0</osmand:color>
      <osmand:background>square</osmand:background>
      <osmand:icon>public_bookcase</osmand:icon>
    </extensions>
  </wpt>
  <wpt lat="48.54422" lon="-4.6554">
    <name>Ploudalmézeau z17143</name>
    <type>ZoneLivre Bretagne</type>
    <extensions>
      <osmand:color>#10c0f0</osmand:color>
      <osmand:background>square</osmand:background>
      <osmand:icon>public_bookcase</osmand:icon>
    </extensions>
  </wpt>
  <wpt lat="48.5554" lon="-4.69937">
    <name>Ploudalmézeau z17139</name>
    <type>ZoneLivre Bretagne</type>
    <extensions>
      <osmand:color>#10c0f0</osmand:color>
      <osmand:background>square</osmand:background>
      <osmand:icon>public_bookcase</osmand:icon>
    </extensions>
  </wpt>
  <wpt lat="48.043" lon="-4.32647">
    <name>Pouldergat z17137</name>
    <type>ZoneLivre Bretagne</type>
    <extensions>
      <osmand:color>#10c0f0</osmand:color>
      <osmand:background>square</osmand:background>
      <osmand:icon>public_bookcase</osmand:icon>
    </extensions>
  </wpt>
  <wpt lat="47.98297" lon="-4.27063">
    <name>Plogastel-Saint-Germain z17135</name>
    <type>ZoneLivre Bretagne</type>
    <extensions>
      <osmand:color>#10c0f0</osmand:color>
      <osmand:background>square</osmand:background>
      <osmand:icon>public_bookcase</osmand:icon>
    </extensions>
  </wpt>
  <wpt lat="47.98543" lon="-4.4207">
    <name>Plozévet z17133</name>
    <type>ZoneLivre Bretagne</type>
    <extensions>
      <osmand:color>#10c0f0</osmand:color>
      <osmand:background>square</osmand:background>
      <osmand:icon>public_bookcase</osmand:icon>
    </extensions>
  </wpt>
  <wpt lat="47.95457" lon="-4.36071">
    <name>Pouldreuzic z17130</name>
    <type>ZoneLivre Bretagne</type>
    <extensions>
      <osmand:color>#10c0f0</osmand:color>
      <osmand:background>square</osmand:background>
      <osmand:icon>public_bookcase</osmand:icon>
    </extensions>
  </wpt>
  <wpt lat="48.01656" lon="-4.53296">
    <name>Plouhinec z17128</name>
    <type>ZoneLivre Bretagne</type>
    <extensions>
      <osmand:color>#10c0f0</osmand:color>
      <osmand:background>square</osmand:background>
      <osmand:icon>public_bookcase</osmand:icon>
    </extensions>
  </wpt>
  <wpt lat="48.14218" lon="-1.89801">
    <name>Breteil z17103</name>
    <type>ZoneLivre Bretagne</type>
    <extensions>
      <osmand:color>#10c0f0</osmand:color>
      <osmand:background>square</osmand:background>
      <osmand:icon>public_bookcase</osmand:icon>
    </extensions>
  </wpt>
  <wpt lat="48.43885" lon="-3.89308">
    <name>Plounéour-Ménez z16891</name>
    <type>ZoneLivre Bretagne</type>
    <extensions>
      <osmand:color>#10c0f0</osmand:color>
      <osmand:background>square</osmand:background>
      <osmand:icon>public_bookcase</osmand:icon>
    </extensions>
  </wpt>
  <wpt lat="48.12408" lon="-1.65492">
    <name>Rennes z16268</name>
    <type>ZoneLivre Bretagne</type>
    <extensions>
      <osmand:color>#10c0f0</osmand:color>
      <osmand:background>square</osmand:background>
      <osmand:icon>public_bookcase</osmand:icon>
    </extensions>
  </wpt>
  <wpt lat="48.54482" lon="-3.39571">
    <name>Belle-Isle-en-Terre z16100</name>
    <type>ZoneLivre Bretagne</type>
    <extensions>
      <osmand:color>#10c0f0</osmand:color>
      <osmand:background>square</osmand:background>
      <osmand:icon>public_bookcase</osmand:icon>
    </extensions>
  </wpt>
  <wpt lat="47.730749" lon="-2.435693">
    <name>Molac z16024</name>
    <type>ZoneLivre Bretagne</type>
    <extensions>
      <osmand:color>#10c0f0</osmand:color>
      <osmand:background>square</osmand:background>
      <osmand:icon>public_bookcase</osmand:icon>
    </extensions>
  </wpt>
  <wpt lat="47.70415" lon="-3.3554">
    <name>Port-Louis z15884</name>
    <type>ZoneLivre Bretagne</type>
    <extensions>
      <osmand:color>#10c0f0</osmand:color>
      <osmand:background>square</osmand:background>
      <osmand:icon>public_bookcase</osmand:icon>
    </extensions>
  </wpt>
  <wpt lat="47.77729" lon="-3.00938">
    <name>Pluvigner z15864</name>
    <type>ZoneLivre Bretagne</type>
    <extensions>
      <osmand:color>#10c0f0</osmand:color>
      <osmand:background>square</osmand:background>
      <osmand:icon>public_bookcase</osmand:icon>
    </extensions>
  </wpt>
  <wpt lat="47.77439" lon="-2.94609">
    <name>Brandivy z15860</name>
    <type>ZoneLivre Bretagne</type>
    <extensions>
      <osmand:color>#10c0f0</osmand:color>
      <osmand:background>square</osmand:background>
      <osmand:icon>public_bookcase</osmand:icon>
    </extensions>
  </wpt>
  <wpt lat="47.59653" lon="-2.23925">
    <name>Béganne z15516</name>
    <type>ZoneLivre Bretagne</type>
    <extensions>
      <osmand:color>#10c0f0</osmand:color>
      <osmand:background>square</osmand:background>
      <osmand:icon>public_bookcase</osmand:icon>
    </extensions>
  </wpt>
  <wpt lat="47.835481" lon="-2.351133">
    <name>Missiriac z15304</name>
    <type>ZoneLivre Bretagne</type>
    <extensions>
      <osmand:color>#10c0f0</osmand:color>
      <osmand:background>square</osmand:background>
      <osmand:icon>public_bookcase</osmand:icon>
    </extensions>
  </wpt>
  <wpt lat="47.5452" lon="-2.15424">
    <name>Saint-Dolay z15249</name>
    <type>ZoneLivre Bretagne</type>
    <extensions>
      <osmand:color>#10c0f0</osmand:color>
      <osmand:background>square</osmand:background>
      <osmand:icon>public_bookcase</osmand:icon>
    </extensions>
  </wpt>
  <wpt lat="47.96993" lon="-1.40181">
    <name>Boistrudan z15227</name>
    <type>ZoneLivre Bretagne</type>
    <extensions>
      <osmand:color>#10c0f0</osmand:color>
      <osmand:background>square</osmand:background>
      <osmand:icon>public_bookcase</osmand:icon>
    </extensions>
  </wpt>
  <wpt lat="48.08257" lon="-2.28765">
    <name>Mauron z14783</name>
    <type>ZoneLivre Bretagne</type>
    <extensions>
      <osmand:color>#10c0f0</osmand:color>
      <osmand:background>square</osmand:background>
      <osmand:icon>public_bookcase</osmand:icon>
    </extensions>
  </wpt>
  <wpt lat="47.72606" lon="-2.28156">
    <name>Saint-Gravé z14738</name>
    <type>ZoneLivre Bretagne</type>
    <extensions>
      <osmand:color>#10c0f0</osmand:color>
      <osmand:background>square</osmand:background>
      <osmand:icon>public_bookcase</osmand:icon>
    </extensions>
  </wpt>
  <wpt lat="47.76952" lon="-2.31775">
    <name>Saint-Congard z14736</name>
    <type>ZoneLivre Bretagne</type>
    <extensions>
      <osmand:color>#10c0f0</osmand:color>
      <osmand:background>square</osmand:background>
      <osmand:icon>public_bookcase</osmand:icon>
    </extensions>
  </wpt>
  <wpt lat="47.53976" lon="-2.79331">
    <name>Sarzeau z14696</name>
    <type>ZoneLivre Bretagne</type>
    <extensions>
      <osmand:color>#10c0f0</osmand:color>
      <osmand:background>square</osmand:background>
      <osmand:icon>public_bookcase</osmand:icon>
    </extensions>
  </wpt>
  <wpt lat="47.65126" lon="-2.74498">
    <name>Vannes z14687</name>
    <type>ZoneLivre Bretagne</type>
    <extensions>
      <osmand:color>#10c0f0</osmand:color>
      <osmand:background>square</osmand:background>
      <osmand:icon>public_bookcase</osmand:icon>
    </extensions>
  </wpt>
  <wpt lat="47.65576" lon="-2.752097">
    <name>Vannes z14685</name>
    <type>ZoneLivre Bretagne</type>
    <extensions>
      <osmand:color>#10c0f0</osmand:color>
      <osmand:background>square</osmand:background>
      <osmand:icon>public_bookcase</osmand:icon>
    </extensions>
  </wpt>
  <wpt lat="47.54229" lon="-2.88003">
    <name>Arzon z14680</name>
    <type>ZoneLivre Bretagne</type>
    <extensions>
      <osmand:color>#10c0f0</osmand:color>
      <osmand:background>square</osmand:background>
      <osmand:icon>public_bookcase</osmand:icon>
    </extensions>
  </wpt>
  <wpt lat="47.52391" lon="-2.73647">
    <name>Sarzeau z14675</name>
    <type>ZoneLivre Bretagne</type>
    <extensions>
      <osmand:color>#10c0f0</osmand:color>
      <osmand:background>square</osmand:background>
      <osmand:icon>public_bookcase</osmand:icon>
    </extensions>
  </wpt>
  <wpt lat="47.52794" lon="-2.76654">
    <name>Sarzeau z14673</name>
    <type>ZoneLivre Bretagne</type>
    <extensions>
      <osmand:color>#10c0f0</osmand:color>
      <osmand:background>square</osmand:background>
      <osmand:icon>public_bookcase</osmand:icon>
    </extensions>
  </wpt>
  <wpt lat="47.52961" lon="-2.77386">
    <name>Sarzeau z14671</name>
    <type>ZoneLivre Bretagne</type>
    <extensions>
      <osmand:color>#10c0f0</osmand:color>
      <osmand:background>square</osmand:background>
      <osmand:icon>public_bookcase</osmand:icon>
    </extensions>
  </wpt>
  <wpt lat="47.76185" lon="-1.68785">
    <name>La Dominelais z14166</name>
    <type>ZoneLivre Bretagne</type>
    <extensions>
      <osmand:color>#10c0f0</osmand:color>
      <osmand:background>square</osmand:background>
      <osmand:icon>public_bookcase</osmand:icon>
    </extensions>
  </wpt>
  <wpt lat="48.20095" lon="-2.04635">
    <name>Montauban-de-Bretagne z14164</name>
    <type>ZoneLivre Bretagne</type>
    <extensions>
      <osmand:color>#10c0f0</osmand:color>
      <osmand:background>square</osmand:background>
      <osmand:icon>public_bookcase</osmand:icon>
    </extensions>
  </wpt>
  <wpt lat="48.57" lon="-1.76877">
    <name>Mont-Dol z14161</name>
    <type>ZoneLivre Bretagne</type>
    <extensions>
      <osmand:color>#10c0f0</osmand:color>
      <osmand:background>square</osmand:background>
      <osmand:icon>public_bookcase</osmand:icon>
    </extensions>
  </wpt>
  <wpt lat="48.14833" lon="-1.68942">
    <name>Saint-Grégoire z14122</name>
    <type>ZoneLivre Bretagne</type>
    <extensions>
      <osmand:color>#10c0f0</osmand:color>
      <osmand:background>square</osmand:background>
      <osmand:icon>public_bookcase</osmand:icon>
    </extensions>
  </wpt>
  <wpt lat="48.4966" lon="-1.58749">
    <name>Trans-la-Forêt z14062</name>
    <type>ZoneLivre Bretagne</type>
    <extensions>
      <osmand:color>#10c0f0</osmand:color>
      <osmand:background>square</osmand:background>
      <osmand:icon>public_bookcase</osmand:icon>
    </extensions>
  </wpt>
  <wpt lat="48.23717" lon="-3.31761">
    <name>Rostrenen z13929</name>
    <type>ZoneLivre Bretagne</type>
    <extensions>
      <osmand:color>#10c0f0</osmand:color>
      <osmand:background>square</osmand:background>
      <osmand:icon>public_bookcase</osmand:icon>
    </extensions>
  </wpt>
  <wpt lat="47.84487" lon="-2.72305">
    <name>Saint-Jean-Brévelay z13692</name>
    <type>ZoneLivre Bretagne</type>
    <extensions>
      <osmand:color>#10c0f0</osmand:color>
      <osmand:background>square</osmand:background>
      <osmand:icon>public_bookcase</osmand:icon>
    </extensions>
  </wpt>
  <wpt lat="48.02683" lon="-3.70198">
    <name>Scaër z13668</name>
    <type>ZoneLivre Bretagne</type>
    <extensions>
      <osmand:color>#10c0f0</osmand:color>
      <osmand:background>square</osmand:background>
      <osmand:icon>public_bookcase</osmand:icon>
    </extensions>
  </wpt>
  <wpt lat="47.93248" lon="-3.69892">
    <name>Bannalec z13666</name>
    <type>ZoneLivre Bretagne</type>
    <extensions>
      <osmand:color>#10c0f0</osmand:color>
      <osmand:background>square</osmand:background>
      <osmand:icon>public_bookcase</osmand:icon>
    </extensions>
  </wpt>
  <wpt lat="48.54429" lon="-1.96412">
    <name>La Ville-és-Nonais z13637</name>
    <type>ZoneLivre Bretagne</type>
    <extensions>
      <osmand:color>#10c0f0</osmand:color>
      <osmand:background>square</osmand:background>
      <osmand:icon>public_bookcase</osmand:icon>
    </extensions>
  </wpt>
  <wpt lat="48.07147" lon="-1.39368">
    <name>Domagné z13631</name>
    <type>ZoneLivre Bretagne</type>
    <extensions>
      <osmand:color>#10c0f0</osmand:color>
      <osmand:background>square</osmand:background>
      <osmand:icon>public_bookcase</osmand:icon>
    </extensions>
  </wpt>
  <wpt lat="48.37595" lon="-1.49759">
    <name>Romazy z13627</name>
    <type>ZoneLivre Bretagne</type>
    <extensions>
      <osmand:color>#10c0f0</osmand:color>
      <osmand:background>square</osmand:background>
      <osmand:icon>public_bookcase</osmand:icon>
    </extensions>
  </wpt>
  <wpt lat="48.64042" lon="-1.90398">
    <name>Saint-Méloir-des-Ondes z13621</name>
    <type>ZoneLivre Bretagne</type>
    <extensions>
      <osmand:color>#10c0f0</osmand:color>
      <osmand:background>square</osmand:background>
      <osmand:icon>public_bookcase</osmand:icon>
    </extensions>
  </wpt>
  <wpt lat="48.63758" lon="-1.9057">
    <name>Saint-Méloir-des-Ondes z13619</name>
    <type>ZoneLivre Bretagne</type>
    <extensions>
      <osmand:color>#10c0f0</osmand:color>
      <osmand:background>square</osmand:background>
      <osmand:icon>public_bookcase</osmand:icon>
    </extensions>
  </wpt>
  <wpt lat="48.17989" lon="-1.73389">
    <name>La Chapelle-des-Fougeretz z13617</name>
    <type>ZoneLivre Bretagne</type>
    <extensions>
      <osmand:color>#10c0f0</osmand:color>
      <osmand:background>square</osmand:background>
      <osmand:icon>public_bookcase</osmand:icon>
    </extensions>
  </wpt>
  <wpt lat="48.40343" lon="-1.32637">
    <name>Maen-Roch z13599</name>
    <type>ZoneLivre Bretagne</type>
    <extensions>
      <osmand:color>#10c0f0</osmand:color>
      <osmand:background>square</osmand:background>
      <osmand:icon>public_bookcase</osmand:icon>
    </extensions>
  </wpt>
  <wpt lat="48.41107" lon="-1.36254">
    <name>Maen-Roch z13597</name>
    <type>ZoneLivre Bretagne</type>
    <extensions>
      <osmand:color>#10c0f0</osmand:color>
      <osmand:background>square</osmand:background>
      <osmand:icon>public_bookcase</osmand:icon>
    </extensions>
  </wpt>
  <wpt lat="48.29466" lon="-1.63373">
    <name>Aubigné z13595</name>
    <type>ZoneLivre Bretagne</type>
    <extensions>
      <osmand:color>#10c0f0</osmand:color>
      <osmand:background>square</osmand:background>
      <osmand:icon>public_bookcase</osmand:icon>
    </extensions>
  </wpt>
  <wpt lat="48.05485" lon="-1.86987">
    <name>Bréal-sous-Montfort z13590</name>
    <type>ZoneLivre Bretagne</type>
    <extensions>
      <osmand:color>#10c0f0</osmand:color>
      <osmand:background>square</osmand:background>
      <osmand:icon>public_bookcase</osmand:icon>
    </extensions>
  </wpt>
  <wpt lat="47.99501" lon="-1.61445">
    <name>Bourgbarré z13588</name>
    <type>ZoneLivre Bretagne</type>
    <extensions>
      <osmand:color>#10c0f0</osmand:color>
      <osmand:background>square</osmand:background>
      <osmand:icon>public_bookcase</osmand:icon>
    </extensions>
  </wpt>
  <wpt lat="48.30103" lon="-3.89701">
    <name>Lannédern z13520</name>
    <type>ZoneLivre Bretagne</type>
    <extensions>
      <osmand:color>#10c0f0</osmand:color>
      <osmand:background>square</osmand:background>
      <osmand:icon>public_bookcase</osmand:icon>
    </extensions>
  </wpt>
  <wpt lat="47.90202" lon="-4.27978">
    <name>Plonéour-Lanvern z13516</name>
    <type>ZoneLivre Bretagne</type>
    <extensions>
      <osmand:color>#10c0f0</osmand:color>
      <osmand:background>square</osmand:background>
      <osmand:icon>public_bookcase</osmand:icon>
    </extensions>
  </wpt>
  <wpt lat="48.60397" lon="-3.90016">
    <name>Taulé z13510</name>
    <type>ZoneLivre Bretagne</type>
    <extensions>
      <osmand:color>#10c0f0</osmand:color>
      <osmand:background>square</osmand:background>
      <osmand:icon>public_bookcase</osmand:icon>
    </extensions>
  </wpt>
  <wpt lat="47.99305" lon="-3.88476">
    <name>Elliant z13506</name>
    <type>ZoneLivre Bretagne</type>
    <extensions>
      <osmand:color>#10c0f0</osmand:color>
      <osmand:background>square</osmand:background>
      <osmand:icon>public_bookcase</osmand:icon>
    </extensions>
  </wpt>
  <wpt lat="48.29817" lon="-1.72106">
    <name>Guipel z13467</name>
    <type>ZoneLivre Bretagne</type>
    <extensions>
      <osmand:color>#10c0f0</osmand:color>
      <osmand:background>square</osmand:background>
      <osmand:icon>public_bookcase</osmand:icon>
    </extensions>
  </wpt>
  <wpt lat="48.35712" lon="-1.71436">
    <name>Dinge z13464</name>
    <type>ZoneLivre Bretagne</type>
    <extensions>
      <osmand:color>#10c0f0</osmand:color>
      <osmand:background>square</osmand:background>
      <osmand:icon>public_bookcase</osmand:icon>
    </extensions>
  </wpt>
  <wpt lat="48.51159" lon="-3.87254">
    <name>Pleyber-Christ z13456</name>
    <type>ZoneLivre Bretagne</type>
    <extensions>
      <osmand:color>#10c0f0</osmand:color>
      <osmand:background>square</osmand:background>
      <osmand:icon>public_bookcase</osmand:icon>
    </extensions>
  </wpt>
  <wpt lat="47.81372" lon="-4.2115">
    <name>Plobannalec-Lesconil z13414</name>
    <type>ZoneLivre Bretagne</type>
    <extensions>
      <osmand:color>#10c0f0</osmand:color>
      <osmand:background>square</osmand:background>
      <osmand:icon>public_bookcase</osmand:icon>
    </extensions>
  </wpt>
  <wpt lat="47.87295" lon="-3.91011">
    <name>Concarneau z13412</name>
    <type>ZoneLivre Bretagne</type>
    <extensions>
      <osmand:color>#10c0f0</osmand:color>
      <osmand:background>square</osmand:background>
      <osmand:icon>public_bookcase</osmand:icon>
    </extensions>
  </wpt>
  <wpt lat="47.90635" lon="-4.21194">
    <name>Tréméoc z13410</name>
    <type>ZoneLivre Bretagne</type>
    <extensions>
      <osmand:color>#10c0f0</osmand:color>
      <osmand:background>square</osmand:background>
      <osmand:icon>public_bookcase</osmand:icon>
    </extensions>
  </wpt>
  <wpt lat="47.98001" lon="-4.18056">
    <name>Pluguffan z13408</name>
    <type>ZoneLivre Bretagne</type>
    <extensions>
      <osmand:color>#10c0f0</osmand:color>
      <osmand:background>square</osmand:background>
      <osmand:icon>public_bookcase</osmand:icon>
    </extensions>
  </wpt>
  <wpt lat="47.79743" lon="-4.21541">
    <name>Plobannalec-Lesconil z13361</name>
    <type>ZoneLivre Bretagne</type>
    <extensions>
      <osmand:color>#10c0f0</osmand:color>
      <osmand:background>square</osmand:background>
      <osmand:icon>public_bookcase</osmand:icon>
    </extensions>
  </wpt>
  <wpt lat="47.81273" lon="-4.33762">
    <name>Penmarch z13359</name>
    <type>ZoneLivre Bretagne</type>
    <extensions>
      <osmand:color>#10c0f0</osmand:color>
      <osmand:background>square</osmand:background>
      <osmand:icon>public_bookcase</osmand:icon>
    </extensions>
  </wpt>
  <wpt lat="47.82204" lon="-4.2288">
    <name>Plobannalec-Lesconil z13356</name>
    <type>ZoneLivre Bretagne</type>
    <extensions>
      <osmand:color>#10c0f0</osmand:color>
      <osmand:background>square</osmand:background>
      <osmand:icon>public_bookcase</osmand:icon>
    </extensions>
  </wpt>
  <wpt lat="47.65684" lon="-2.86606">
    <name>Ploeren z13161</name>
    <type>ZoneLivre Bretagne</type>
    <extensions>
      <osmand:color>#10c0f0</osmand:color>
      <osmand:background>square</osmand:background>
      <osmand:icon>public_bookcase</osmand:icon>
    </extensions>
  </wpt>
  <wpt lat="48.61684" lon="-4.21218">
    <name>Plounévez-Lochrist z13010</name>
    <type>ZoneLivre Bretagne</type>
    <extensions>
      <osmand:color>#10c0f0</osmand:color>
      <osmand:background>square</osmand:background>
      <osmand:icon>public_bookcase</osmand:icon>
    </extensions>
  </wpt>
  <wpt lat="47.4803" lon="-2.39778">
    <name>Camoël z13005</name>
    <type>ZoneLivre Bretagne</type>
    <extensions>
      <osmand:color>#10c0f0</osmand:color>
      <osmand:background>square</osmand:background>
      <osmand:icon>public_bookcase</osmand:icon>
    </extensions>
  </wpt>
  <wpt lat="48.30705" lon="-2.95273">
    <name>Saint-Martin-des-Prés z13002</name>
    <type>ZoneLivre Bretagne</type>
    <extensions>
      <osmand:color>#10c0f0</osmand:color>
      <osmand:background>square</osmand:background>
      <osmand:icon>public_bookcase</osmand:icon>
    </extensions>
  </wpt>
  <wpt lat="47.75816" lon="-2.7658">
    <name>Locqueltas z12998</name>
    <type>ZoneLivre Bretagne</type>
    <extensions>
      <osmand:color>#10c0f0</osmand:color>
      <osmand:background>square</osmand:background>
      <osmand:icon>public_bookcase</osmand:icon>
    </extensions>
  </wpt>
  <wpt lat="48.07974" lon="-1.30634">
    <name>Cornillé z12992</name>
    <type>ZoneLivre Bretagne</type>
    <extensions>
      <osmand:color>#10c0f0</osmand:color>
      <osmand:background>square</osmand:background>
      <osmand:icon>public_bookcase</osmand:icon>
    </extensions>
  </wpt>
  <wpt lat="48.01299" lon="-1.5913">
    <name>Saint-Armel z12858</name>
    <type>ZoneLivre Bretagne</type>
    <extensions>
      <osmand:color>#10c0f0</osmand:color>
      <osmand:background>square</osmand:background>
      <osmand:icon>public_bookcase</osmand:icon>
    </extensions>
  </wpt>
  <wpt lat="48.14043" lon="-1.10013">
    <name>La Chapelle-Erbrée z12832</name>
    <type>ZoneLivre Bretagne</type>
    <extensions>
      <osmand:color>#10c0f0</osmand:color>
      <osmand:background>square</osmand:background>
      <osmand:icon>public_bookcase</osmand:icon>
    </extensions>
  </wpt>
  <wpt lat="48.46987" lon="-2.88305">
    <name>Saint-Donan z12828</name>
    <type>ZoneLivre Bretagne</type>
    <extensions>
      <osmand:color>#10c0f0</osmand:color>
      <osmand:background>square</osmand:background>
      <osmand:icon>public_bookcase</osmand:icon>
    </extensions>
  </wpt>
  <wpt lat="48.17403" lon="-2.48679">
    <name>Gomené z12825</name>
    <type>ZoneLivre Bretagne</type>
    <extensions>
      <osmand:color>#10c0f0</osmand:color>
      <osmand:background>square</osmand:background>
      <osmand:icon>public_bookcase</osmand:icon>
    </extensions>
  </wpt>
  <wpt lat="48.22718" lon="-3.17831">
    <name>Gouarec z12072</name>
    <type>ZoneLivre Bretagne</type>
    <extensions>
      <osmand:color>#10c0f0</osmand:color>
      <osmand:background>square</osmand:background>
      <osmand:icon>public_bookcase</osmand:icon>
    </extensions>
  </wpt>
  <wpt lat="48.43828" lon="-2.15591">
    <name>Vildé-Guingalan z11855</name>
    <type>ZoneLivre Bretagne</type>
    <extensions>
      <osmand:color>#10c0f0</osmand:color>
      <osmand:background>square</osmand:background>
      <osmand:icon>public_bookcase</osmand:icon>
    </extensions>
  </wpt>
  <wpt lat="48.74937" lon="-2.9838">
    <name>Plouézec z11853</name>
    <type>ZoneLivre Bretagne</type>
    <extensions>
      <osmand:color>#10c0f0</osmand:color>
      <osmand:background>square</osmand:background>
      <osmand:icon>public_bookcase</osmand:icon>
    </extensions>
  </wpt>
  <wpt lat="48.80172" lon="-3.03173">
    <name>Ploubazlanec z11851</name>
    <type>ZoneLivre Bretagne</type>
    <extensions>
      <osmand:color>#10c0f0</osmand:color>
      <osmand:background>square</osmand:background>
      <osmand:icon>public_bookcase</osmand:icon>
    </extensions>
  </wpt>
  <wpt lat="48.23613" lon="-3.44343">
    <name>Paule z11849</name>
    <type>ZoneLivre Bretagne</type>
    <extensions>
      <osmand:color>#10c0f0</osmand:color>
      <osmand:background>square</osmand:background>
      <osmand:icon>public_bookcase</osmand:icon>
    </extensions>
  </wpt>
  <wpt lat="48.19153" lon="-2.85037">
    <name>Saint-Caradec z11847</name>
    <type>ZoneLivre Bretagne</type>
    <extensions>
      <osmand:color>#10c0f0</osmand:color>
      <osmand:background>square</osmand:background>
      <osmand:icon>public_bookcase</osmand:icon>
    </extensions>
  </wpt>
  <wpt lat="48.48984" lon="-2.74406">
    <name>Trégueux z11845</name>
    <type>ZoneLivre Bretagne</type>
    <extensions>
      <osmand:color>#10c0f0</osmand:color>
      <osmand:background>square</osmand:background>
      <osmand:icon>public_bookcase</osmand:icon>
    </extensions>
  </wpt>
  <wpt lat="48.56676" lon="-3.18342">
    <name>Plouisy z11843</name>
    <type>ZoneLivre Bretagne</type>
    <extensions>
      <osmand:color>#10c0f0</osmand:color>
      <osmand:background>square</osmand:background>
      <osmand:icon>public_bookcase</osmand:icon>
    </extensions>
  </wpt>
  <wpt lat="47.62967" lon="-2.65428">
    <name>Theix-Noyalo z11708</name>
    <type>ZoneLivre Bretagne</type>
    <extensions>
      <osmand:color>#10c0f0</osmand:color>
      <osmand:background>square</osmand:background>
      <osmand:icon>public_bookcase</osmand:icon>
    </extensions>
  </wpt>
  <wpt lat="47.5461" lon="-2.91333">
    <name>Arzon z11706</name>
    <type>ZoneLivre Bretagne</type>
    <extensions>
      <osmand:color>#10c0f0</osmand:color>
      <osmand:background>square</osmand:background>
      <osmand:icon>public_bookcase</osmand:icon>
    </extensions>
  </wpt>
  <wpt lat="47.50837" lon="-2.71287">
    <name>Sarzeau z11704</name>
    <type>ZoneLivre Bretagne</type>
    <extensions>
      <osmand:color>#10c0f0</osmand:color>
      <osmand:background>square</osmand:background>
      <osmand:icon>public_bookcase</osmand:icon>
    </extensions>
  </wpt>
  <wpt lat="48.6722" lon="-3.92264">
    <name>Carantec z11321</name>
    <type>ZoneLivre Bretagne</type>
    <extensions>
      <osmand:color>#10c0f0</osmand:color>
      <osmand:background>square</osmand:background>
      <osmand:icon>public_bookcase</osmand:icon>
    </extensions>
  </wpt>
  <wpt lat="48.6202" lon="-3.09056">
    <name>Pommerit-le-Vicomte z11205</name>
    <type>ZoneLivre Bretagne</type>
    <extensions>
      <osmand:color>#10c0f0</osmand:color>
      <osmand:background>square</osmand:background>
      <osmand:icon>public_bookcase</osmand:icon>
    </extensions>
  </wpt>
  <wpt lat="48.45567" lon="-2.04084">
    <name>Dinan z11168</name>
    <type>ZoneLivre Bretagne</type>
    <extensions>
      <osmand:color>#10c0f0</osmand:color>
      <osmand:background>square</osmand:background>
      <osmand:icon>public_bookcase</osmand:icon>
    </extensions>
  </wpt>
  <wpt lat="48.62985" lon="-2.46539">
    <name>Erquy z11166</name>
    <type>ZoneLivre Bretagne</type>
    <extensions>
      <osmand:color>#10c0f0</osmand:color>
      <osmand:background>square</osmand:background>
      <osmand:icon>public_bookcase</osmand:icon>
    </extensions>
  </wpt>
  <wpt lat="48.11072" lon="-1.6718">
    <name>Rennes z11164</name>
    <type>ZoneLivre Bretagne</type>
    <extensions>
      <osmand:color>#10c0f0</osmand:color>
      <osmand:background>square</osmand:background>
      <osmand:icon>public_bookcase</osmand:icon>
    </extensions>
  </wpt>
  <wpt lat="48.82587" lon="-3.08781">
    <name>Lézardrieux z10752</name>
    <type>ZoneLivre Bretagne</type>
    <extensions>
      <osmand:color>#10c0f0</osmand:color>
      <osmand:background>square</osmand:background>
      <osmand:icon>public_bookcase</osmand:icon>
    </extensions>
  </wpt>
  <wpt lat="48.84606" lon="-3.00025">
    <name>Île-de-Bréhat z10750</name>
    <type>ZoneLivre Bretagne</type>
    <extensions>
      <osmand:color>#10c0f0</osmand:color>
      <osmand:background>square</osmand:background>
      <osmand:icon>public_bookcase</osmand:icon>
    </extensions>
  </wpt>
  <wpt lat="48.80182" lon="-3.031307">
    <name>Ploubazlanec z10745</name>
    <type>ZoneLivre Bretagne</type>
    <extensions>
      <osmand:color>#10c0f0</osmand:color>
      <osmand:background>square</osmand:background>
      <osmand:icon>public_bookcase</osmand:icon>
    </extensions>
  </wpt>
  <wpt lat="48.5152" lon="-2.77772">
    <name>Saint-Brieuc z10687</name>
    <type>ZoneLivre Bretagne</type>
    <extensions>
      <osmand:color>#10c0f0</osmand:color>
      <osmand:background>square</osmand:background>
      <osmand:icon>public_bookcase</osmand:icon>
    </extensions>
  </wpt>
  <wpt lat="48.65788" lon="-3.00864">
    <name>Lannebert z10610</name>
    <type>ZoneLivre Bretagne</type>
    <extensions>
      <osmand:color>#10c0f0</osmand:color>
      <osmand:background>square</osmand:background>
      <osmand:icon>public_bookcase</osmand:icon>
    </extensions>
  </wpt>
  <wpt lat="47.9971" lon="-4.10064">
    <name>Quimper z10022</name>
    <type>ZoneLivre Bretagne</type>
    <extensions>
      <osmand:color>#10c0f0</osmand:color>
      <osmand:background>square</osmand:background>
      <osmand:icon>public_bookcase</osmand:icon>
    </extensions>
  </wpt>
  <wpt lat="47.74082" lon="-3.3741">
    <name>Lorient z9939</name>
    <type>ZoneLivre Bretagne</type>
    <extensions>
      <osmand:color>#10c0f0</osmand:color>
      <osmand:background>square</osmand:background>
      <osmand:icon>public_bookcase</osmand:icon>
    </extensions>
  </wpt>
  <wpt lat="48.20512" lon="-3.20867">
    <name>Plélauff z9937</name>
    <type>ZoneLivre Bretagne</type>
    <extensions>
      <osmand:color>#10c0f0</osmand:color>
      <osmand:background>square</osmand:background>
      <osmand:icon>public_bookcase</osmand:icon>
    </extensions>
  </wpt>
  <wpt lat="48.34456" lon="-1.82723">
    <name>Québriac z9742</name>
    <type>ZoneLivre Bretagne</type>
    <extensions>
      <osmand:color>#10c0f0</osmand:color>
      <osmand:background>square</osmand:background>
      <osmand:icon>public_bookcase</osmand:icon>
    </extensions>
  </wpt>
  <wpt lat="47.82235" lon="-1.81759">
    <name>Guipry-Messac z9713</name>
    <type>ZoneLivre Bretagne</type>
    <extensions>
      <osmand:color>#10c0f0</osmand:color>
      <osmand:background>square</osmand:background>
      <osmand:icon>public_bookcase</osmand:icon>
    </extensions>
  </wpt>
  <wpt lat="47.72647" lon="-1.73248">
    <name>Grand-Fougeray z9711</name>
    <type>ZoneLivre Bretagne</type>
    <extensions>
      <osmand:color>#10c0f0</osmand:color>
      <osmand:background>square</osmand:background>
      <osmand:icon>public_bookcase</osmand:icon>
    </extensions>
  </wpt>
  <wpt lat="47.72243" lon="-1.72997">
    <name>Grand-Fougeray z9675</name>
    <type>ZoneLivre Bretagne</type>
    <extensions>
      <osmand:color>#10c0f0</osmand:color>
      <osmand:background>square</osmand:background>
      <osmand:icon>public_bookcase</osmand:icon>
    </extensions>
  </wpt>
  <wpt lat="47.93088" lon="-2.39437">
    <name>Ploërmel z9673</name>
    <type>ZoneLivre Bretagne</type>
    <extensions>
      <osmand:color>#10c0f0</osmand:color>
      <osmand:background>square</osmand:background>
      <osmand:icon>public_bookcase</osmand:icon>
    </extensions>
  </wpt>
  <wpt lat="48.54539" lon="-2.22948">
    <name>Saint-Lormel z9626</name>
    <type>ZoneLivre Bretagne</type>
    <extensions>
      <osmand:color>#10c0f0</osmand:color>
      <osmand:background>square</osmand:background>
      <osmand:icon>public_bookcase</osmand:icon>
    </extensions>
  </wpt>
  <wpt lat="48.4136" lon="-2.1044">
    <name>Bobital z9623</name>
    <type>ZoneLivre Bretagne</type>
    <extensions>
      <osmand:color>#10c0f0</osmand:color>
      <osmand:background>square</osmand:background>
      <osmand:icon>public_bookcase</osmand:icon>
    </extensions>
  </wpt>
  <wpt lat="48.38116" lon="-1.98">
    <name>Evran z9621</name>
    <type>ZoneLivre Bretagne</type>
    <extensions>
      <osmand:color>#10c0f0</osmand:color>
      <osmand:background>square</osmand:background>
      <osmand:icon>public_bookcase</osmand:icon>
    </extensions>
  </wpt>
  <wpt lat="48.63551" lon="-1.90204">
    <name>Saint-Méloir-des-Ondes z9598</name>
    <type>ZoneLivre Bretagne</type>
    <extensions>
      <osmand:color>#10c0f0</osmand:color>
      <osmand:background>square</osmand:background>
      <osmand:icon>public_bookcase</osmand:icon>
    </extensions>
  </wpt>
  <wpt lat="48.58651" lon="-1.95504">
    <name>Saint-Père Marc en Poulet z9596</name>
    <type>ZoneLivre Bretagne</type>
    <extensions>
      <osmand:color>#10c0f0</osmand:color>
      <osmand:background>square</osmand:background>
      <osmand:icon>public_bookcase</osmand:icon>
    </extensions>
  </wpt>
  <wpt lat="48.56041" lon="-2.3774">
    <name>Hénanbihen z9594</name>
    <type>ZoneLivre Bretagne</type>
    <extensions>
      <osmand:color>#10c0f0</osmand:color>
      <osmand:background>square</osmand:background>
      <osmand:icon>public_bookcase</osmand:icon>
    </extensions>
  </wpt>
  <wpt lat="48.59782" lon="-2.18909">
    <name>Saint-Jacut-de-la-Mer z9591</name>
    <type>ZoneLivre Bretagne</type>
    <extensions>
      <osmand:color>#10c0f0</osmand:color>
      <osmand:background>square</osmand:background>
      <osmand:icon>public_bookcase</osmand:icon>
    </extensions>
  </wpt>
  <wpt lat="48.5761" lon="-2.13996">
    <name>Beaussais-sur-Mer z9589</name>
    <type>ZoneLivre Bretagne</type>
    <extensions>
      <osmand:color>#10c0f0</osmand:color>
      <osmand:background>square</osmand:background>
      <osmand:icon>public_bookcase</osmand:icon>
    </extensions>
  </wpt>
  <wpt lat="48.52172" lon="-2.23057">
    <name>Plancoët z9587</name>
    <type>ZoneLivre Bretagne</type>
    <extensions>
      <osmand:color>#10c0f0</osmand:color>
      <osmand:background>square</osmand:background>
      <osmand:icon>public_bookcase</osmand:icon>
    </extensions>
  </wpt>
  <wpt lat="48.54748" lon="-2.23077">
    <name>Saint-Lormel z9585</name>
    <type>ZoneLivre Bretagne</type>
    <extensions>
      <osmand:color>#10c0f0</osmand:color>
      <osmand:background>square</osmand:background>
      <osmand:icon>public_bookcase</osmand:icon>
    </extensions>
  </wpt>
  <wpt lat="48.48117" lon="-2.1685">
    <name>Corseul z9583</name>
    <type>ZoneLivre Bretagne</type>
    <extensions>
      <osmand:color>#10c0f0</osmand:color>
      <osmand:background>square</osmand:background>
      <osmand:icon>public_bookcase</osmand:icon>
    </extensions>
  </wpt>
  <wpt lat="48.01664" lon="-4.09843">
    <name>Quimper z9387</name>
    <type>ZoneLivre Bretagne</type>
    <extensions>
      <osmand:color>#10c0f0</osmand:color>
      <osmand:background>square</osmand:background>
      <osmand:icon>public_bookcase</osmand:icon>
    </extensions>
  </wpt>
  <wpt lat="48.50969" lon="-4.06948">
    <name>Landivisiau z9385</name>
    <type>ZoneLivre Bretagne</type>
    <extensions>
      <osmand:color>#10c0f0</osmand:color>
      <osmand:background>square</osmand:background>
      <osmand:icon>public_bookcase</osmand:icon>
    </extensions>
  </wpt>
  <wpt lat="48.59612" lon="-4.11287">
    <name>Plouzévédé z9383</name>
    <type>ZoneLivre Bretagne</type>
    <extensions>
      <osmand:color>#10c0f0</osmand:color>
      <osmand:background>square</osmand:background>
      <osmand:icon>public_bookcase</osmand:icon>
    </extensions>
  </wpt>
  <wpt lat="48.81577" lon="-3.44245">
    <name>Perros-Guirec z9375</name>
    <type>ZoneLivre Bretagne</type>
    <extensions>
      <osmand:color>#10c0f0</osmand:color>
      <osmand:background>square</osmand:background>
      <osmand:icon>public_bookcase</osmand:icon>
    </extensions>
  </wpt>
  <wpt lat="48.57308" lon="-2.43799">
    <name>La Bouillie z9356</name>
    <type>ZoneLivre Bretagne</type>
    <extensions>
      <osmand:color>#10c0f0</osmand:color>
      <osmand:background>square</osmand:background>
      <osmand:icon>public_bookcase</osmand:icon>
    </extensions>
  </wpt>
  <wpt lat="48.4692" lon="-2.51731">
    <name>Lamballe z9350</name>
    <type>ZoneLivre Bretagne</type>
    <extensions>
      <osmand:color>#10c0f0</osmand:color>
      <osmand:background>square</osmand:background>
      <osmand:icon>public_bookcase</osmand:icon>
    </extensions>
  </wpt>
  <wpt lat="48.22623" lon="-1.24581">
    <name>Saint-Christophe-des-Bois z9257</name>
    <type>ZoneLivre Bretagne</type>
    <extensions>
      <osmand:color>#10c0f0</osmand:color>
      <osmand:background>square</osmand:background>
      <osmand:icon>public_bookcase</osmand:icon>
    </extensions>
  </wpt>
  <wpt lat="48.64335" lon="-3.71596">
    <name>Lanmeur z9186</name>
    <type>ZoneLivre Bretagne</type>
    <extensions>
      <osmand:color>#10c0f0</osmand:color>
      <osmand:background>square</osmand:background>
      <osmand:icon>public_bookcase</osmand:icon>
    </extensions>
  </wpt>
  <wpt lat="47.76335" lon="-3.33015">
    <name>Lanester z9178</name>
    <type>ZoneLivre Bretagne</type>
    <extensions>
      <osmand:color>#10c0f0</osmand:color>
      <osmand:background>square</osmand:background>
      <osmand:icon>public_bookcase</osmand:icon>
    </extensions>
  </wpt>
  <wpt lat="48.51635" lon="-2.74329">
    <name>Saint-Brieuc z9176</name>
    <type>ZoneLivre Bretagne</type>
    <extensions>
      <osmand:color>#10c0f0</osmand:color>
      <osmand:background>square</osmand:background>
      <osmand:icon>public_bookcase</osmand:icon>
    </extensions>
  </wpt>
  <wpt lat="47.88391" lon="-4.15591">
    <name>Combrit z9167</name>
    <type>ZoneLivre Bretagne</type>
    <extensions>
      <osmand:color>#10c0f0</osmand:color>
      <osmand:background>square</osmand:background>
      <osmand:icon>public_bookcase</osmand:icon>
    </extensions>
  </wpt>
  <wpt lat="47.97644" lon="-3.28245">
    <name>Inguiniel z9145</name>
    <type>ZoneLivre Bretagne</type>
    <extensions>
      <osmand:color>#10c0f0</osmand:color>
      <osmand:background>square</osmand:background>
      <osmand:icon>public_bookcase</osmand:icon>
    </extensions>
  </wpt>
  <wpt lat="48.536159" lon="-4.311699">
    <name>Ploudaniel z9143</name>
    <type>ZoneLivre Bretagne</type>
    <extensions>
      <osmand:color>#10c0f0</osmand:color>
      <osmand:background>square</osmand:background>
      <osmand:icon>public_bookcase</osmand:icon>
    </extensions>
  </wpt>
  <wpt lat="48.54779" lon="-2.21185">
    <name>Créhen z9139</name>
    <type>ZoneLivre Bretagne</type>
    <extensions>
      <osmand:color>#10c0f0</osmand:color>
      <osmand:background>square</osmand:background>
      <osmand:icon>public_bookcase</osmand:icon>
    </extensions>
  </wpt>
  <wpt lat="48.39099" lon="-2.12717">
    <name>Brusvily z9137</name>
    <type>ZoneLivre Bretagne</type>
    <extensions>
      <osmand:color>#10c0f0</osmand:color>
      <osmand:background>square</osmand:background>
      <osmand:icon>public_bookcase</osmand:icon>
    </extensions>
  </wpt>
  <wpt lat="47.9838" lon="-4.18138">
    <name>Pluguffan z9129</name>
    <type>ZoneLivre Bretagne</type>
    <extensions>
      <osmand:color>#10c0f0</osmand:color>
      <osmand:background>square</osmand:background>
      <osmand:icon>public_bookcase</osmand:icon>
    </extensions>
  </wpt>
  <wpt lat="48.63608" lon="-2.11064">
    <name>Saint-Lunaire z8523</name>
    <type>ZoneLivre Bretagne</type>
    <extensions>
      <osmand:color>#10c0f0</osmand:color>
      <osmand:background>square</osmand:background>
      <osmand:icon>public_bookcase</osmand:icon>
    </extensions>
  </wpt>
  <wpt lat="48.63665" lon="-2.10914">
    <name>Saint-Lunaire z8521</name>
    <type>ZoneLivre Bretagne</type>
    <extensions>
      <osmand:color>#10c0f0</osmand:color>
      <osmand:background>square</osmand:background>
      <osmand:icon>public_bookcase</osmand:icon>
    </extensions>
  </wpt>
  <wpt lat="48.63105" lon="-2.10639">
    <name>Saint-Lunaire z8519</name>
    <type>ZoneLivre Bretagne</type>
    <extensions>
      <osmand:color>#10c0f0</osmand:color>
      <osmand:background>square</osmand:background>
      <osmand:icon>public_bookcase</osmand:icon>
    </extensions>
  </wpt>
  <wpt lat="48.63485" lon="-2.10858">
    <name>Saint-Lunaire z8517</name>
    <type>ZoneLivre Bretagne</type>
    <extensions>
      <osmand:color>#10c0f0</osmand:color>
      <osmand:background>square</osmand:background>
      <osmand:icon>public_bookcase</osmand:icon>
    </extensions>
  </wpt>
  <wpt lat="48.6327" lon="-2.0828">
    <name>Saint-Lunaire z8499</name>
    <type>ZoneLivre Bretagne</type>
    <extensions>
      <osmand:color>#10c0f0</osmand:color>
      <osmand:background>square</osmand:background>
      <osmand:icon>public_bookcase</osmand:icon>
    </extensions>
  </wpt>
  <wpt lat="48.40907" lon="-2.02875">
    <name>Calorguen z8486</name>
    <type>ZoneLivre Bretagne</type>
    <extensions>
      <osmand:color>#10c0f0</osmand:color>
      <osmand:background>square</osmand:background>
      <osmand:icon>public_bookcase</osmand:icon>
    </extensions>
  </wpt>
  <wpt lat="48.38412" lon="-1.82445">
    <name>La Chapelle-aux-Filtzméens z8484</name>
    <type>ZoneLivre Bretagne</type>
    <extensions>
      <osmand:color>#10c0f0</osmand:color>
      <osmand:background>square</osmand:background>
      <osmand:icon>public_bookcase</osmand:icon>
    </extensions>
  </wpt>
  <wpt lat="48.15523" lon="-1.58601">
    <name>Thorigné-Fouillard z8445</name>
    <type>ZoneLivre Bretagne</type>
    <extensions>
      <osmand:color>#10c0f0</osmand:color>
      <osmand:background>square</osmand:background>
      <osmand:icon>public_bookcase</osmand:icon>
    </extensions>
  </wpt>
  <wpt lat="48.00608" lon="-1.84653">
    <name>Goven z8443</name>
    <type>ZoneLivre Bretagne</type>
    <extensions>
      <osmand:color>#10c0f0</osmand:color>
      <osmand:background>square</osmand:background>
      <osmand:icon>public_bookcase</osmand:icon>
    </extensions>
  </wpt>
  <wpt lat="47.514826" lon="-2.55228">
    <name>Damgan z8374</name>
    <type>ZoneLivre Bretagne</type>
    <extensions>
      <osmand:color>#10c0f0</osmand:color>
      <osmand:background>square</osmand:background>
      <osmand:icon>public_bookcase</osmand:icon>
    </extensions>
  </wpt>
  <wpt lat="48.01678" lon="-4.35777">
    <name>Guiler-sur-Goyen z8370</name>
    <type>ZoneLivre Bretagne</type>
    <extensions>
      <osmand:color>#10c0f0</osmand:color>
      <osmand:background>square</osmand:background>
      <osmand:icon>public_bookcase</osmand:icon>
    </extensions>
  </wpt>
  <wpt lat="48.43171" lon="-4.72788">
    <name>Plouarzel z8368</name>
    <type>ZoneLivre Bretagne</type>
    <extensions>
      <osmand:color>#10c0f0</osmand:color>
      <osmand:background>square</osmand:background>
      <osmand:icon>public_bookcase</osmand:icon>
    </extensions>
  </wpt>
  <wpt lat="48.43361" lon="-4.72931">
    <name>Plouarzel z8366</name>
    <type>ZoneLivre Bretagne</type>
    <extensions>
      <osmand:color>#10c0f0</osmand:color>
      <osmand:background>square</osmand:background>
      <osmand:icon>public_bookcase</osmand:icon>
    </extensions>
  </wpt>
  <wpt lat="48.4236" lon="-4.77013">
    <name>Plouarzel z8364</name>
    <type>ZoneLivre Bretagne</type>
    <extensions>
      <osmand:color>#10c0f0</osmand:color>
      <osmand:background>square</osmand:background>
      <osmand:icon>public_bookcase</osmand:icon>
    </extensions>
  </wpt>
  <wpt lat="48.4331" lon="-4.73284">
    <name>Plouarzel z8362</name>
    <type>ZoneLivre Bretagne</type>
    <extensions>
      <osmand:color>#10c0f0</osmand:color>
      <osmand:background>square</osmand:background>
      <osmand:icon>public_bookcase</osmand:icon>
    </extensions>
  </wpt>
  <wpt lat="48.56356" lon="-3.15702">
    <name>Guingamp z8350</name>
    <type>ZoneLivre Bretagne</type>
    <extensions>
      <osmand:color>#10c0f0</osmand:color>
      <osmand:background>square</osmand:background>
      <osmand:icon>public_bookcase</osmand:icon>
    </extensions>
  </wpt>
  <wpt lat="47.92059" lon="-2.81661">
    <name>Moréac z8348</name>
    <type>ZoneLivre Bretagne</type>
    <extensions>
      <osmand:color>#10c0f0</osmand:color>
      <osmand:background>square</osmand:background>
      <osmand:icon>public_bookcase</osmand:icon>
    </extensions>
  </wpt>
  <wpt lat="48.44896" lon="-4.76386">
    <name>Lampaul-Plouarzel z8346</name>
    <type>ZoneLivre Bretagne</type>
    <extensions>
      <osmand:color>#10c0f0</osmand:color>
      <osmand:background>square</osmand:background>
      <osmand:icon>public_bookcase</osmand:icon>
    </extensions>
  </wpt>
  <wpt lat="48.1495" lon="-1.82204">
    <name>Saint-Gilles z8322</name>
    <type>ZoneLivre Bretagne</type>
    <extensions>
      <osmand:color>#10c0f0</osmand:color>
      <osmand:background>square</osmand:background>
      <osmand:icon>public_bookcase</osmand:icon>
    </extensions>
  </wpt>
  <wpt lat="47.59749" lon="-3.11189">
    <name>Plouharnel z8283</name>
    <type>ZoneLivre Bretagne</type>
    <extensions>
      <osmand:color>#10c0f0</osmand:color>
      <osmand:background>square</osmand:background>
      <osmand:icon>public_bookcase</osmand:icon>
    </extensions>
  </wpt>
  <wpt lat="47.586822" lon="-3.001046">
    <name>Saint-Philibert z8281</name>
    <type>ZoneLivre Bretagne</type>
    <extensions>
      <osmand:color>#10c0f0</osmand:color>
      <osmand:background>square</osmand:background>
      <osmand:icon>public_bookcase</osmand:icon>
    </extensions>
  </wpt>
  <wpt lat="47.57194" lon="-2.99433">
    <name>Saint-Philibert z8279</name>
    <type>ZoneLivre Bretagne</type>
    <extensions>
      <osmand:color>#10c0f0</osmand:color>
      <osmand:background>square</osmand:background>
      <osmand:icon>public_bookcase</osmand:icon>
    </extensions>
  </wpt>
  <wpt lat="47.62245" lon="-3.00373">
    <name>Crac'h z8277</name>
    <type>ZoneLivre Bretagne</type>
    <extensions>
      <osmand:color>#10c0f0</osmand:color>
      <osmand:background>square</osmand:background>
      <osmand:icon>public_bookcase</osmand:icon>
    </extensions>
  </wpt>
  <wpt lat="48.65283" lon="-2.83749">
    <name>Saint-Quay-Portrieux z8178</name>
    <type>ZoneLivre Bretagne</type>
    <extensions>
      <osmand:color>#10c0f0</osmand:color>
      <osmand:background>square</osmand:background>
      <osmand:icon>public_bookcase</osmand:icon>
    </extensions>
  </wpt>
  <wpt lat="47.75844" lon="-2.84321">
    <name>Grand-Champ z8151</name>
    <type>ZoneLivre Bretagne</type>
    <extensions>
      <osmand:color>#10c0f0</osmand:color>
      <osmand:background>square</osmand:background>
      <osmand:icon>public_bookcase</osmand:icon>
    </extensions>
  </wpt>
  <wpt lat="47.75814" lon="-2.84428">
    <name>Grand-Champ z8148</name>
    <type>ZoneLivre Bretagne</type>
    <extensions>
      <osmand:color>#10c0f0</osmand:color>
      <osmand:background>square</osmand:background>
      <osmand:icon>public_bookcase</osmand:icon>
    </extensions>
  </wpt>
  <wpt lat="47.73226" lon="-2.59048">
    <name>Elven z7993</name>
    <type>ZoneLivre Bretagne</type>
    <extensions>
      <osmand:color>#10c0f0</osmand:color>
      <osmand:background>square</osmand:background>
      <osmand:icon>public_bookcase</osmand:icon>
    </extensions>
  </wpt>
  <wpt lat="47.82107" lon="-1.82205">
    <name>Guipry-Messac z7976</name>
    <type>ZoneLivre Bretagne</type>
    <extensions>
      <osmand:color>#10c0f0</osmand:color>
      <osmand:background>square</osmand:background>
      <osmand:icon>public_bookcase</osmand:icon>
    </extensions>
  </wpt>
  <wpt lat="48.56208" lon="-4.33548">
    <name>Le Folgoët z7965</name>
    <type>ZoneLivre Bretagne</type>
    <extensions>
      <osmand:color>#10c0f0</osmand:color>
      <osmand:background>square</osmand:background>
      <osmand:icon>public_bookcase</osmand:icon>
    </extensions>
  </wpt>
  <wpt lat="47.69849" lon="-2.33309">
    <name>Rochefort-en-Terre z7963</name>
    <type>ZoneLivre Bretagne</type>
    <extensions>
      <osmand:color>#10c0f0</osmand:color>
      <osmand:background>square</osmand:background>
      <osmand:icon>public_bookcase</osmand:icon>
    </extensions>
  </wpt>
  <wpt lat="47.80791" lon="-4.26269">
    <name>Treffiagat z7961</name>
    <type>ZoneLivre Bretagne</type>
    <extensions>
      <osmand:color>#10c0f0</osmand:color>
      <osmand:background>square</osmand:background>
      <osmand:icon>public_bookcase</osmand:icon>
    </extensions>
  </wpt>
  <wpt lat="47.7925" lon="-4.27218">
    <name>Treffiagat z7959</name>
    <type>ZoneLivre Bretagne</type>
    <extensions>
      <osmand:color>#10c0f0</osmand:color>
      <osmand:background>square</osmand:background>
      <osmand:icon>public_bookcase</osmand:icon>
    </extensions>
  </wpt>
  <wpt lat="48.79736" lon="-3.23804">
    <name>Plouguiel z7957</name>
    <type>ZoneLivre Bretagne</type>
    <extensions>
      <osmand:color>#10c0f0</osmand:color>
      <osmand:background>square</osmand:background>
      <osmand:icon>public_bookcase</osmand:icon>
    </extensions>
  </wpt>
  <wpt lat="48.43229" lon="-4.61541">
    <name>Saint-Renan z7955</name>
    <type>ZoneLivre Bretagne</type>
    <extensions>
      <osmand:color>#10c0f0</osmand:color>
      <osmand:background>square</osmand:background>
      <osmand:icon>public_bookcase</osmand:icon>
    </extensions>
  </wpt>
  <wpt lat="47.74157" lon="-2.91829">
    <name>Plumergat z7949</name>
    <type>ZoneLivre Bretagne</type>
    <extensions>
      <osmand:color>#10c0f0</osmand:color>
      <osmand:background>square</osmand:background>
      <osmand:icon>public_bookcase</osmand:icon>
    </extensions>
  </wpt>
  <wpt lat="47.89464" lon="-3.63815">
    <name>Le Trévoux z7945</name>
    <type>ZoneLivre Bretagne</type>
    <extensions>
      <osmand:color>#10c0f0</osmand:color>
      <osmand:background>square</osmand:background>
      <osmand:icon>public_bookcase</osmand:icon>
    </extensions>
  </wpt>
  <wpt lat="47.8036" lon="-3.43828">
    <name>Gestel z7938</name>
    <type>ZoneLivre Bretagne</type>
    <extensions>
      <osmand:color>#10c0f0</osmand:color>
      <osmand:background>square</osmand:background>
      <osmand:icon>public_bookcase</osmand:icon>
    </extensions>
  </wpt>
  <wpt lat="48.11908" lon="-1.702052">
    <name>Rennes z7936</name>
    <type>ZoneLivre Bretagne</type>
    <extensions>
      <osmand:color>#10c0f0</osmand:color>
      <osmand:background>square</osmand:background>
      <osmand:icon>public_bookcase</osmand:icon>
    </extensions>
  </wpt>
  <wpt lat="48.4898" lon="-2.00101">
    <name>La Vicomté-sur-Rance z7762</name>
    <type>ZoneLivre Bretagne</type>
    <extensions>
      <osmand:color>#10c0f0</osmand:color>
      <osmand:background>square</osmand:background>
      <osmand:icon>public_bookcase</osmand:icon>
    </extensions>
  </wpt>
  <wpt lat="48.61394" lon="-1.95826">
    <name>Saint-Malo z7760</name>
    <type>ZoneLivre Bretagne</type>
    <extensions>
      <osmand:color>#10c0f0</osmand:color>
      <osmand:background>square</osmand:background>
      <osmand:icon>public_bookcase</osmand:icon>
    </extensions>
  </wpt>
  <wpt lat="48.486927" lon="-1.982912">
    <name>La Vicomté-sur-Rance z7758</name>
    <type>ZoneLivre Bretagne</type>
    <extensions>
      <osmand:color>#10c0f0</osmand:color>
      <osmand:background>square</osmand:background>
      <osmand:icon>public_bookcase</osmand:icon>
    </extensions>
  </wpt>
  <wpt lat="48.63668" lon="-2.02081">
    <name>Saint-Malo z7756</name>
    <type>ZoneLivre Bretagne</type>
    <extensions>
      <osmand:color>#10c0f0</osmand:color>
      <osmand:background>square</osmand:background>
      <osmand:icon>public_bookcase</osmand:icon>
    </extensions>
  </wpt>
  <wpt lat="48.64941" lon="-2.02719">
    <name>Saint-Malo z7754</name>
    <type>ZoneLivre Bretagne</type>
    <extensions>
      <osmand:color>#10c0f0</osmand:color>
      <osmand:background>square</osmand:background>
      <osmand:icon>public_bookcase</osmand:icon>
    </extensions>
  </wpt>
  <wpt lat="48.63764" lon="-2.01629">
    <name>Saint-Malo z7752</name>
    <type>ZoneLivre Bretagne</type>
    <extensions>
      <osmand:color>#10c0f0</osmand:color>
      <osmand:background>square</osmand:background>
      <osmand:icon>public_bookcase</osmand:icon>
    </extensions>
  </wpt>
  <wpt lat="48.05252" lon="-1.78855">
    <name>Chavagne z7750</name>
    <type>ZoneLivre Bretagne</type>
    <extensions>
      <osmand:color>#10c0f0</osmand:color>
      <osmand:background>square</osmand:background>
      <osmand:icon>public_bookcase</osmand:icon>
    </extensions>
  </wpt>
  <wpt lat="48.34026" lon="-4.71824">
    <name>Plougonvelin z7745</name>
    <type>ZoneLivre Bretagne</type>
    <extensions>
      <osmand:color>#10c0f0</osmand:color>
      <osmand:background>square</osmand:background>
      <osmand:icon>public_bookcase</osmand:icon>
    </extensions>
  </wpt>
  <wpt lat="48.67556" lon="-1.9113">
    <name>Saint-Coulomb z7462</name>
    <type>ZoneLivre Bretagne</type>
    <extensions>
      <osmand:color>#10c0f0</osmand:color>
      <osmand:background>square</osmand:background>
      <osmand:icon>public_bookcase</osmand:icon>
    </extensions>
  </wpt>
  <wpt lat="48.58818" lon="-1.92434">
    <name>Saint-Père Marc en Poulet z7457</name>
    <type>ZoneLivre Bretagne</type>
    <extensions>
      <osmand:color>#10c0f0</osmand:color>
      <osmand:background>square</osmand:background>
      <osmand:icon>public_bookcase</osmand:icon>
    </extensions>
  </wpt>
  <wpt lat="48.62135" lon="-1.85363">
    <name>Saint-Benoît-des-Ondes z7455</name>
    <type>ZoneLivre Bretagne</type>
    <extensions>
      <osmand:color>#10c0f0</osmand:color>
      <osmand:background>square</osmand:background>
      <osmand:icon>public_bookcase</osmand:icon>
    </extensions>
  </wpt>
  <wpt lat="47.76181" lon="-3.37199">
    <name>Lorient z7280</name>
    <type>ZoneLivre Bretagne</type>
    <extensions>
      <osmand:color>#10c0f0</osmand:color>
      <osmand:background>square</osmand:background>
      <osmand:icon>public_bookcase</osmand:icon>
    </extensions>
  </wpt>
  <wpt lat="47.90681" lon="-4.04345">
    <name>Pleuven z7268</name>
    <type>ZoneLivre Bretagne</type>
    <extensions>
      <osmand:color>#10c0f0</osmand:color>
      <osmand:background>square</osmand:background>
      <osmand:icon>public_bookcase</osmand:icon>
    </extensions>
  </wpt>
  <wpt lat="48.21936" lon="-1.75366">
    <name>La Mézière z6593</name>
    <type>ZoneLivre Bretagne</type>
    <extensions>
      <osmand:color>#10c0f0</osmand:color>
      <osmand:background>square</osmand:background>
      <osmand:icon>public_bookcase</osmand:icon>
    </extensions>
  </wpt>
  <wpt lat="48.24703" lon="-1.72778">
    <name>Montreuil-le-Gast z6591</name>
    <type>ZoneLivre Bretagne</type>
    <extensions>
      <osmand:color>#10c0f0</osmand:color>
      <osmand:background>square</osmand:background>
      <osmand:icon>public_bookcase</osmand:icon>
    </extensions>
  </wpt>
  <wpt lat="48.217496" lon="-1.697085">
    <name>Melesse z6589</name>
    <type>ZoneLivre Bretagne</type>
    <extensions>
      <osmand:color>#10c0f0</osmand:color>
      <osmand:background>square</osmand:background>
      <osmand:icon>public_bookcase</osmand:icon>
    </extensions>
  </wpt>
  <wpt lat="48.23703" lon="-1.56618">
    <name>Chasné-sur-Illet z6587</name>
    <type>ZoneLivre Bretagne</type>
    <extensions>
      <osmand:color>#10c0f0</osmand:color>
      <osmand:background>square</osmand:background>
      <osmand:icon>public_bookcase</osmand:icon>
    </extensions>
  </wpt>
  <wpt lat="48.34276" lon="-1.48811">
    <name>Vieux-Vy-sur-Couesnon z6585</name>
    <type>ZoneLivre Bretagne</type>
    <extensions>
      <osmand:color>#10c0f0</osmand:color>
      <osmand:background>square</osmand:background>
      <osmand:icon>public_bookcase</osmand:icon>
    </extensions>
  </wpt>
  <wpt lat="48.29519" lon="-1.58994">
    <name>Andouillé-Neuville z6583</name>
    <type>ZoneLivre Bretagne</type>
    <extensions>
      <osmand:color>#10c0f0</osmand:color>
      <osmand:background>square</osmand:background>
      <osmand:icon>public_bookcase</osmand:icon>
    </extensions>
  </wpt>
  <wpt lat="48.2491" lon="-1.65973">
    <name>Saint-Germain-sur-Ille z6581</name>
    <type>ZoneLivre Bretagne</type>
    <extensions>
      <osmand:color>#10c0f0</osmand:color>
      <osmand:background>square</osmand:background>
      <osmand:icon>public_bookcase</osmand:icon>
    </extensions>
  </wpt>
  <wpt lat="47.6262" lon="-2.82402">
    <name>Arradon z6404</name>
    <type>ZoneLivre Bretagne</type>
    <extensions>
      <osmand:color>#10c0f0</osmand:color>
      <osmand:background>square</osmand:background>
      <osmand:icon>public_bookcase</osmand:icon>
    </extensions>
  </wpt>
  <wpt lat="47.62889" lon="-3.433">
    <name>Groix z6398</name>
    <type>ZoneLivre Bretagne</type>
    <extensions>
      <osmand:color>#10c0f0</osmand:color>
      <osmand:background>square</osmand:background>
      <osmand:icon>public_bookcase</osmand:icon>
    </extensions>
  </wpt>