<?xml version='1.0' encoding='UTF-8' standalone='yes' ?>
<gpx version="1.1" creator="Binnette" xmlns="http://www.topografix.com/GPX/1/1" xmlns:osmand="https://osmand.net" xmlns:xsi="http://www.w3.org/2001/XMLSchema-instance" xsi:schemaLocation="http://www.topografix.com/GPX/1/1 http://www.topografix.com/GPX/1/1/gpx.xsd">
  <wpt lat="48.384071" lon="-4.498384">
    <name>Brest z30712</name>
    <type>ZoneLivre Bretagne</type>
    <extensions>
      <osmand:color>#10c0f0</osmand:color>
      <osmand:background>square</osmand:background>
      <osmand:icon>public_bookcase</osmand:icon>
    </extensions>
  </wpt>
  <wpt lat="48.386978" lon="-4.492397">
    <name>Brest z30708</name>
    <type>ZoneLivre Bretagne</type>
    <extensions>
      <osmand:color>#10c0f0</osmand:color>
      <osmand:background>square</osmand:background>
      <osmand:icon>public_bookcase</osmand:icon>
    </extensions>
  </wpt>
  <wpt lat="48.454303" lon="-4.336386">
    <name>Saint-Divy z30705</name>
    <type>ZoneLivre Bretagne</type>
    <extensions>
      <osmand:color>#10c0f0</osmand:color>
      <osmand:background>square</osmand:background>
      <osmand:icon>public_bookcase</osmand:icon>
    </extensions>
  </wpt>
  <wpt lat="48.472224" lon="-4.203711">
    <name>La Roche-Maurice z30703</name>
    <type>ZoneLivre Bretagne</type>
    <extensions>
      <osmand:color>#10c0f0</osmand:color>
      <osmand:background>square</osmand:background>
      <osmand:icon>public_bookcase</osmand:icon>
    </extensions>
  </wpt>
  <wpt lat="48.504159" lon="-4.254303">
    <name>Trémaouézan z30700</name>
    <type>ZoneLivre Bretagne</type>
    <extensions>
      <osmand:color>#10c0f0</osmand:color>
      <osmand:background>square</osmand:background>
      <osmand:icon>public_bookcase</osmand:icon>
    </extensions>
  </wpt>
  <wpt lat="48.515085" lon="-4.216486">
    <name>Plounéventer z30698</name>
    <type>ZoneLivre Bretagne</type>
    <extensions>
      <osmand:color>#10c0f0</osmand:color>
      <osmand:background>square</osmand:background>
      <osmand:icon>public_bookcase</osmand:icon>
    </extensions>
  </wpt>
  <wpt lat="48.447975" lon="-4.158921">
    <name>La Martyre z30696</name>
    <type>ZoneLivre Bretagne</type>
    <extensions>
      <osmand:color>#10c0f0</osmand:color>
      <osmand:background>square</osmand:background>
      <osmand:icon>public_bookcase</osmand:icon>
    </extensions>
  </wpt>
  <wpt lat="48.452624" lon="-4.14342">
    <name>Ploudiry z30694</name>
    <type>ZoneLivre Bretagne</type>
    <extensions>
      <osmand:color>#10c0f0</osmand:color>
      <osmand:background>square</osmand:background>
      <osmand:icon>public_bookcase</osmand:icon>
    </extensions>
  </wpt>
  <wpt lat="48.579509" lon="-4.210966">
    <name>Lanhouarneau z30691</name>
    <type>ZoneLivre Bretagne</type>
    <extensions>
      <osmand:color>#10c0f0</osmand:color>
      <osmand:background>square</osmand:background>
      <osmand:icon>public_bookcase</osmand:icon>
    </extensions>
  </wpt>
  <wpt lat="48.56053" lon="-4.265439">
    <name>Saint-Méen z30689</name>
    <type>ZoneLivre Bretagne</type>
    <extensions>
      <osmand:color>#10c0f0</osmand:color>
      <osmand:background>square</osmand:background>
      <osmand:icon>public_bookcase</osmand:icon>
    </extensions>
  </wpt>
  <wpt lat="48.573225" lon="-4.320148">
    <name>Lesneven z30687</name>
    <type>ZoneLivre Bretagne</type>
    <extensions>
      <osmand:color>#10c0f0</osmand:color>
      <osmand:background>square</osmand:background>
      <osmand:icon>public_bookcase</osmand:icon>
    </extensions>
  </wpt>
  <wpt lat="48.576029" lon="-4.321736">
    <name>Lesneven z30684</name>
    <type>ZoneLivre Bretagne</type>
    <extensions>
      <osmand:color>#10c0f0</osmand:color>
      <osmand:background>square</osmand:background>
      <osmand:icon>public_bookcase</osmand:icon>
    </extensions>
  </wpt>
  <wpt lat="48.55179" lon="-4.388054">
    <name>Lanarvily z30681</name>
    <type>ZoneLivre Bretagne</type>
    <extensions>
      <osmand:color>#10c0f0</osmand:color>
      <osmand:background>square</osmand:background>
      <osmand:icon>public_bookcase</osmand:icon>
    </extensions>
  </wpt>
  <wpt lat="48.529802" lon="-4.45156">
    <name>Plouvien z30678</name>
    <type>ZoneLivre Bretagne</type>
    <extensions>
      <osmand:color>#10c0f0</osmand:color>
      <osmand:background>square</osmand:background>
      <osmand:icon>public_bookcase</osmand:icon>
    </extensions>
  </wpt>
  <wpt lat="48.573638" lon="-4.519198">
    <name>Lannilis z30676</name>
    <type>ZoneLivre Bretagne</type>
    <extensions>
      <osmand:color>#10c0f0</osmand:color>
      <osmand:background>square</osmand:background>
      <osmand:icon>public_bookcase</osmand:icon>
    </extensions>
  </wpt>
  <wpt lat="48.569269" lon="-4.520869">
    <name>Lannilis z30673</name>
    <type>ZoneLivre Bretagne</type>
    <extensions>
      <osmand:color>#10c0f0</osmand:color>
      <osmand:background>square</osmand:background>
      <osmand:icon>public_bookcase</osmand:icon>
    </extensions>
  </wpt>
  <wpt lat="48.524881" lon="-4.599168">
    <name>Plouguin z30670</name>
    <type>ZoneLivre Bretagne</type>
    <extensions>
      <osmand:color>#10c0f0</osmand:color>
      <osmand:background>square</osmand:background>
      <osmand:icon>public_bookcase</osmand:icon>
    </extensions>
  </wpt>
  <wpt lat="48.56752" lon="-4.611817">
    <name>Saint-Pabu z30668</name>
    <type>ZoneLivre Bretagne</type>
    <extensions>
      <osmand:color>#10c0f0</osmand:color>
      <osmand:background>square</osmand:background>
      <osmand:icon>public_bookcase</osmand:icon>
    </extensions>
  </wpt>
  <wpt lat="48.57455" lon="-4.625349">
    <name>Saint-Pabu z30666</name>
    <type>ZoneLivre Bretagne</type>
    <extensions>
      <osmand:color>#10c0f0</osmand:color>
      <osmand:background>square</osmand:background>
      <osmand:icon>public_bookcase</osmand:icon>
    </extensions>
  </wpt>
  <wpt lat="48.532585" lon="-4.726101">
    <name>Landunvez z30664</name>
    <type>ZoneLivre Bretagne</type>
    <extensions>
      <osmand:color>#10c0f0</osmand:color>
      <osmand:background>square</osmand:background>
      <osmand:icon>public_bookcase</osmand:icon>
    </extensions>
  </wpt>
  <wpt lat="48.508744" lon="-4.686975">
    <name>Plourin z30662</name>
    <type>ZoneLivre Bretagne</type>
    <extensions>
      <osmand:color>#10c0f0</osmand:color>
      <osmand:background>square</osmand:background>
      <osmand:icon>public_bookcase</osmand:icon>
    </extensions>
  </wpt>
  <wpt lat="48.475411" lon="-4.761318">
    <name>Lanildut z30659</name>
    <type>ZoneLivre Bretagne</type>
    <extensions>
      <osmand:color>#10c0f0</osmand:color>
      <osmand:background>square</osmand:background>
      <osmand:icon>public_bookcase</osmand:icon>
    </extensions>
  </wpt>
  <wpt lat="48.360738" lon="-4.770765">
    <name>Le Conquet z30657</name>
    <type>ZoneLivre Bretagne</type>
    <extensions>
      <osmand:color>#10c0f0</osmand:color>
      <osmand:background>square</osmand:background>
      <osmand:icon>public_bookcase</osmand:icon>
    </extensions>
  </wpt>
  <wpt lat="48.345821" lon="-4.704536">
    <name>Plougonvelin z30655</name>
    <type>ZoneLivre Bretagne</type>
    <extensions>
      <osmand:color>#10c0f0</osmand:color>
      <osmand:background>square</osmand:background>
      <osmand:icon>public_bookcase</osmand:icon>
    </extensions>
  </wpt>
  <wpt lat="48.041304" lon="-4.204722">
    <name>Guengat z30653</name>
    <type>ZoneLivre Bretagne</type>
    <extensions>
      <osmand:color>#10c0f0</osmand:color>
      <osmand:background>square</osmand:background>
      <osmand:icon>public_bookcase</osmand:icon>
    </extensions>
  </wpt>
  <wpt lat="47.959696" lon="-3.778106">
    <name>Rosporden z30650</name>
    <type>ZoneLivre Bretagne</type>
    <extensions>
      <osmand:color>#10c0f0</osmand:color>
      <osmand:background>square</osmand:background>
      <osmand:icon>public_bookcase</osmand:icon>
    </extensions>
  </wpt>
  <wpt lat="47.900533" lon="-3.58305">
    <name>Mellac z30648</name>
    <type>ZoneLivre Bretagne</type>
    <extensions>
      <osmand:color>#10c0f0</osmand:color>
      <osmand:background>square</osmand:background>
      <osmand:icon>public_bookcase</osmand:icon>
    </extensions>
  </wpt>
  <wpt lat="47.818628" lon="-3.791429">
    <name>Névez z30646</name>
    <type>ZoneLivre Bretagne</type>
    <extensions>
      <osmand:color>#10c0f0</osmand:color>
      <osmand:background>square</osmand:background>
      <osmand:icon>public_bookcase</osmand:icon>
    </extensions>
  </wpt>
  <wpt lat="47.801251" lon="-3.746166">
    <name>Névez z30642</name>
    <type>ZoneLivre Bretagne</type>
    <extensions>
      <osmand:color>#10c0f0</osmand:color>
      <osmand:background>square</osmand:background>
      <osmand:icon>public_bookcase</osmand:icon>
    </extensions>
  </wpt>
  <wpt lat="47.794081" lon="-3.810225">
    <name>Névez z30640</name>
    <type>ZoneLivre Bretagne</type>
    <extensions>
      <osmand:color>#10c0f0</osmand:color>
      <osmand:background>square</osmand:background>
      <osmand:icon>public_bookcase</osmand:icon>
    </extensions>
  </wpt>
  <wpt lat="47.90933" lon="-3.97785">
    <name>La Forêt-Fouesnant z30638</name>
    <type>ZoneLivre Bretagne</type>
    <extensions>
      <osmand:color>#10c0f0</osmand:color>
      <osmand:background>square</osmand:background>
      <osmand:icon>public_bookcase</osmand:icon>
    </extensions>
  </wpt>
  <wpt lat="47.935007" lon="-4.152824">
    <name>Plomelin z30635</name>
    <type>ZoneLivre Bretagne</type>
    <extensions>
      <osmand:color>#10c0f0</osmand:color>
      <osmand:background>square</osmand:background>
      <osmand:icon>public_bookcase</osmand:icon>
    </extensions>
  </wpt>
  <wpt lat="47.958965" lon="-4.398525">
    <name>Plozévet z30633</name>
    <type>ZoneLivre Bretagne</type>
    <extensions>
      <osmand:color>#10c0f0</osmand:color>
      <osmand:background>square</osmand:background>
      <osmand:icon>public_bookcase</osmand:icon>
    </extensions>
  </wpt>
  <wpt lat="47.915366" lon="-4.36172">
    <name>Plovan z30631</name>
    <type>ZoneLivre Bretagne</type>
    <extensions>
      <osmand:color>#10c0f0</osmand:color>
      <osmand:background>square</osmand:background>
      <osmand:icon>public_bookcase</osmand:icon>
    </extensions>
  </wpt>
  <wpt lat="47.883729" lon="-4.25257">
    <name>Plonéour-Lanvern z30628</name>
    <type>ZoneLivre Bretagne</type>
    <extensions>
      <osmand:color>#10c0f0</osmand:color>
      <osmand:background>square</osmand:background>
      <osmand:icon>public_bookcase</osmand:icon>
    </extensions>
  </wpt>
  <wpt lat="47.866665" lon="-4.222645">
    <name>Pont-l'Abbé z30624</name>
    <type>ZoneLivre Bretagne</type>
    <extensions>
      <osmand:color>#10c0f0</osmand:color>
      <osmand:background>square</osmand:background>
      <osmand:icon>public_bookcase</osmand:icon>
    </extensions>
  </wpt>
  <wpt lat="47.798768" lon="-4.212782">
    <name>Plobannalec-Lesconil z30622</name>
    <type>ZoneLivre Bretagne</type>
    <extensions>
      <osmand:color>#10c0f0</osmand:color>
      <osmand:background>square</osmand:background>
      <osmand:icon>public_bookcase</osmand:icon>
    </extensions>
  </wpt>
  <wpt lat="47.997985" lon="-4.106811">
    <name>Quimper z30619</name>
    <type>ZoneLivre Bretagne</type>
    <extensions>
      <osmand:color>#10c0f0</osmand:color>
      <osmand:background>square</osmand:background>
      <osmand:icon>public_bookcase</osmand:icon>
    </extensions>
  </wpt>
  <wpt lat="48.010543" lon="-4.095194">
    <name>Quimper z30617</name>
    <type>ZoneLivre Bretagne</type>
    <extensions>
      <osmand:color>#10c0f0</osmand:color>
      <osmand:background>square</osmand:background>
      <osmand:icon>public_bookcase</osmand:icon>
    </extensions>
  </wpt>
  <wpt lat="48.003904" lon="-4.074544">
    <name>Quimper z30615</name>
    <type>ZoneLivre Bretagne</type>
    <extensions>
      <osmand:color>#10c0f0</osmand:color>
      <osmand:background>square</osmand:background>
      <osmand:icon>public_bookcase</osmand:icon>
    </extensions>
  </wpt>
  <wpt lat="48.106115" lon="-3.862775">
    <name>Trégourez z30613</name>
    <type>ZoneLivre Bretagne</type>
    <extensions>
      <osmand:color>#10c0f0</osmand:color>
      <osmand:background>square</osmand:background>
      <osmand:icon>public_bookcase</osmand:icon>
    </extensions>
  </wpt>
  <wpt lat="48.383492" lon="-3.915432">
    <name>Botmeur z30610</name>
    <type>ZoneLivre Bretagne</type>
    <extensions>
      <osmand:color>#10c0f0</osmand:color>
      <osmand:background>square</osmand:background>
      <osmand:icon>public_bookcase</osmand:icon>
    </extensions>
  </wpt>
  <wpt lat="48.487748" lon="-3.998782">
    <name>Guimiliau z30608</name>
    <type>ZoneLivre Bretagne</type>
    <extensions>
      <osmand:color>#10c0f0</osmand:color>
      <osmand:background>square</osmand:background>
      <osmand:icon>public_bookcase</osmand:icon>
    </extensions>
  </wpt>
  <wpt lat="48.492787" lon="-4.041791">
    <name>Lampaul-Guimiliau z30606</name>
    <type>ZoneLivre Bretagne</type>
    <extensions>
      <osmand:color>#10c0f0</osmand:color>
      <osmand:background>square</osmand:background>
      <osmand:icon>public_bookcase</osmand:icon>
    </extensions>
  </wpt>
  <wpt lat="48.628252" lon="-3.991647">
    <name>Plouénan z30603</name>
    <type>ZoneLivre Bretagne</type>
    <extensions>
      <osmand:color>#10c0f0</osmand:color>
      <osmand:background>square</osmand:background>
      <osmand:icon>public_bookcase</osmand:icon>
    </extensions>
  </wpt>
  <wpt lat="48.450075" lon="-4.248351">
    <name>Landerneau z30601</name>
    <type>ZoneLivre Bretagne</type>
    <extensions>
      <osmand:color>#10c0f0</osmand:color>
      <osmand:background>square</osmand:background>
      <osmand:icon>public_bookcase</osmand:icon>
    </extensions>
  </wpt>
  <wpt lat="48.437415" lon="-4.234843">
    <name>Pencran z30598</name>
    <type>ZoneLivre Bretagne</type>
    <extensions>
      <osmand:color>#10c0f0</osmand:color>
      <osmand:background>square</osmand:background>
      <osmand:icon>public_bookcase</osmand:icon>
    </extensions>
  </wpt>
  <wpt lat="48.404595" lon="-4.229406">
    <name>Saint-Urbain (29) z30595</name>
    <type>ZoneLivre Bretagne</type>
    <extensions>
      <osmand:color>#10c0f0</osmand:color>
      <osmand:background>square</osmand:background>
      <osmand:icon>public_bookcase</osmand:icon>
    </extensions>
  </wpt>
  <wpt lat="48.370126" lon="-4.214239">
    <name>Irvillac z30593</name>
    <type>ZoneLivre Bretagne</type>
    <extensions>
      <osmand:color>#10c0f0</osmand:color>
      <osmand:background>square</osmand:background>
      <osmand:icon>public_bookcase</osmand:icon>
    </extensions>
  </wpt>
  <wpt lat="48.393919" lon="-4.131313">
    <name>Le Tréhou z30591</name>
    <type>ZoneLivre Bretagne</type>
    <extensions>
      <osmand:color>#10c0f0</osmand:color>
      <osmand:background>square</osmand:background>
      <osmand:icon>public_bookcase</osmand:icon>
    </extensions>
  </wpt>
  <wpt lat="48.349199" lon="-3.996516">
    <name>Saint-Rivoal z30588</name>
    <type>ZoneLivre Bretagne</type>
    <extensions>
      <osmand:color>#10c0f0</osmand:color>
      <osmand:background>square</osmand:background>
      <osmand:icon>public_bookcase</osmand:icon>
    </extensions>
  </wpt>
  <wpt lat="48.189437" lon="-4.090798">
    <name>Châteaulin z30585</name>
    <type>ZoneLivre Bretagne</type>
    <extensions>
      <osmand:color>#10c0f0</osmand:color>
      <osmand:background>square</osmand:background>
      <osmand:icon>public_bookcase</osmand:icon>
    </extensions>
  </wpt>
  <wpt lat="48.212663" lon="-4.095527">
    <name>Port-Launay z30583</name>
    <type>ZoneLivre Bretagne</type>
    <extensions>
      <osmand:color>#10c0f0</osmand:color>
      <osmand:background>square</osmand:background>
      <osmand:icon>public_bookcase</osmand:icon>
    </extensions>
  </wpt>
  <wpt lat="48.263895" lon="-4.194444">
    <name>Rosnoën z30581</name>
    <type>ZoneLivre Bretagne</type>
    <extensions>
      <osmand:color>#10c0f0</osmand:color>
      <osmand:background>square</osmand:background>
      <osmand:icon>public_bookcase</osmand:icon>
    </extensions>
  </wpt>
  <wpt lat="48.37982" lon="-4.364904">
    <name>Plougastel-Daoulas z30579</name>
    <type>ZoneLivre Bretagne</type>
    <extensions>
      <osmand:color>#10c0f0</osmand:color>
      <osmand:background>square</osmand:background>
      <osmand:icon>public_bookcase</osmand:icon>
    </extensions>
  </wpt>
  <wpt lat="48.327558" lon="-4.159669">
    <name>Hanvec z30577</name>
    <type>ZoneLivre Bretagne</type>
    <extensions>
      <osmand:color>#10c0f0</osmand:color>
      <osmand:background>square</osmand:background>
      <osmand:icon>public_bookcase</osmand:icon>
    </extensions>
  </wpt>
  <wpt lat="48.328644" lon="-4.242713">
    <name>Hôpital-Camfrout z30574</name>
    <type>ZoneLivre Bretagne</type>
    <extensions>
      <osmand:color>#10c0f0</osmand:color>
      <osmand:background>square</osmand:background>
      <osmand:icon>public_bookcase</osmand:icon>
    </extensions>
  </wpt>
  <wpt lat="48.309272" lon="-4.26147">
    <name>Hôpital-Camfrout z30571</name>
    <type>ZoneLivre Bretagne</type>
    <extensions>
      <osmand:color>#10c0f0</osmand:color>
      <osmand:background>square</osmand:background>
      <osmand:icon>public_bookcase</osmand:icon>
    </extensions>
  </wpt>
  <wpt lat="48.321402" lon="-4.299069">
    <name>Logonna-Daoulas z30569</name>
    <type>ZoneLivre Bretagne</type>
    <extensions>
      <osmand:color>#10c0f0</osmand:color>
      <osmand:background>square</osmand:background>
      <osmand:icon>public_bookcase</osmand:icon>
    </extensions>
  </wpt>
  <wpt lat="48.248115" lon="-4.487759">
    <name>Crozon z30567</name>
    <type>ZoneLivre Bretagne</type>
    <extensions>
      <osmand:color>#10c0f0</osmand:color>
      <osmand:background>square</osmand:background>
      <osmand:icon>public_bookcase</osmand:icon>
    </extensions>
  </wpt>
  <wpt lat="48.190476" lon="-3.984191">
    <name>Gouézec z30565</name>
    <type>ZoneLivre Bretagne</type>
    <extensions>
      <osmand:color>#10c0f0</osmand:color>
      <osmand:background>square</osmand:background>
      <osmand:icon>public_bookcase</osmand:icon>
    </extensions>
  </wpt>
  <wpt lat="48.104311" lon="-3.977821">
    <name>Edern z30562</name>
    <type>ZoneLivre Bretagne</type>
    <extensions>
      <osmand:color>#10c0f0</osmand:color>
      <osmand:background>square</osmand:background>
      <osmand:icon>public_bookcase</osmand:icon>
    </extensions>
  </wpt>
  <wpt lat="48.101569" lon="-4.001553">
    <name>Briec z30560</name>
    <type>ZoneLivre Bretagne</type>
    <extensions>
      <osmand:color>#10c0f0</osmand:color>
      <osmand:background>square</osmand:background>
      <osmand:icon>public_bookcase</osmand:icon>
    </extensions>
  </wpt>
  <wpt lat="48.104428" lon="-4.187631">
    <name>Locronan z30557</name>
    <type>ZoneLivre Bretagne</type>
    <extensions>
      <osmand:color>#10c0f0</osmand:color>
      <osmand:background>square</osmand:background>
      <osmand:icon>public_bookcase</osmand:icon>
    </extensions>
  </wpt>
  <wpt lat="48.124353" lon="-4.219329">
    <name>Plonévez-Porzay z30555</name>
    <type>ZoneLivre Bretagne</type>
    <extensions>
      <osmand:color>#10c0f0</osmand:color>
      <osmand:background>square</osmand:background>
      <osmand:icon>public_bookcase</osmand:icon>
    </extensions>
  </wpt>
  <wpt lat="48.622765" lon="-4.261276">
    <name>Tréflez z30552</name>
    <type>ZoneLivre Bretagne</type>
    <extensions>
      <osmand:color>#10c0f0</osmand:color>
      <osmand:background>square</osmand:background>
      <osmand:icon>public_bookcase</osmand:icon>
    </extensions>
  </wpt>
  <wpt lat="48.650529" lon="-4.316401">
    <name>Plounéour-Trez z30549</name>
    <type>ZoneLivre Bretagne</type>
    <extensions>
      <osmand:color>#10c0f0</osmand:color>
      <osmand:background>square</osmand:background>
      <osmand:icon>public_bookcase</osmand:icon>
    </extensions>
  </wpt>
  <wpt lat="48.62862" lon="-4.30085">
    <name>Goulven z30547</name>
    <type>ZoneLivre Bretagne</type>
    <extensions>
      <osmand:color>#10c0f0</osmand:color>
      <osmand:background>square</osmand:background>
      <osmand:icon>public_bookcase</osmand:icon>
    </extensions>
  </wpt>
  <wpt lat="48.593825" lon="-4.137911">
    <name>Saint-Vougay z30545</name>
    <type>ZoneLivre Bretagne</type>
    <extensions>
      <osmand:color>#10c0f0</osmand:color>
      <osmand:background>square</osmand:background>
      <osmand:icon>public_bookcase</osmand:icon>
    </extensions>
  </wpt>
  <wpt lat="48.658233" lon="-4.175234">
    <name>Plouescat z30543</name>
    <type>ZoneLivre Bretagne</type>
    <extensions>
      <osmand:color>#10c0f0</osmand:color>
      <osmand:background>square</osmand:background>
      <osmand:icon>public_bookcase</osmand:icon>
    </extensions>
  </wpt>
  <wpt lat="48.660848" lon="-4.101752">
    <name>Cléder z30541</name>
    <type>ZoneLivre Bretagne</type>
    <extensions>
      <osmand:color>#10c0f0</osmand:color>
      <osmand:background>square</osmand:background>
      <osmand:icon>public_bookcase</osmand:icon>
    </extensions>
  </wpt>
  <wpt lat="48.692108" lon="-4.120887">
    <name>Cléder z30538</name>
    <type>ZoneLivre Bretagne</type>
    <extensions>
      <osmand:color>#10c0f0</osmand:color>
      <osmand:background>square</osmand:background>
      <osmand:icon>public_bookcase</osmand:icon>
    </extensions>
  </wpt>
  <wpt lat="48.726855" lon="-3.986417">
    <name>Roscoff z30535</name>
    <type>ZoneLivre Bretagne</type>
    <extensions>
      <osmand:color>#10c0f0</osmand:color>
      <osmand:background>square</osmand:background>
      <osmand:icon>public_bookcase</osmand:icon>
    </extensions>
  </wpt>
  <wpt lat="48.685694" lon="-3.986782">
    <name>Saint-Pol-de-Léon z30533</name>
    <type>ZoneLivre Bretagne</type>
    <extensions>
      <osmand:color>#10c0f0</osmand:color>
      <osmand:background>square</osmand:background>
      <osmand:icon>public_bookcase</osmand:icon>
    </extensions>
  </wpt>
  <wpt lat="48.669034" lon="-3.91518">
    <name>Carantec z30531</name>
    <type>ZoneLivre Bretagne</type>
    <extensions>
      <osmand:color>#10c0f0</osmand:color>
      <osmand:background>square</osmand:background>
      <osmand:icon>public_bookcase</osmand:icon>
    </extensions>
  </wpt>
  <wpt lat="48.669287" lon="-3.910005">
    <name>Carantec z30529</name>
    <type>ZoneLivre Bretagne</type>
    <extensions>
      <osmand:color>#10c0f0</osmand:color>
      <osmand:background>square</osmand:background>
      <osmand:icon>public_bookcase</osmand:icon>
    </extensions>
  </wpt>
  <wpt lat="48.63018" lon="-3.84617">
    <name>Plouezoc'h z30527</name>
    <type>ZoneLivre Bretagne</type>
    <extensions>
      <osmand:color>#10c0f0</osmand:color>
      <osmand:background>square</osmand:background>
      <osmand:icon>public_bookcase</osmand:icon>
    </extensions>
  </wpt>
  <wpt lat="48.604819" lon="-3.831066">
    <name>Morlaix z30525</name>
    <type>ZoneLivre Bretagne</type>
    <extensions>
      <osmand:color>#10c0f0</osmand:color>
      <osmand:background>square</osmand:background>
      <osmand:icon>public_bookcase</osmand:icon>
    </extensions>
  </wpt>
  <wpt lat="48.536468" lon="-3.788483">
    <name>Plourin-lès-Morlaix z30522</name>
    <type>ZoneLivre Bretagne</type>
    <extensions>
      <osmand:color>#10c0f0</osmand:color>
      <osmand:background>square</osmand:background>
      <osmand:icon>public_bookcase</osmand:icon>
    </extensions>
  </wpt>
  <wpt lat="48.489504" lon="-3.672124">
    <name>Lannéanou z30520</name>
    <type>ZoneLivre Bretagne</type>
    <extensions>
      <osmand:color>#10c0f0</osmand:color>
      <osmand:background>square</osmand:background>
      <osmand:icon>public_bookcase</osmand:icon>
    </extensions>
  </wpt>
  <wpt lat="48.336684" lon="-3.640388">
    <name>Poullaouen z30518</name>
    <type>ZoneLivre Bretagne</type>
    <extensions>
      <osmand:color>#10c0f0</osmand:color>
      <osmand:background>square</osmand:background>
      <osmand:icon>public_bookcase</osmand:icon>
    </extensions>
  </wpt>
  <wpt lat="48.299163" lon="-3.590062">
    <name>Plounévézel z30515</name>
    <type>ZoneLivre Bretagne</type>
    <extensions>
      <osmand:color>#10c0f0</osmand:color>
      <osmand:background>square</osmand:background>
      <osmand:icon>public_bookcase</osmand:icon>
    </extensions>
  </wpt>
  <wpt lat="48.191928" lon="-3.714087">
    <name>Spézet z30513</name>
    <type>ZoneLivre Bretagne</type>
    <extensions>
      <osmand:color>#10c0f0</osmand:color>
      <osmand:background>square</osmand:background>
      <osmand:icon>public_bookcase</osmand:icon>
    </extensions>
  </wpt>
  <wpt lat="48.640174" lon="-3.822427">
    <name>Plouezoc'h z30508</name>
    <type>ZoneLivre Bretagne</type>
    <extensions>
      <osmand:color>#10c0f0</osmand:color>
      <osmand:background>square</osmand:background>
      <osmand:icon>public_bookcase</osmand:icon>
    </extensions>
  </wpt>
  <wpt lat="48.71206" lon="-3.810826">
    <name>Plougasnou z30505</name>
    <type>ZoneLivre Bretagne</type>
    <extensions>
      <osmand:color>#10c0f0</osmand:color>
      <osmand:background>square</osmand:background>
      <osmand:icon>public_bookcase</osmand:icon>
    </extensions>
  </wpt>
  <wpt lat="48.695387" lon="-3.790643">
    <name>Plougasnou z30502</name>
    <type>ZoneLivre Bretagne</type>
    <extensions>
      <osmand:color>#10c0f0</osmand:color>
      <osmand:background>square</osmand:background>
      <osmand:icon>public_bookcase</osmand:icon>
    </extensions>
  </wpt>
  <wpt lat="48.684223" lon="-3.69327">
    <name>Locquirec z30500</name>
    <type>ZoneLivre Bretagne</type>
    <extensions>
      <osmand:color>#10c0f0</osmand:color>
      <osmand:background>square</osmand:background>
      <osmand:icon>public_bookcase</osmand:icon>
    </extensions>
  </wpt>
  <wpt lat="48.680883" lon="-3.653802">
    <name>Locquirec z30498</name>
    <type>ZoneLivre Bretagne</type>
    <extensions>
      <osmand:color>#10c0f0</osmand:color>
      <osmand:background>square</osmand:background>
      <osmand:icon>public_bookcase</osmand:icon>
    </extensions>
  </wpt>
  <wpt lat="48.107092" lon="-1.672643">
    <name>Rennes z30290</name>
    <type>ZoneLivre Bretagne</type>
    <extensions>
      <osmand:color>#10c0f0</osmand:color>
      <osmand:background>square</osmand:background>
      <osmand:icon>public_bookcase</osmand:icon>
    </extensions>
  </wpt>
  <wpt lat="48.46612" lon="-4.26337">
    <name>Landerneau z30280</name>
    <type>ZoneLivre Bretagne</type>
    <extensions>
      <osmand:color>#10c0f0</osmand:color>
      <osmand:background>square</osmand:background>
      <osmand:icon>public_bookcase</osmand:icon>
    </extensions>
  </wpt>
  <wpt lat="48.452601" lon="-4.276989">
    <name>Landerneau z30278</name>
    <type>ZoneLivre Bretagne</type>
    <extensions>
      <osmand:color>#10c0f0</osmand:color>
      <osmand:background>square</osmand:background>
      <osmand:icon>public_bookcase</osmand:icon>
    </extensions>
  </wpt>
  <wpt lat="48.066318" lon="-1.717713">
    <name>Saint-Jacques-de-la-Lande z29655</name>
    <type>ZoneLivre Bretagne</type>
    <extensions>
      <osmand:color>#10c0f0</osmand:color>
      <osmand:background>square</osmand:background>
      <osmand:icon>public_bookcase</osmand:icon>
    </extensions>
  </wpt>
  <wpt lat="48.066372" lon="-1.720532">
    <name>Saint-Jacques-de-la-Lande z29653</name>
    <type>ZoneLivre Bretagne</type>
    <extensions>
      <osmand:color>#10c0f0</osmand:color>
      <osmand:background>square</osmand:background>
      <osmand:icon>public_bookcase</osmand:icon>
    </extensions>
  </wpt>
  <wpt lat="48.122588" lon="-1.72631">
    <name>Rennes z29651</name>
    <type>ZoneLivre Bretagne</type>
    <extensions>
      <osmand:color>#10c0f0</osmand:color>
      <osmand:background>square</osmand:background>
      <osmand:icon>public_bookcase</osmand:icon>
    </extensions>
  </wpt>
  <wpt lat="48.14937" lon="-1.692123">
    <name>Saint-Grégoire z29649</name>
    <type>ZoneLivre Bretagne</type>
    <extensions>
      <osmand:color>#10c0f0</osmand:color>
      <osmand:background>square</osmand:background>
      <osmand:icon>public_bookcase</osmand:icon>
    </extensions>
  </wpt>
  <wpt lat="48.138827" lon="-1.690655">
    <name>Saint-Grégoire z29646</name>
    <type>ZoneLivre Bretagne</type>
    <extensions>
      <osmand:color>#10c0f0</osmand:color>
      <osmand:background>square</osmand:background>
      <osmand:icon>public_bookcase</osmand:icon>
    </extensions>
  </wpt>
  <wpt lat="48.149635" lon="-1.656237">
    <name>Saint-Grégoire z29644</name>
    <type>ZoneLivre Bretagne</type>
    <extensions>
      <osmand:color>#10c0f0</osmand:color>
      <osmand:background>square</osmand:background>
      <osmand:icon>public_bookcase</osmand:icon>
    </extensions>
  </wpt>
  <wpt lat="48.139708" lon="-1.65727">
    <name>Rennes z29642</name>
    <type>ZoneLivre Bretagne</type>
    <extensions>
      <osmand:color>#10c0f0</osmand:color>
      <osmand:background>square</osmand:background>
      <osmand:icon>public_bookcase</osmand:icon>
    </extensions>
  </wpt>
  <wpt lat="48.081912" lon="-1.773949">
    <name>Moigné z29639</name>
    <type>ZoneLivre Bretagne</type>
    <extensions>
      <osmand:color>#10c0f0</osmand:color>
      <osmand:background>square</osmand:background>
      <osmand:icon>public_bookcase</osmand:icon>
    </extensions>
  </wpt>
  <wpt lat="48.101992" lon="-1.787853">
    <name>Le Rheu z29637</name>
    <type>ZoneLivre Bretagne</type>
    <extensions>
      <osmand:color>#10c0f0</osmand:color>
      <osmand:background>square</osmand:background>
      <osmand:icon>public_bookcase</osmand:icon>
    </extensions>
  </wpt>
  <wpt lat="48.095041" lon="-1.793167">
    <name>Le Rheu z29635</name>
    <type>ZoneLivre Bretagne</type>
    <extensions>
      <osmand:color>#10c0f0</osmand:color>
      <osmand:background>square</osmand:background>
      <osmand:icon>public_bookcase</osmand:icon>
    </extensions>
  </wpt>
  <wpt lat="48.094077" lon="-1.774131">
    <name>Le Rheu z29633</name>
    <type>ZoneLivre Bretagne</type>
    <extensions>
      <osmand:color>#10c0f0</osmand:color>
      <osmand:background>square</osmand:background>
      <osmand:icon>public_bookcase</osmand:icon>
    </extensions>
  </wpt>
  <wpt lat="48.100188" lon="-1.803946">
    <name>Le Rheu z29630</name>
    <type>ZoneLivre Bretagne</type>
    <extensions>
      <osmand:color>#10c0f0</osmand:color>
      <osmand:background>square</osmand:background>
      <osmand:icon>public_bookcase</osmand:icon>
    </extensions>
  </wpt>
  <wpt lat="48.104175" lon="-1.803322">
    <name>Le Rheu z29628</name>
    <type>ZoneLivre Bretagne</type>
    <extensions>
      <osmand:color>#10c0f0</osmand:color>
      <osmand:background>square</osmand:background>
      <osmand:icon>public_bookcase</osmand:icon>
    </extensions>
  </wpt>
  <wpt lat="48.127716" lon="-1.818087">
    <name>L'Hermitage z29625</name>
    <type>ZoneLivre Bretagne</type>
    <extensions>
      <osmand:color>#10c0f0</osmand:color>
      <osmand:background>square</osmand:background>
      <osmand:icon>public_bookcase</osmand:icon>
    </extensions>
  </wpt>
  <wpt lat="48.056247" lon="-1.793934">
    <name>Chavagne z29623</name>
    <type>ZoneLivre Bretagne</type>
    <extensions>
      <osmand:color>#10c0f0</osmand:color>
      <osmand:background>square</osmand:background>
      <osmand:icon>public_bookcase</osmand:icon>
    </extensions>
  </wpt>
  <wpt lat="48.005652" lon="-1.849364">
    <name>Goven z29621</name>
    <type>ZoneLivre Bretagne</type>
    <extensions>
      <osmand:color>#10c0f0</osmand:color>
      <osmand:background>square</osmand:background>
      <osmand:icon>public_bookcase</osmand:icon>
    </extensions>
  </wpt>
  <wpt lat="47.984852" lon="-1.92842">
    <name>Baulon z29616</name>
    <type>ZoneLivre Bretagne</type>
    <extensions>
      <osmand:color>#10c0f0</osmand:color>
      <osmand:background>square</osmand:background>
      <osmand:icon>public_bookcase</osmand:icon>
    </extensions>
  </wpt>
  <wpt lat="48.030645" lon="-1.597014">
    <name>Vern-sur-Seiche z29615</name>
    <type>ZoneLivre Bretagne</type>
    <extensions>
      <osmand:color>#10c0f0</osmand:color>
      <osmand:background>square</osmand:background>
      <osmand:icon>public_bookcase</osmand:icon>
    </extensions>
  </wpt>
  <wpt lat="47.950714" lon="-1.975002">
    <name>Bovel z29613</name>
    <type>ZoneLivre Bretagne</type>
    <extensions>
      <osmand:color>#10c0f0</osmand:color>
      <osmand:background>square</osmand:background>
      <osmand:icon>public_bookcase</osmand:icon>
    </extensions>
  </wpt>
  <wpt lat="47.935899" lon="-2.007918">
    <name>Campel z29610</name>
    <type>ZoneLivre Bretagne</type>
    <extensions>
      <osmand:color>#10c0f0</osmand:color>
      <osmand:background>square</osmand:background>
      <osmand:icon>public_bookcase</osmand:icon>
    </extensions>
  </wpt>
  <wpt lat="47.92967" lon="-1.940023">
    <name>La Chapelle-Bouëxic z29608</name>
    <type>ZoneLivre Bretagne</type>
    <extensions>
      <osmand:color>#10c0f0</osmand:color>
      <osmand:background>square</osmand:background>
      <osmand:icon>public_bookcase</osmand:icon>
    </extensions>
  </wpt>
  <wpt lat="47.89401" lon="-1.994866">
    <name>Maure-de-Bretagne z29605</name>
    <type>ZoneLivre Bretagne</type>
    <extensions>
      <osmand:color>#10c0f0</osmand:color>
      <osmand:background>square</osmand:background>
      <osmand:icon>public_bookcase</osmand:icon>
    </extensions>
  </wpt>
  <wpt lat="47.850965" lon="-1.943432">
    <name>Lieuron z29603</name>
    <type>ZoneLivre Bretagne</type>
    <extensions>
      <osmand:color>#10c0f0</osmand:color>
      <osmand:background>square</osmand:background>
      <osmand:icon>public_bookcase</osmand:icon>
    </extensions>
  </wpt>
  <wpt lat="47.809937" lon="-1.946608">
    <name>Pipriac z29601</name>
    <type>ZoneLivre Bretagne</type>
    <extensions>
      <osmand:color>#10c0f0</osmand:color>
      <osmand:background>square</osmand:background>
      <osmand:icon>public_bookcase</osmand:icon>
    </extensions>
  </wpt>
  <wpt lat="47.754713" lon="-1.884501">
    <name>Saint-Ganton z29598</name>
    <type>ZoneLivre Bretagne</type>
    <extensions>
      <osmand:color>#10c0f0</osmand:color>
      <osmand:background>square</osmand:background>
      <osmand:icon>public_bookcase</osmand:icon>
    </extensions>
  </wpt>
  <wpt lat="47.730008" lon="-1.825774">
    <name>Sainte-Anne-sur-Vilaine z29596</name>
    <type>ZoneLivre Bretagne</type>
    <extensions>
      <osmand:color>#10c0f0</osmand:color>
      <osmand:background>square</osmand:background>
      <osmand:icon>public_bookcase</osmand:icon>
    </extensions>
  </wpt>
  <wpt lat="47.825497" lon="-1.842742">
    <name>Guipry-Messac z29593</name>
    <type>ZoneLivre Bretagne</type>
    <extensions>
      <osmand:color>#10c0f0</osmand:color>
      <osmand:background>square</osmand:background>
      <osmand:icon>public_bookcase</osmand:icon>
    </extensions>
  </wpt>
  <wpt lat="47.938323" lon="-1.654057">
    <name>Crevin z29591</name>
    <type>ZoneLivre Bretagne</type>
    <extensions>
      <osmand:color>#10c0f0</osmand:color>
      <osmand:background>square</osmand:background>
      <osmand:icon>public_bookcase</osmand:icon>
    </extensions>
  </wpt>
  <wpt lat="47.937354" lon="-1.659727">
    <name>Crevin z29589</name>
    <type>ZoneLivre Bretagne</type>
    <extensions>
      <osmand:color>#10c0f0</osmand:color>
      <osmand:background>square</osmand:background>
      <osmand:icon>public_bookcase</osmand:icon>
    </extensions>
  </wpt>
  <wpt lat="47.937404" lon="-1.663275">
    <name>Crevin z29587</name>
    <type>ZoneLivre Bretagne</type>
    <extensions>
      <osmand:color>#10c0f0</osmand:color>
      <osmand:background>square</osmand:background>
      <osmand:icon>public_bookcase</osmand:icon>
    </extensions>
  </wpt>
  <wpt lat="48.030265" lon="-1.759068">
    <name>Bruz z29584</name>
    <type>ZoneLivre Bretagne</type>
    <extensions>
      <osmand:color>#10c0f0</osmand:color>
      <osmand:background>square</osmand:background>
      <osmand:icon>public_bookcase</osmand:icon>
    </extensions>
  </wpt>
  <wpt lat="48.00168" lon="-1.714154">
    <name>Pont-Péan z29580</name>
    <type>ZoneLivre Bretagne</type>
    <extensions>
      <osmand:color>#10c0f0</osmand:color>
      <osmand:background>square</osmand:background>
      <osmand:icon>public_bookcase</osmand:icon>
    </extensions>
  </wpt>
  <wpt lat="47.959216" lon="-1.742451">
    <name>Laillé z29578</name>
    <type>ZoneLivre Bretagne</type>
    <extensions>
      <osmand:color>#10c0f0</osmand:color>
      <osmand:background>square</osmand:background>
      <osmand:icon>public_bookcase</osmand:icon>
    </extensions>
  </wpt>
  <wpt lat="47.928096" lon="-1.742438">
    <name>Bourg-des-Comptes z29576</name>
    <type>ZoneLivre Bretagne</type>
    <extensions>
      <osmand:color>#10c0f0</osmand:color>
      <osmand:background>square</osmand:background>
      <osmand:icon>public_bookcase</osmand:icon>
    </extensions>
  </wpt>
  <wpt lat="47.928516" lon="-1.738289">
    <name>Bourg-des-Comptes z29574</name>
    <type>ZoneLivre Bretagne</type>
    <extensions>
      <osmand:color>#10c0f0</osmand:color>
      <osmand:background>square</osmand:background>
      <osmand:icon>public_bookcase</osmand:icon>
    </extensions>
  </wpt>
  <wpt lat="47.927821" lon="-1.749964">
    <name>Bourg-des-Comptes z29572</name>
    <type>ZoneLivre Bretagne</type>
    <extensions>
      <osmand:color>#10c0f0</osmand:color>
      <osmand:background>square</osmand:background>
      <osmand:icon>public_bookcase</osmand:icon>
    </extensions>
  </wpt>
  <wpt lat="47.894845" lon="-1.749881">
    <name>Pléchâtel z29570</name>
    <type>ZoneLivre Bretagne</type>
    <extensions>
      <osmand:color>#10c0f0</osmand:color>
      <osmand:background>square</osmand:background>
      <osmand:icon>public_bookcase</osmand:icon>
    </extensions>
  </wpt>
  <wpt lat="47.869904" lon="-1.598103">
    <name>La Bosse-de-Bretagne z29568</name>
    <type>ZoneLivre Bretagne</type>
    <extensions>
      <osmand:color>#10c0f0</osmand:color>
      <osmand:background>square</osmand:background>
      <osmand:icon>public_bookcase</osmand:icon>
    </extensions>
  </wpt>
  <wpt lat="47.895474" lon="-1.613">
    <name>Le Sel-de-Bretagne z29566</name>
    <type>ZoneLivre Bretagne</type>
    <extensions>
      <osmand:color>#10c0f0</osmand:color>
      <osmand:background>square</osmand:background>
      <osmand:icon>public_bookcase</osmand:icon>
    </extensions>
  </wpt>
  <wpt lat="47.927632" lon="-1.606372">
    <name>Le Petit-Fougeray z29564</name>
    <type>ZoneLivre Bretagne</type>
    <extensions>
      <osmand:color>#10c0f0</osmand:color>
      <osmand:background>square</osmand:background>
      <osmand:icon>public_bookcase</osmand:icon>
    </extensions>
  </wpt>
  <wpt lat="47.96605" lon="-1.614223">
    <name>Chanteloup z29562</name>
    <type>ZoneLivre Bretagne</type>
    <extensions>
      <osmand:color>#10c0f0</osmand:color>
      <osmand:background>square</osmand:background>
      <osmand:icon>public_bookcase</osmand:icon>
    </extensions>
  </wpt>
  <wpt lat="47.977936" lon="-1.586696">
    <name>Corps-Nuds z29559</name>
    <type>ZoneLivre Bretagne</type>
    <extensions>
      <osmand:color>#10c0f0</osmand:color>
      <osmand:background>square</osmand:background>
      <osmand:icon>public_bookcase</osmand:icon>
    </extensions>
  </wpt>
  <wpt lat="47.955901" lon="-1.497491">
    <name>Janzé z29556</name>
    <type>ZoneLivre Bretagne</type>
    <extensions>
      <osmand:color>#10c0f0</osmand:color>
      <osmand:background>square</osmand:background>
      <osmand:icon>public_bookcase</osmand:icon>
    </extensions>
  </wpt>
  <wpt lat="47.95088" lon="-1.53731">
    <name>Brie (35) z29554</name>
    <type>ZoneLivre Bretagne</type>
    <extensions>
      <osmand:color>#10c0f0</osmand:color>
      <osmand:background>square</osmand:background>
      <osmand:icon>public_bookcase</osmand:icon>
    </extensions>
  </wpt>
  <wpt lat="48.124325" lon="-1.866201">
    <name>La Chapelle-Thouarault z29550</name>
    <type>ZoneLivre Bretagne</type>
    <extensions>
      <osmand:color>#10c0f0</osmand:color>
      <osmand:background>square</osmand:background>
      <osmand:icon>public_bookcase</osmand:icon>
    </extensions>
  </wpt>
  <wpt lat="48.104764" lon="-1.869771">
    <name>Cintré z29548</name>
    <type>ZoneLivre Bretagne</type>
    <extensions>
      <osmand:color>#10c0f0</osmand:color>
      <osmand:background>square</osmand:background>
      <osmand:icon>public_bookcase</osmand:icon>
    </extensions>
  </wpt>
  <wpt lat="48.138573" lon="-1.956822">
    <name>Montfort-sur-Meu z29546</name>
    <type>ZoneLivre Bretagne</type>
    <extensions>
      <osmand:color>#10c0f0</osmand:color>
      <osmand:background>square</osmand:background>
      <osmand:icon>public_bookcase</osmand:icon>
    </extensions>
  </wpt>
  <wpt lat="48.180942" lon="-1.944006">
    <name>Bédée z29544</name>
    <type>ZoneLivre Bretagne</type>
    <extensions>
      <osmand:color>#10c0f0</osmand:color>
      <osmand:background>square</osmand:background>
      <osmand:icon>public_bookcase</osmand:icon>
    </extensions>
  </wpt>
  <wpt lat="48.176503" lon="-1.945103">
    <name>Bédée z29542</name>
    <type>ZoneLivre Bretagne</type>
    <extensions>
      <osmand:color>#10c0f0</osmand:color>
      <osmand:background>square</osmand:background>
      <osmand:icon>public_bookcase</osmand:icon>
    </extensions>
  </wpt>
  <wpt lat="48.184219" lon="-1.919096">
    <name>Pleumeleuc z29539</name>
    <type>ZoneLivre Bretagne</type>
    <extensions>
      <osmand:color>#10c0f0</osmand:color>
      <osmand:background>square</osmand:background>
      <osmand:icon>public_bookcase</osmand:icon>
    </extensions>
  </wpt>
  <wpt lat="47.765234" lon="-1.961054">
    <name>Saint-Just z29536</name>
    <type>ZoneLivre Bretagne</type>
    <extensions>
      <osmand:color>#10c0f0</osmand:color>
      <osmand:background>square</osmand:background>
      <osmand:icon>public_bookcase</osmand:icon>
    </extensions>
  </wpt>
  <wpt lat="47.765463" lon="-1.961545">
    <name>Saint-Just z29534</name>
    <type>ZoneLivre Bretagne</type>
    <extensions>
      <osmand:color>#10c0f0</osmand:color>
      <osmand:background>square</osmand:background>
      <osmand:icon>public_bookcase</osmand:icon>
    </extensions>
  </wpt>
  <wpt lat="47.721836" lon="-1.849477">
    <name>Langon (35) z29531</name>
    <type>ZoneLivre Bretagne</type>
    <extensions>
      <osmand:color>#10c0f0</osmand:color>
      <osmand:background>square</osmand:background>
      <osmand:icon>public_bookcase</osmand:icon>
    </extensions>
  </wpt>
  <wpt lat="47.699677" lon="-1.934999">
    <name>La Chapelle-de-Brain z29528</name>
    <type>ZoneLivre Bretagne</type>
    <extensions>
      <osmand:color>#10c0f0</osmand:color>
      <osmand:background>square</osmand:background>
      <osmand:icon>public_bookcase</osmand:icon>
    </extensions>
  </wpt>
  <wpt lat="47.936249" lon="-2.080437">
    <name>Loutehel z29520</name>
    <type>ZoneLivre Bretagne</type>
    <extensions>
      <osmand:color>#10c0f0</osmand:color>
      <osmand:background>square</osmand:background>
      <osmand:icon>public_bookcase</osmand:icon>
    </extensions>
  </wpt>
  <wpt lat="48.129993" lon="-2.035011">
    <name>Iffendic z29518</name>
    <type>ZoneLivre Bretagne</type>
    <extensions>
      <osmand:color>#10c0f0</osmand:color>
      <osmand:background>square</osmand:background>
      <osmand:icon>public_bookcase</osmand:icon>
    </extensions>
  </wpt>
  <wpt lat="48.131844" lon="-2.222706">
    <name>Gaël z29516</name>
    <type>ZoneLivre Bretagne</type>
    <extensions>
      <osmand:color>#10c0f0</osmand:color>
      <osmand:background>square</osmand:background>
      <osmand:icon>public_bookcase</osmand:icon>
    </extensions>
  </wpt>
  <wpt lat="48.249814" lon="-2.142146">
    <name>Quédillac z29514</name>
    <type>ZoneLivre Bretagne</type>
    <extensions>
      <osmand:color>#10c0f0</osmand:color>
      <osmand:background>square</osmand:background>
      <osmand:icon>public_bookcase</osmand:icon>
    </extensions>
  </wpt>
  <wpt lat="48.041087" lon="-1.551197">
    <name>Nouvoitou z29511</name>
    <type>ZoneLivre Bretagne</type>
    <extensions>
      <osmand:color>#10c0f0</osmand:color>
      <osmand:background>square</osmand:background>
      <osmand:icon>public_bookcase</osmand:icon>
    </extensions>
  </wpt>
  <wpt lat="48.057112" lon="-1.524493">
    <name>Domloup z29509</name>
    <type>ZoneLivre Bretagne</type>
    <extensions>
      <osmand:color>#10c0f0</osmand:color>
      <osmand:background>square</osmand:background>
      <osmand:icon>public_bookcase</osmand:icon>
    </extensions>
  </wpt>
  <wpt lat="48.064981" lon="-1.517792">
    <name>Domloup z29506</name>
    <type>ZoneLivre Bretagne</type>
    <extensions>
      <osmand:color>#10c0f0</osmand:color>
      <osmand:background>square</osmand:background>
      <osmand:icon>public_bookcase</osmand:icon>
    </extensions>
  </wpt>
  <wpt lat="48.062271" lon="-1.520976">
    <name>Domloup z29503</name>
    <type>ZoneLivre Bretagne</type>
    <extensions>
      <osmand:color>#10c0f0</osmand:color>
      <osmand:background>square</osmand:background>
      <osmand:icon>public_bookcase</osmand:icon>
    </extensions>
  </wpt>
  <wpt lat="48.062079" lon="-1.522433">
    <name>Domloup z29500</name>
    <type>ZoneLivre Bretagne</type>
    <extensions>
      <osmand:color>#10c0f0</osmand:color>
      <osmand:background>square</osmand:background>
      <osmand:icon>public_bookcase</osmand:icon>
    </extensions>
  </wpt>
  <wpt lat="48.062117" lon="-1.525576">
    <name>Domloup z29498</name>
    <type>ZoneLivre Bretagne</type>
    <extensions>
      <osmand:color>#10c0f0</osmand:color>
      <osmand:background>square</osmand:background>
      <osmand:icon>public_bookcase</osmand:icon>
    </extensions>
  </wpt>
  <wpt lat="48.113655" lon="-1.607424">
    <name>Cesson-Sévigné z29494</name>
    <type>ZoneLivre Bretagne</type>
    <extensions>
      <osmand:color>#10c0f0</osmand:color>
      <osmand:background>square</osmand:background>
      <osmand:icon>public_bookcase</osmand:icon>
    </extensions>
  </wpt>
  <wpt lat="48.07603" lon="-1.63694">
    <name>Chantepie z29492</name>
    <type>ZoneLivre Bretagne</type>
    <extensions>
      <osmand:color>#10c0f0</osmand:color>
      <osmand:background>square</osmand:background>
      <osmand:icon>public_bookcase</osmand:icon>
    </extensions>
  </wpt>
  <wpt lat="48.089353" lon="-1.623756">
    <name>Chantepie z29490</name>
    <type>ZoneLivre Bretagne</type>
    <extensions>
      <osmand:color>#10c0f0</osmand:color>
      <osmand:background>square</osmand:background>
      <osmand:icon>public_bookcase</osmand:icon>
    </extensions>
  </wpt>
  <wpt lat="48.099095" lon="-1.681361">
    <name>Rennes z29488</name>
    <type>ZoneLivre Bretagne</type>
    <extensions>
      <osmand:color>#10c0f0</osmand:color>
      <osmand:background>square</osmand:background>
      <osmand:icon>public_bookcase</osmand:icon>
    </extensions>
  </wpt>
  <wpt lat="48.126278" lon="-1.640026">
    <name>Rennes z29485</name>
    <type>ZoneLivre Bretagne</type>
    <extensions>
      <osmand:color>#10c0f0</osmand:color>
      <osmand:background>square</osmand:background>
      <osmand:icon>public_bookcase</osmand:icon>
    </extensions>
  </wpt>
  <wpt lat="48.107505" lon="-1.683564">
    <name>Rennes z29483</name>
    <type>ZoneLivre Bretagne</type>
    <extensions>
      <osmand:color>#10c0f0</osmand:color>
      <osmand:background>square</osmand:background>
      <osmand:icon>public_bookcase</osmand:icon>
    </extensions>
  </wpt>
  <wpt lat="48.102529" lon="-1.651667">
    <name>Rennes z29481</name>
    <type>ZoneLivre Bretagne</type>
    <extensions>
      <osmand:color>#10c0f0</osmand:color>
      <osmand:background>square</osmand:background>
      <osmand:icon>public_bookcase</osmand:icon>
    </extensions>
  </wpt>
  <wpt lat="48.088375" lon="-1.64652">
    <name>Rennes z29479</name>
    <type>ZoneLivre Bretagne</type>
    <extensions>
      <osmand:color>#10c0f0</osmand:color>
      <osmand:background>square</osmand:background>
      <osmand:icon>public_bookcase</osmand:icon>
    </extensions>
  </wpt>
  <wpt lat="48.089425" lon="-1.66073">
    <name>Rennes z29477</name>
    <type>ZoneLivre Bretagne</type>
    <extensions>
      <osmand:color>#10c0f0</osmand:color>
      <osmand:background>square</osmand:background>
      <osmand:icon>public_bookcase</osmand:icon>
    </extensions>
  </wpt>
  <wpt lat="48.092816" lon="-1.667111">
    <name>Rennes z29474</name>
    <type>ZoneLivre Bretagne</type>
    <extensions>
      <osmand:color>#10c0f0</osmand:color>
      <osmand:background>square</osmand:background>
      <osmand:icon>public_bookcase</osmand:icon>
    </extensions>
  </wpt>
  <wpt lat="48.089665" lon="-1.672073">
    <name>Rennes z29472</name>
    <type>ZoneLivre Bretagne</type>
    <extensions>
      <osmand:color>#10c0f0</osmand:color>
      <osmand:background>square</osmand:background>
      <osmand:icon>public_bookcase</osmand:icon>
    </extensions>
  </wpt>
  <wpt lat="48.107544" lon="-1.705568">
    <name>Rennes z29471</name>
    <type>ZoneLivre Bretagne</type>
    <extensions>
      <osmand:color>#10c0f0</osmand:color>
      <osmand:background>square</osmand:background>
      <osmand:icon>public_bookcase</osmand:icon>
    </extensions>
  </wpt>
  <wpt lat="48.119956" lon="-1.706786">
    <name>Rennes z29469</name>
    <type>ZoneLivre Bretagne</type>
    <extensions>
      <osmand:color>#10c0f0</osmand:color>
      <osmand:background>square</osmand:background>
      <osmand:icon>public_bookcase</osmand:icon>
    </extensions>
  </wpt>
  <wpt lat="48.117956" lon="-1.650302">
    <name>Rennes z29467</name>
    <type>ZoneLivre Bretagne</type>
    <extensions>
      <osmand:color>#10c0f0</osmand:color>
      <osmand:background>square</osmand:background>
      <osmand:icon>public_bookcase</osmand:icon>
    </extensions>
  </wpt>
  <wpt lat="48.120828" lon="-1.649821">
    <name>Rennes z29464</name>
    <type>ZoneLivre Bretagne</type>
    <extensions>
      <osmand:color>#10c0f0</osmand:color>
      <osmand:background>square</osmand:background>
      <osmand:icon>public_bookcase</osmand:icon>
    </extensions>
  </wpt>
  <wpt lat="48.124541" lon="-1.229085">
    <name>Vitré z29452</name>
    <type>ZoneLivre Bretagne</type>
    <extensions>
      <osmand:color>#10c0f0</osmand:color>
      <osmand:background>square</osmand:background>
      <osmand:icon>public_bookcase</osmand:icon>
    </extensions>
  </wpt>
  <wpt lat="48.110496" lon="-1.483321">
    <name>Brécé (35) z29450</name>
    <type>ZoneLivre Bretagne</type>
    <extensions>
      <osmand:color>#10c0f0</osmand:color>
      <osmand:background>square</osmand:background>
      <osmand:icon>public_bookcase</osmand:icon>
    </extensions>
  </wpt>
  <wpt lat="48.249435" lon="-1.948818">
    <name>Irodouër z29448</name>
    <type>ZoneLivre Bretagne</type>
    <extensions>
      <osmand:color>#10c0f0</osmand:color>
      <osmand:background>square</osmand:background>
      <osmand:icon>public_bookcase</osmand:icon>
    </extensions>
  </wpt>
  <wpt lat="48.215737" lon="-1.891738">
    <name>Romillé z29446</name>
    <type>ZoneLivre Bretagne</type>
    <extensions>
      <osmand:color>#10c0f0</osmand:color>
      <osmand:background>square</osmand:background>
      <osmand:icon>public_bookcase</osmand:icon>
    </extensions>
  </wpt>
  <wpt lat="48.25008" lon="-1.823266">
    <name>Langouet z29443</name>
    <type>ZoneLivre Bretagne</type>
    <extensions>
      <osmand:color>#10c0f0</osmand:color>
      <osmand:background>square</osmand:background>
      <osmand:icon>public_bookcase</osmand:icon>
    </extensions>
  </wpt>
  <wpt lat="48.332095" lon="-1.843573">
    <name>Tinténiac z29440</name>
    <type>ZoneLivre Bretagne</type>
    <extensions>
      <osmand:color>#10c0f0</osmand:color>
      <osmand:background>square</osmand:background>
      <osmand:icon>public_bookcase</osmand:icon>
    </extensions>
  </wpt>
  <wpt lat="48.327897" lon="-1.83947">
    <name>Tinténiac z29438</name>
    <type>ZoneLivre Bretagne</type>
    <extensions>
      <osmand:color>#10c0f0</osmand:color>
      <osmand:background>square</osmand:background>
      <osmand:icon>public_bookcase</osmand:icon>
    </extensions>
  </wpt>
  <wpt lat="48.329225" lon="-1.83502">
    <name>Tinténiac z29436</name>
    <type>ZoneLivre Bretagne</type>
    <extensions>
      <osmand:color>#10c0f0</osmand:color>
      <osmand:background>square</osmand:background>
      <osmand:icon>public_bookcase</osmand:icon>
    </extensions>
  </wpt>
  <wpt lat="48.409107" lon="-1.751356">
    <name>Combourg z29434</name>
    <type>ZoneLivre Bretagne</type>
    <extensions>
      <osmand:color>#10c0f0</osmand:color>
      <osmand:background>square</osmand:background>
      <osmand:icon>public_bookcase</osmand:icon>
    </extensions>
  </wpt>
  <wpt lat="48.312241" lon="-1.719677">
    <name>Guipel z29431</name>
    <type>ZoneLivre Bretagne</type>
    <extensions>
      <osmand:color>#10c0f0</osmand:color>
      <osmand:background>square</osmand:background>
      <osmand:icon>public_bookcase</osmand:icon>
    </extensions>
  </wpt>
  <wpt lat="48.27315" lon="-1.660113">
    <name>Saint-Médard-sur-Ille z29429</name>
    <type>ZoneLivre Bretagne</type>
    <extensions>
      <osmand:color>#10c0f0</osmand:color>
      <osmand:background>square</osmand:background>
      <osmand:icon>public_bookcase</osmand:icon>
    </extensions>
  </wpt>
  <wpt lat="48.209485" lon="-1.512288">
    <name>Liffré z29427</name>
    <type>ZoneLivre Bretagne</type>
    <extensions>
      <osmand:color>#10c0f0</osmand:color>
      <osmand:background>square</osmand:background>
      <osmand:icon>public_bookcase</osmand:icon>
    </extensions>
  </wpt>
  <wpt lat="48.21827" lon="-1.34369">
    <name>Livré-sur-Changeon z29424</name>
    <type>ZoneLivre Bretagne</type>
    <extensions>
      <osmand:color>#10c0f0</osmand:color>
      <osmand:background>square</osmand:background>
      <osmand:icon>public_bookcase</osmand:icon>
    </extensions>
  </wpt>
  <wpt lat="48.178215" lon="-1.116684">
    <name>Saint-M'Hervé z29422</name>
    <type>ZoneLivre Bretagne</type>
    <extensions>
      <osmand:color>#10c0f0</osmand:color>
      <osmand:background>square</osmand:background>
      <osmand:icon>public_bookcase</osmand:icon>
    </extensions>
  </wpt>
  <wpt lat="48.551023" lon="-1.944974">
    <name>La Ville-ès-Nonais z29382</name>
    <type>ZoneLivre Bretagne</type>
    <extensions>
      <osmand:color>#10c0f0</osmand:color>
      <osmand:background>square</osmand:background>
      <osmand:icon>public_bookcase</osmand:icon>
    </extensions>
  </wpt>
  <wpt lat="48.537787" lon="-1.966751">
    <name>La Ville-ès-Nonais z29380</name>
    <type>ZoneLivre Bretagne</type>
    <extensions>
      <osmand:color>#10c0f0</osmand:color>
      <osmand:background>square</osmand:background>
      <osmand:icon>public_bookcase</osmand:icon>
    </extensions>
  </wpt>
  <wpt lat="48.570309" lon="-1.973046">
    <name>Saint-Suliac z29377</name>
    <type>ZoneLivre Bretagne</type>
    <extensions>
      <osmand:color>#10c0f0</osmand:color>
      <osmand:background>square</osmand:background>
      <osmand:icon>public_bookcase</osmand:icon>
    </extensions>
  </wpt>
  <wpt lat="48.593775" lon="-1.980624">
    <name>Saint-Jouan-des-Guérets z29374</name>
    <type>ZoneLivre Bretagne</type>
    <extensions>
      <osmand:color>#10c0f0</osmand:color>
      <osmand:background>square</osmand:background>
      <osmand:icon>public_bookcase</osmand:icon>
    </extensions>
  </wpt>
  <wpt lat="48.58273" lon="-2.00596">
    <name>Le Minihic-sur-Rance z29372</name>
    <type>ZoneLivre Bretagne</type>
    <extensions>
      <osmand:color>#10c0f0</osmand:color>
      <osmand:background>square</osmand:background>
      <osmand:icon>public_bookcase</osmand:icon>
    </extensions>
  </wpt>
  <wpt lat="48.617715" lon="-2.037068">
    <name>La Richardais z29370</name>
    <type>ZoneLivre Bretagne</type>
    <extensions>
      <osmand:color>#10c0f0</osmand:color>
      <osmand:background>square</osmand:background>
      <osmand:icon>public_bookcase</osmand:icon>
    </extensions>
  </wpt>
  <wpt lat="48.411297" lon="-1.365497">
    <name>Saint-Brice-en-Coglès z29366</name>
    <type>ZoneLivre Bretagne</type>
    <extensions>
      <osmand:color>#10c0f0</osmand:color>
      <osmand:background>square</osmand:background>
      <osmand:icon>public_bookcase</osmand:icon>
    </extensions>
  </wpt>
  <wpt lat="48.108217" lon="-1.92938">
    <name>Talensac z29337</name>
    <type>ZoneLivre Bretagne</type>
    <extensions>
      <osmand:color>#10c0f0</osmand:color>
      <osmand:background>square</osmand:background>
      <osmand:icon>public_bookcase</osmand:icon>
    </extensions>
  </wpt>
  <wpt lat="47.704634" lon="-2.070419">
    <name>Bains-sur-Oust z29334</name>
    <type>ZoneLivre Bretagne</type>
    <extensions>
      <osmand:color>#10c0f0</osmand:color>
      <osmand:background>square</osmand:background>
      <osmand:icon>public_bookcase</osmand:icon>
    </extensions>
  </wpt>
  <wpt lat="47.988335" lon="-2.382931">
    <name>Loyat z29181</name>
    <type>ZoneLivre Bretagne</type>
    <extensions>
      <osmand:color>#10c0f0</osmand:color>
      <osmand:background>square</osmand:background>
      <osmand:icon>public_bookcase</osmand:icon>
    </extensions>
  </wpt>
  <wpt lat="47.860182" lon="-2.236439">
    <name>Réminiac z29179</name>
    <type>ZoneLivre Bretagne</type>
    <extensions>
      <osmand:color>#10c0f0</osmand:color>
      <osmand:background>square</osmand:background>
      <osmand:icon>public_bookcase</osmand:icon>
    </extensions>
  </wpt>
  <wpt lat="47.746188" lon="-2.255799">
    <name>Saint-Martin-sur-Oust z29177</name>
    <type>ZoneLivre Bretagne</type>
    <extensions>
      <osmand:color>#10c0f0</osmand:color>
      <osmand:background>square</osmand:background>
      <osmand:icon>public_bookcase</osmand:icon>
    </extensions>
  </wpt>
  <wpt lat="47.978938" lon="-3.041215">
    <name>Saint-Nicolas-des-Eaux z29173</name>
    <type>ZoneLivre Bretagne</type>
    <extensions>
      <osmand:color>#10c0f0</osmand:color>
      <osmand:background>square</osmand:background>
      <osmand:icon>public_bookcase</osmand:icon>
    </extensions>
  </wpt>
  <wpt lat="47.602503" lon="-2.861099">
    <name>Baden z29171</name>
    <type>ZoneLivre Bretagne</type>
    <extensions>
      <osmand:color>#10c0f0</osmand:color>
      <osmand:background>square</osmand:background>
      <osmand:icon>public_bookcase</osmand:icon>
    </extensions>
  </wpt>
  <wpt lat="47.69797" lon="-2.80476">
    <name>Plescop z29169</name>
    <type>ZoneLivre Bretagne</type>
    <extensions>
      <osmand:color>#10c0f0</osmand:color>
      <osmand:background>square</osmand:background>
      <osmand:icon>public_bookcase</osmand:icon>
    </extensions>
  </wpt>
  <wpt lat="47.699334" lon="-2.80922">
    <name>Plescop z29167</name>
    <type>ZoneLivre Bretagne</type>
    <extensions>
      <osmand:color>#10c0f0</osmand:color>
      <osmand:background>square</osmand:background>
      <osmand:icon>public_bookcase</osmand:icon>
    </extensions>
  </wpt>
  <wpt lat="47.525651" lon="-2.736132">
    <name>Sarzeau z29164</name>
    <type>ZoneLivre Bretagne</type>
    <extensions>
      <osmand:color>#10c0f0</osmand:color>
      <osmand:background>square</osmand:background>
      <osmand:icon>public_bookcase</osmand:icon>
    </extensions>
  </wpt>
  <wpt lat="47.505305" lon="-2.676976">
    <name>Sarzeau z29161</name>
    <type>ZoneLivre Bretagne</type>
    <extensions>
      <osmand:color>#10c0f0</osmand:color>
      <osmand:background>square</osmand:background>
      <osmand:icon>public_bookcase</osmand:icon>
    </extensions>
  </wpt>
  <wpt lat="47.736558" lon="-3.233741">
    <name>Merlevenez z29158</name>
    <type>ZoneLivre Bretagne</type>
    <extensions>
      <osmand:color>#10c0f0</osmand:color>
      <osmand:background>square</osmand:background>
      <osmand:icon>public_bookcase</osmand:icon>
    </extensions>
  </wpt>
  <wpt lat="47.69553" lon="-3.249713">
    <name>Plouhinec z29156</name>
    <type>ZoneLivre Bretagne</type>
    <extensions>
      <osmand:color>#10c0f0</osmand:color>
      <osmand:background>square</osmand:background>
      <osmand:icon>public_bookcase</osmand:icon>
    </extensions>
  </wpt>
  <wpt lat="47.704985" lon="-3.384099">
    <name>Larmor-Plage z29154</name>
    <type>ZoneLivre Bretagne</type>
    <extensions>
      <osmand:color>#10c0f0</osmand:color>
      <osmand:background>square</osmand:background>
      <osmand:icon>public_bookcase</osmand:icon>
    </extensions>
  </wpt>
  <wpt lat="47.83439" lon="-3.400566">
    <name>Pont-Scorff z29152</name>
    <type>ZoneLivre Bretagne</type>
    <extensions>
      <osmand:color>#10c0f0</osmand:color>
      <osmand:background>square</osmand:background>
      <osmand:icon>public_bookcase</osmand:icon>
    </extensions>
  </wpt>
  <wpt lat="47.790769" lon="-3.418972">
    <name>Quéven z29150</name>
    <type>ZoneLivre Bretagne</type>
    <extensions>
      <osmand:color>#10c0f0</osmand:color>
      <osmand:background>square</osmand:background>
      <osmand:icon>public_bookcase</osmand:icon>
    </extensions>
  </wpt>
  <wpt lat="47.789106" lon="-3.413511">
    <name>Quéven z29148</name>
    <type>ZoneLivre Bretagne</type>
    <extensions>
      <osmand:color>#10c0f0</osmand:color>
      <osmand:background>square</osmand:background>
      <osmand:icon>public_bookcase</osmand:icon>
    </extensions>
  </wpt>
  <wpt lat="47.732606" lon="-3.34442">
    <name>Locmiquélic z29088</name>
    <type>ZoneLivre Bretagne</type>
    <extensions>
      <osmand:color>#10c0f0</osmand:color>
      <osmand:background>square</osmand:background>
      <osmand:icon>public_bookcase</osmand:icon>
    </extensions>
  </wpt>
  <wpt lat="47.826417" lon="-3.251084">
    <name>Inzinzac-Lochrist z29086</name>
    <type>ZoneLivre Bretagne</type>
    <extensions>
      <osmand:color>#10c0f0</osmand:color>
      <osmand:background>square</osmand:background>
      <osmand:icon>public_bookcase</osmand:icon>
    </extensions>
  </wpt>
  <wpt lat="47.806158" lon="-3.282951">
    <name>Hennebont z29083</name>
    <type>ZoneLivre Bretagne</type>
    <extensions>
      <osmand:color>#10c0f0</osmand:color>
      <osmand:background>square</osmand:background>
      <osmand:icon>public_bookcase</osmand:icon>
    </extensions>
  </wpt>
  <wpt lat="47.802025" lon="-3.272156">
    <name>Hennebont z29081</name>
    <type>ZoneLivre Bretagne</type>
    <extensions>
      <osmand:color>#10c0f0</osmand:color>
      <osmand:background>square</osmand:background>
      <osmand:icon>public_bookcase</osmand:icon>
    </extensions>
  </wpt>
  <wpt lat="48.099477" lon="-3.339699">
    <name>Saint-Tugdual z29078</name>
    <type>ZoneLivre Bretagne</type>
    <extensions>
      <osmand:color>#10c0f0</osmand:color>
      <osmand:background>square</osmand:background>
      <osmand:icon>public_bookcase</osmand:icon>
    </extensions>
  </wpt>
  <wpt lat="48.08711" lon="-3.28684">
    <name>Ploërdut z29076</name>
    <type>ZoneLivre Bretagne</type>
    <extensions>
      <osmand:color>#10c0f0</osmand:color>
      <osmand:background>square</osmand:background>
      <osmand:icon>public_bookcase</osmand:icon>
    </extensions>
  </wpt>
  <wpt lat="48.067632" lon="-3.206661">
    <name>Guémené-sur-Scorff z29073</name>
    <type>ZoneLivre Bretagne</type>
    <extensions>
      <osmand:color>#10c0f0</osmand:color>
      <osmand:background>square</osmand:background>
      <osmand:icon>public_bookcase</osmand:icon>
    </extensions>
  </wpt>
  <wpt lat="48.068623" lon="-3.203054">
    <name>Guémené-sur-Scorff z29069</name>
    <type>ZoneLivre Bretagne</type>
    <extensions>
      <osmand:color>#10c0f0</osmand:color>
      <osmand:background>square</osmand:background>
      <osmand:icon>public_bookcase</osmand:icon>
    </extensions>
  </wpt>
  <wpt lat="48.030152" lon="-3.091632">
    <name>Guern z29067</name>
    <type>ZoneLivre Bretagne</type>
    <extensions>
      <osmand:color>#10c0f0</osmand:color>
      <osmand:background>square</osmand:background>
      <osmand:icon>public_bookcase</osmand:icon>
    </extensions>
  </wpt>
  <wpt lat="48.124309" lon="-3.069456">
    <name>Cléguérec z29065</name>
    <type>ZoneLivre Bretagne</type>
    <extensions>
      <osmand:color>#10c0f0</osmand:color>
      <osmand:background>square</osmand:background>
      <osmand:icon>public_bookcase</osmand:icon>
    </extensions>
  </wpt>
  <wpt lat="48.044053" lon="-2.988018">
    <name>Le Sourn z29062</name>
    <type>ZoneLivre Bretagne</type>
    <extensions>
      <osmand:color>#10c0f0</osmand:color>
      <osmand:background>square</osmand:background>
      <osmand:icon>public_bookcase</osmand:icon>
    </extensions>
  </wpt>
  <wpt lat="48.074099" lon="-2.963887">
    <name>Pontivy z29060</name>
    <type>ZoneLivre Bretagne</type>
    <extensions>
      <osmand:color>#10c0f0</osmand:color>
      <osmand:background>square</osmand:background>
      <osmand:icon>public_bookcase</osmand:icon>
    </extensions>
  </wpt>
  <wpt lat="48.068457" lon="-2.952999">
    <name>Pontivy z29057</name>
    <type>ZoneLivre Bretagne</type>
    <extensions>
      <osmand:color>#10c0f0</osmand:color>
      <osmand:background>square</osmand:background>
      <osmand:icon>public_bookcase</osmand:icon>
    </extensions>
  </wpt>
  <wpt lat="48.058056" lon="-2.949773">
    <name>Pontivy z29055</name>
    <type>ZoneLivre Bretagne</type>
    <extensions>
      <osmand:color>#10c0f0</osmand:color>
      <osmand:background>square</osmand:background>
      <osmand:icon>public_bookcase</osmand:icon>
    </extensions>
  </wpt>
  <wpt lat="47.735873" lon="-2.582176">
    <name>Elven z29053</name>
    <type>ZoneLivre Bretagne</type>
    <extensions>
      <osmand:color>#10c0f0</osmand:color>
      <osmand:background>square</osmand:background>
      <osmand:icon>public_bookcase</osmand:icon>
    </extensions>
  </wpt>
  <wpt lat="47.738409" lon="-2.581286">
    <name>Elven z29051</name>
    <type>ZoneLivre Bretagne</type>
    <extensions>
      <osmand:color>#10c0f0</osmand:color>
      <osmand:background>square</osmand:background>
      <osmand:icon>public_bookcase</osmand:icon>
    </extensions>
  </wpt>
  <wpt lat="47.48236" lon="-2.342797">
    <name>Férel z29049</name>
    <type>ZoneLivre Bretagne</type>
    <extensions>
      <osmand:color>#10c0f0</osmand:color>
      <osmand:background>square</osmand:background>
      <osmand:icon>public_bookcase</osmand:icon>
    </extensions>
  </wpt>
  <wpt lat="47.52837" lon="-2.400413">
    <name>Arzal z29047</name>
    <type>ZoneLivre Bretagne</type>
    <extensions>
      <osmand:color>#10c0f0</osmand:color>
      <osmand:background>square</osmand:background>
      <osmand:icon>public_bookcase</osmand:icon>
    </extensions>
  </wpt>
  <wpt lat="47.517945" lon="-2.378596">
    <name>Arzal z29045</name>
    <type>ZoneLivre Bretagne</type>
    <extensions>
      <osmand:color>#10c0f0</osmand:color>
      <osmand:background>square</osmand:background>
      <osmand:icon>public_bookcase</osmand:icon>
    </extensions>
  </wpt>
  <wpt lat="47.516451" lon="-2.603188">
    <name>Damgan z29043</name>
    <type>ZoneLivre Bretagne</type>
    <extensions>
      <osmand:color>#10c0f0</osmand:color>
      <osmand:background>square</osmand:background>
      <osmand:icon>public_bookcase</osmand:icon>
    </extensions>
  </wpt>
  <wpt lat="47.887888" lon="-2.836844">
    <name>Locminé z29040</name>
    <type>ZoneLivre Bretagne</type>
    <extensions>
      <osmand:color>#10c0f0</osmand:color>
      <osmand:background>square</osmand:background>
      <osmand:icon>public_bookcase</osmand:icon>
    </extensions>
  </wpt>
  <wpt lat="47.90503" lon="-3.133585">
    <name>Quistinic z29037</name>
    <type>ZoneLivre Bretagne</type>
    <extensions>
      <osmand:color>#10c0f0</osmand:color>
      <osmand:background>square</osmand:background>
      <osmand:icon>public_bookcase</osmand:icon>
    </extensions>
  </wpt>
  <wpt lat="47.866843" lon="-3.234503">
    <name>Inzinzac-Lochrist z29033</name>
    <type>ZoneLivre Bretagne</type>
    <extensions>
      <osmand:color>#10c0f0</osmand:color>
      <osmand:background>square</osmand:background>
      <osmand:icon>public_bookcase</osmand:icon>
    </extensions>
  </wpt>
  <wpt lat="47.91531" lon="-3.334651">
    <name>Plouay z29030</name>
    <type>ZoneLivre Bretagne</type>
    <extensions>
      <osmand:color>#10c0f0</osmand:color>
      <osmand:background>square</osmand:background>
      <osmand:icon>public_bookcase</osmand:icon>
    </extensions>
  </wpt>
  <wpt lat="47.890881" lon="-2.467514">
    <name>Quily z29028</name>
    <type>ZoneLivre Bretagne</type>
    <extensions>
      <osmand:color>#10c0f0</osmand:color>
      <osmand:background>square</osmand:background>
      <osmand:icon>public_bookcase</osmand:icon>
    </extensions>
  </wpt>
  <wpt lat="47.780948" lon="-2.437924">
    <name>Bohal z29026</name>
    <type>ZoneLivre Bretagne</type>
    <extensions>
      <osmand:color>#10c0f0</osmand:color>
      <osmand:background>square</osmand:background>
      <osmand:icon>public_bookcase</osmand:icon>
    </extensions>
  </wpt>
  <wpt lat="47.958451" lon="-2.439096">
    <name>Taupont z29024</name>
    <type>ZoneLivre Bretagne</type>
    <extensions>
      <osmand:color>#10c0f0</osmand:color>
      <osmand:background>square</osmand:background>
      <osmand:icon>public_bookcase</osmand:icon>
    </extensions>
  </wpt>
  <wpt lat="47.913365" lon="-2.420924">
    <name>Ploërmel z29021</name>
    <type>ZoneLivre Bretagne</type>
    <extensions>
      <osmand:color>#10c0f0</osmand:color>
      <osmand:background>square</osmand:background>
      <osmand:icon>public_bookcase</osmand:icon>
    </extensions>
  </wpt>
  <wpt lat="47.937191" lon="-2.36098">
    <name>Gourhel z29019</name>
    <type>ZoneLivre Bretagne</type>
    <extensions>
      <osmand:color>#10c0f0</osmand:color>
      <osmand:background>square</osmand:background>
      <osmand:icon>public_bookcase</osmand:icon>
    </extensions>
  </wpt>
  <wpt lat="47.637318" lon="-2.126791">
    <name>Saint-Jean-la-Poterie z29015</name>
    <type>ZoneLivre Bretagne</type>
    <extensions>
      <osmand:color>#10c0f0</osmand:color>
      <osmand:background>square</osmand:background>
      <osmand:icon>public_bookcase</osmand:icon>
    </extensions>
  </wpt>
  <wpt lat="47.765302" lon="-2.131423">
    <name>La Gacilly z29013</name>
    <type>ZoneLivre Bretagne</type>
    <extensions>
      <osmand:color>#10c0f0</osmand:color>
      <osmand:background>square</osmand:background>
      <osmand:icon>public_bookcase</osmand:icon>
    </extensions>
  </wpt>
  <wpt lat="47.911384" lon="-2.126404">
    <name>Guer z29009</name>
    <type>ZoneLivre Bretagne</type>
    <extensions>
      <osmand:color>#10c0f0</osmand:color>
      <osmand:background>square</osmand:background>
      <osmand:icon>public_bookcase</osmand:icon>
    </extensions>
  </wpt>
  <wpt lat="47.863455" lon="-2.321098">
    <name>Caro z29008</name>
    <type>ZoneLivre Bretagne</type>
    <extensions>
      <osmand:color>#10c0f0</osmand:color>
      <osmand:background>square</osmand:background>
      <osmand:icon>public_bookcase</osmand:icon>
    </extensions>
  </wpt>
  <wpt lat="47.903282" lon="-2.109681">
    <name>Guer z29006</name>
    <type>ZoneLivre Bretagne</type>
    <extensions>
      <osmand:color>#10c0f0</osmand:color>
      <osmand:background>square</osmand:background>
      <osmand:icon>public_bookcase</osmand:icon>
    </extensions>
  </wpt>
  <wpt lat="47.7319" lon="-3.386847">
    <name>Lorient z28962</name>
    <type>ZoneLivre Bretagne</type>
    <extensions>
      <osmand:color>#10c0f0</osmand:color>
      <osmand:background>square</osmand:background>
      <osmand:icon>public_bookcase</osmand:icon>
    </extensions>
  </wpt>
  <wpt lat="47.763938" lon="-3.403224">
    <name>Lorient z28959</name>
    <type>ZoneLivre Bretagne</type>
    <extensions>
      <osmand:color>#10c0f0</osmand:color>
      <osmand:background>square</osmand:background>
      <osmand:icon>public_bookcase</osmand:icon>
    </extensions>
  </wpt>
  <wpt lat="47.761208" lon="-3.38598">
    <name>Lorient z28957</name>
    <type>ZoneLivre Bretagne</type>
    <extensions>
      <osmand:color>#10c0f0</osmand:color>
      <osmand:background>square</osmand:background>
      <osmand:icon>public_bookcase</osmand:icon>
    </extensions>
  </wpt>
  <wpt lat="47.756806" lon="-3.367145">
    <name>Lorient z28955</name>
    <type>ZoneLivre Bretagne</type>
    <extensions>
      <osmand:color>#10c0f0</osmand:color>
      <osmand:background>square</osmand:background>
      <osmand:icon>public_bookcase</osmand:icon>
    </extensions>
  </wpt>
  <wpt lat="47.748183" lon="-3.357536">
    <name>Lorient z28952</name>
    <type>ZoneLivre Bretagne</type>
    <extensions>
      <osmand:color>#10c0f0</osmand:color>
      <osmand:background>square</osmand:background>
      <osmand:icon>public_bookcase</osmand:icon>
    </extensions>
  </wpt>
  <wpt lat="47.743277" lon="-3.359448">
    <name>Lorient z28950</name>
    <type>ZoneLivre Bretagne</type>
    <extensions>
      <osmand:color>#10c0f0</osmand:color>
      <osmand:background>square</osmand:background>
      <osmand:icon>public_bookcase</osmand:icon>
    </extensions>
  </wpt>
  <wpt lat="47.745197" lon="-3.374564">
    <name>Lorient z28948</name>
    <type>ZoneLivre Bretagne</type>
    <extensions>
      <osmand:color>#10c0f0</osmand:color>
      <osmand:background>square</osmand:background>
      <osmand:icon>public_bookcase</osmand:icon>
    </extensions>
  </wpt>
  <wpt lat="47.739177" lon="-3.377376">
    <name>Lorient z28946</name>
    <type>ZoneLivre Bretagne</type>
    <extensions>
      <osmand:color>#10c0f0</osmand:color>
      <osmand:background>square</osmand:background>
      <osmand:icon>public_bookcase</osmand:icon>
    </extensions>
  </wpt>
  <wpt lat="47.736287" lon="-3.371298">
    <name>Lorient z28944</name>
    <type>ZoneLivre Bretagne</type>
    <extensions>
      <osmand:color>#10c0f0</osmand:color>
      <osmand:background>square</osmand:background>
      <osmand:icon>public_bookcase</osmand:icon>
    </extensions>
  </wpt>
  <wpt lat="47.70847" lon="-3.34434">
    <name>Port-Louis z28942</name>
    <type>ZoneLivre Bretagne</type>
    <extensions>
      <osmand:color>#10c0f0</osmand:color>
      <osmand:background>square</osmand:background>
      <osmand:icon>public_bookcase</osmand:icon>
    </extensions>
  </wpt>
  <wpt lat="47.6966" lon="-3.35289">
    <name>Gâvres z28940</name>
    <type>ZoneLivre Bretagne</type>
    <extensions>
      <osmand:color>#10c0f0</osmand:color>
      <osmand:background>square</osmand:background>
      <osmand:icon>public_bookcase</osmand:icon>
    </extensions>
  </wpt>
  <wpt lat="47.887618" lon="-2.834679">
    <name>Locminé z28838</name>
    <type>ZoneLivre Bretagne</type>
    <extensions>
      <osmand:color>#10c0f0</osmand:color>
      <osmand:background>square</osmand:background>
      <osmand:icon>public_bookcase</osmand:icon>
    </extensions>
  </wpt>
  <wpt lat="48.065196" lon="-2.883281">
    <name>Noyal-Pontivy z28834</name>
    <type>ZoneLivre Bretagne</type>
    <extensions>
      <osmand:color>#10c0f0</osmand:color>
      <osmand:background>square</osmand:background>
      <osmand:icon>public_bookcase</osmand:icon>
    </extensions>
  </wpt>
  <wpt lat="48.108011" lon="-2.887326">
    <name>Saint-Gérand z28830</name>
    <type>ZoneLivre Bretagne</type>
    <extensions>
      <osmand:color>#10c0f0</osmand:color>
      <osmand:background>square</osmand:background>
      <osmand:icon>public_bookcase</osmand:icon>
    </extensions>
  </wpt>
  <wpt lat="47.64292" lon="-2.780751">
    <name>Vannes z28828</name>
    <type>ZoneLivre Bretagne</type>
    <extensions>
      <osmand:color>#10c0f0</osmand:color>
      <osmand:background>square</osmand:background>
      <osmand:icon>public_bookcase</osmand:icon>
    </extensions>
  </wpt>
  <wpt lat="47.639328" lon="-2.772052">
    <name>Vannes z28826</name>
    <type>ZoneLivre Bretagne</type>
    <extensions>
      <osmand:color>#10c0f0</osmand:color>
      <osmand:background>square</osmand:background>
      <osmand:icon>public_bookcase</osmand:icon>
    </extensions>
  </wpt>
  <wpt lat="47.6518" lon="-2.757611">
    <name>Vannes z28824</name>
    <type>ZoneLivre Bretagne</type>
    <extensions>
      <osmand:color>#10c0f0</osmand:color>
      <osmand:background>square</osmand:background>
      <osmand:icon>public_bookcase</osmand:icon>
    </extensions>
  </wpt>
  <wpt lat="47.661646" lon="-2.735124">
    <name>Vannes z28821</name>
    <type>ZoneLivre Bretagne</type>
    <extensions>
      <osmand:color>#10c0f0</osmand:color>
      <osmand:background>square</osmand:background>
      <osmand:icon>public_bookcase</osmand:icon>
    </extensions>
  </wpt>
  <wpt lat="47.684074" lon="-2.610624">
    <name>Treffléan z28819</name>
    <type>ZoneLivre Bretagne</type>
    <extensions>
      <osmand:color>#10c0f0</osmand:color>
      <osmand:background>square</osmand:background>
      <osmand:icon>public_bookcase</osmand:icon>
    </extensions>
  </wpt>
  <wpt lat="47.6695" lon="-2.65277">
    <name>Treffléan z28817</name>
    <type>ZoneLivre Bretagne</type>
    <extensions>
      <osmand:color>#10c0f0</osmand:color>
      <osmand:background>square</osmand:background>
      <osmand:icon>public_bookcase</osmand:icon>
    </extensions>
  </wpt>
  <wpt lat="47.689226" lon="-2.54323">
    <name>La Vraie-Croix z28815</name>
    <type>ZoneLivre Bretagne</type>
    <extensions>
      <osmand:color>#10c0f0</osmand:color>
      <osmand:background>square</osmand:background>
      <osmand:icon>public_bookcase</osmand:icon>
    </extensions>
  </wpt>
  <wpt lat="47.780859" lon="-2.513329">
    <name>Saint-Guyomard z28813</name>
    <type>ZoneLivre Bretagne</type>
    <extensions>
      <osmand:color>#10c0f0</osmand:color>
      <osmand:background>square</osmand:background>
      <osmand:icon>public_bookcase</osmand:icon>
    </extensions>
  </wpt>
  <wpt lat="47.792928" lon="-2.591577">
    <name>Trédion z28811</name>
    <type>ZoneLivre Bretagne</type>
    <extensions>
      <osmand:color>#10c0f0</osmand:color>
      <osmand:background>square</osmand:background>
      <osmand:icon>public_bookcase</osmand:icon>
    </extensions>
  </wpt>
  <wpt lat="48.544502" lon="-1.989917">
    <name>Plouër-sur-Rance z28732</name>
    <type>ZoneLivre Bretagne</type>
    <extensions>
      <osmand:color>#10c0f0</osmand:color>
      <osmand:background>square</osmand:background>
      <osmand:icon>public_bookcase</osmand:icon>
    </extensions>
  </wpt>
  <wpt lat="48.507258" lon="-1.994024">
    <name>Plouër-sur-Rance z28729</name>
    <type>ZoneLivre Bretagne</type>
    <extensions>
      <osmand:color>#10c0f0</osmand:color>
      <osmand:background>square</osmand:background>
      <osmand:icon>public_bookcase</osmand:icon>
    </extensions>
  </wpt>
  <wpt lat="48.36271" lon="-2.397079">
    <name>Plénée-Jugon z28725</name>
    <type>ZoneLivre Bretagne</type>
    <extensions>
      <osmand:color>#10c0f0</osmand:color>
      <osmand:background>square</osmand:background>
      <osmand:icon>public_bookcase</osmand:icon>
    </extensions>
  </wpt>
  <wpt lat="48.42872" lon="-2.541066">
    <name>Landéhen z28723</name>
    <type>ZoneLivre Bretagne</type>
    <extensions>
      <osmand:color>#10c0f0</osmand:color>
      <osmand:background>square</osmand:background>
      <osmand:icon>public_bookcase</osmand:icon>
    </extensions>
  </wpt>
  <wpt lat="48.289306" lon="-3.231665">
    <name>Plounévez-Quintin z28721</name>
    <type>ZoneLivre Bretagne</type>
    <extensions>
      <osmand:color>#10c0f0</osmand:color>
      <osmand:background>square</osmand:background>
      <osmand:icon>public_bookcase</osmand:icon>
    </extensions>
  </wpt>
  <wpt lat="48.232826" lon="-3.319773">
    <name>Rostrenen z28719</name>
    <type>ZoneLivre Bretagne</type>
    <extensions>
      <osmand:color>#10c0f0</osmand:color>
      <osmand:background>square</osmand:background>
      <osmand:icon>public_bookcase</osmand:icon>
    </extensions>
  </wpt>
  <wpt lat="48.670919" lon="-3.636343">
    <name>Plestin-les-Grèves z28717</name>
    <type>ZoneLivre Bretagne</type>
    <extensions>
      <osmand:color>#10c0f0</osmand:color>
      <osmand:background>square</osmand:background>
      <osmand:icon>public_bookcase</osmand:icon>
    </extensions>
  </wpt>
  <wpt lat="48.682255" lon="-3.635311">
    <name>Plestin-les-Grèves z28714</name>
    <type>ZoneLivre Bretagne</type>
    <extensions>
      <osmand:color>#10c0f0</osmand:color>
      <osmand:background>square</osmand:background>
      <osmand:icon>public_bookcase</osmand:icon>
    </extensions>
  </wpt>
  <wpt lat="48.223045" lon="-3.393381">
    <name>Glomel z28712</name>
    <type>ZoneLivre Bretagne</type>
    <extensions>
      <osmand:color>#10c0f0</osmand:color>
      <osmand:background>square</osmand:background>
      <osmand:icon>public_bookcase</osmand:icon>
    </extensions>
  </wpt>
  <wpt lat="48.190413" lon="-3.344058">
    <name>Glomel z28709</name>
    <type>ZoneLivre Bretagne</type>
    <extensions>
      <osmand:color>#10c0f0</osmand:color>
      <osmand:background>square</osmand:background>
      <osmand:icon>public_bookcase</osmand:icon>
    </extensions>
  </wpt>
  <wpt lat="48.172985" lon="-3.408787">
    <name>Glomel z28707</name>
    <type>ZoneLivre Bretagne</type>
    <extensions>
      <osmand:color>#10c0f0</osmand:color>
      <osmand:background>square</osmand:background>
      <osmand:icon>public_bookcase</osmand:icon>
    </extensions>
  </wpt>
  <wpt lat="48.144876" lon="-3.389237">
    <name>Plouray z28705</name>
    <type>ZoneLivre Bretagne</type>
    <extensions>
      <osmand:color>#10c0f0</osmand:color>
      <osmand:background>square</osmand:background>
      <osmand:icon>public_bookcase</osmand:icon>
    </extensions>
  </wpt>
  <wpt lat="48.174643" lon="-3.296676">
    <name>Mellionnec z28703</name>
    <type>ZoneLivre Bretagne</type>
    <extensions>
      <osmand:color>#10c0f0</osmand:color>
      <osmand:background>square</osmand:background>
      <osmand:icon>public_bookcase</osmand:icon>
    </extensions>
  </wpt>
  <wpt lat="48.216306" lon="-3.035091">
    <name>Caurel z28701</name>
    <type>ZoneLivre Bretagne</type>
    <extensions>
      <osmand:color>#10c0f0</osmand:color>
      <osmand:background>square</osmand:background>
      <osmand:icon>public_bookcase</osmand:icon>
    </extensions>
  </wpt>
  <wpt lat="48.181232" lon="-3.013223">
    <name>Saint-Aignan (56) z28699</name>
    <type>ZoneLivre Bretagne</type>
    <extensions>
      <osmand:color>#10c0f0</osmand:color>
      <osmand:background>square</osmand:background>
      <osmand:icon>public_bookcase</osmand:icon>
    </extensions>
  </wpt>
  <wpt lat="48.409183" lon="-2.323217">
    <name>Jugon-les-Lacs z28696</name>
    <type>ZoneLivre Bretagne</type>
    <extensions>
      <osmand:color>#10c0f0</osmand:color>
      <osmand:background>square</osmand:background>
      <osmand:icon>public_bookcase</osmand:icon>
    </extensions>
  </wpt>
  <wpt lat="48.288417" lon="-2.155627">
    <name>Caulnes z28694</name>
    <type>ZoneLivre Bretagne</type>
    <extensions>
      <osmand:color>#10c0f0</osmand:color>
      <osmand:background>square</osmand:background>
      <osmand:icon>public_bookcase</osmand:icon>
    </extensions>
  </wpt>
  <wpt lat="48.191488" lon="-2.411609">
    <name>Merdrignac z28690</name>
    <type>ZoneLivre Bretagne</type>
    <extensions>
      <osmand:color>#10c0f0</osmand:color>
      <osmand:background>square</osmand:background>
      <osmand:icon>public_bookcase</osmand:icon>
    </extensions>
  </wpt>
  <wpt lat="48.089149" lon="-2.364182">
    <name>Saint-Brieuc-de-Mauron z28688</name>
    <type>ZoneLivre Bretagne</type>
    <extensions>
      <osmand:color>#10c0f0</osmand:color>
      <osmand:background>square</osmand:background>
      <osmand:icon>public_bookcase</osmand:icon>
    </extensions>
  </wpt>
  <wpt lat="48.070244" lon="-2.754347">
    <name>Rohan z28686</name>
    <type>ZoneLivre Bretagne</type>
    <extensions>
      <osmand:color>#10c0f0</osmand:color>
      <osmand:background>square</osmand:background>
      <osmand:icon>public_bookcase</osmand:icon>
    </extensions>
  </wpt>
  <wpt lat="48.070656" lon="-2.750766">
    <name>Rohan z28684</name>
    <type>ZoneLivre Bretagne</type>
    <extensions>
      <osmand:color>#10c0f0</osmand:color>
      <osmand:background>square</osmand:background>
      <osmand:icon>public_bookcase</osmand:icon>
    </extensions>
  </wpt>
  <wpt lat="48.177324" lon="-2.754454">
    <name>Loudéac z28682</name>
    <type>ZoneLivre Bretagne</type>
    <extensions>
      <osmand:color>#10c0f0</osmand:color>
      <osmand:background>square</osmand:background>
      <osmand:icon>public_bookcase</osmand:icon>
    </extensions>
  </wpt>
  <wpt lat="48.236143" lon="-2.733608">
    <name>La Motte (22) z28679</name>
    <type>ZoneLivre Bretagne</type>
    <extensions>
      <osmand:color>#10c0f0</osmand:color>
      <osmand:background>square</osmand:background>
      <osmand:icon>public_bookcase</osmand:icon>
    </extensions>
  </wpt>
  <wpt lat="48.212783" lon="-2.796262">
    <name>Trévé z28676</name>
    <type>ZoneLivre Bretagne</type>
    <extensions>
      <osmand:color>#10c0f0</osmand:color>
      <osmand:background>square</osmand:background>
      <osmand:icon>public_bookcase</osmand:icon>
    </extensions>
  </wpt>
  <wpt lat="48.217063" lon="-2.935415">
    <name>Saint-Guen z28674</name>
    <type>ZoneLivre Bretagne</type>
    <extensions>
      <osmand:color>#10c0f0</osmand:color>
      <osmand:background>square</osmand:background>
      <osmand:icon>public_bookcase</osmand:icon>
    </extensions>
  </wpt>
  <wpt lat="48.240902" lon="-2.801414">
    <name>Grâce-Uzel z28672</name>
    <type>ZoneLivre Bretagne</type>
    <extensions>
      <osmand:color>#10c0f0</osmand:color>
      <osmand:background>square</osmand:background>
      <osmand:icon>public_bookcase</osmand:icon>
    </extensions>
  </wpt>
  <wpt lat="48.280155" lon="-2.840787">
    <name>Uzel z28670</name>
    <type>ZoneLivre Bretagne</type>
    <extensions>
      <osmand:color>#10c0f0</osmand:color>
      <osmand:background>square</osmand:background>
      <osmand:icon>public_bookcase</osmand:icon>
    </extensions>
  </wpt>
  <wpt lat="48.30703" lon="-2.954901">
    <name>Saint-Martin-des-Prés z28667</name>
    <type>ZoneLivre Bretagne</type>
    <extensions>
      <osmand:color>#10c0f0</osmand:color>
      <osmand:background>square</osmand:background>
      <osmand:icon>public_bookcase</osmand:icon>
    </extensions>
  </wpt>
  <wpt lat="48.33241" lon="-2.828762">
    <name>L'Hermitage-Lorge z28664</name>
    <type>ZoneLivre Bretagne</type>
    <extensions>
      <osmand:color>#10c0f0</osmand:color>
      <osmand:background>square</osmand:background>
      <osmand:icon>public_bookcase</osmand:icon>
    </extensions>
  </wpt>
  <wpt lat="48.347269" lon="-2.757829">
    <name>Plœuc-sur-Lié z28660</name>
    <type>ZoneLivre Bretagne</type>
    <extensions>
      <osmand:color>#10c0f0</osmand:color>
      <osmand:background>square</osmand:background>
      <osmand:icon>public_bookcase</osmand:icon>
    </extensions>
  </wpt>
  <wpt lat="48.34739" lon="-2.757228">
    <name>Plœuc-sur-Lié z28657</name>
    <type>ZoneLivre Bretagne</type>
    <extensions>
      <osmand:color>#10c0f0</osmand:color>
      <osmand:background>square</osmand:background>
      <osmand:icon>public_bookcase</osmand:icon>
    </extensions>
  </wpt>
  <wpt lat="48.42953" lon="-2.650824">
    <name>Quessoy z28655</name>
    <type>ZoneLivre Bretagne</type>
    <extensions>
      <osmand:color>#10c0f0</osmand:color>
      <osmand:background>square</osmand:background>
      <osmand:icon>public_bookcase</osmand:icon>
    </extensions>
  </wpt>
  <wpt lat="48.398191" lon="-2.732479">
    <name>Saint-Carreuc z28653</name>
    <type>ZoneLivre Bretagne</type>
    <extensions>
      <osmand:color>#10c0f0</osmand:color>
      <osmand:background>square</osmand:background>
      <osmand:icon>public_bookcase</osmand:icon>
    </extensions>
  </wpt>
  <wpt lat="48.40687" lon="-2.816647">
    <name>Plaintel z28650</name>
    <type>ZoneLivre Bretagne</type>
    <extensions>
      <osmand:color>#10c0f0</osmand:color>
      <osmand:background>square</osmand:background>
      <osmand:icon>public_bookcase</osmand:icon>
    </extensions>
  </wpt>
  <wpt lat="48.388417" lon="-3.002129">
    <name>Le Vieux-Bourg z28648</name>
    <type>ZoneLivre Bretagne</type>
    <extensions>
      <osmand:color>#10c0f0</osmand:color>
      <osmand:background>square</osmand:background>
      <osmand:icon>public_bookcase</osmand:icon>
    </extensions>
  </wpt>
  <wpt lat="48.447554" lon="-3.1202">
    <name>Plésidy z28645</name>
    <type>ZoneLivre Bretagne</type>
    <extensions>
      <osmand:color>#10c0f0</osmand:color>
      <osmand:background>square</osmand:background>
      <osmand:icon>public_bookcase</osmand:icon>
    </extensions>
  </wpt>
  <wpt lat="48.481412" lon="-3.101878">
    <name>Saint-Péver z28643</name>
    <type>ZoneLivre Bretagne</type>
    <extensions>
      <osmand:color>#10c0f0</osmand:color>
      <osmand:background>square</osmand:background>
      <osmand:icon>public_bookcase</osmand:icon>
    </extensions>
  </wpt>
  <wpt lat="48.586576" lon="-3.135445">
    <name>Pabu z28640</name>
    <type>ZoneLivre Bretagne</type>
    <extensions>
      <osmand:color>#10c0f0</osmand:color>
      <osmand:background>square</osmand:background>
      <osmand:icon>public_bookcase</osmand:icon>
    </extensions>
  </wpt>
  <wpt lat="48.632045" lon="-2.986095">
    <name>Lanvollon z28638</name>
    <type>ZoneLivre Bretagne</type>
    <extensions>
      <osmand:color>#10c0f0</osmand:color>
      <osmand:background>square</osmand:background>
      <osmand:icon>public_bookcase</osmand:icon>
    </extensions>
  </wpt>
  <wpt lat="48.630987" lon="-2.982219">
    <name>Lanvollon z28635</name>
    <type>ZoneLivre Bretagne</type>
    <extensions>
      <osmand:color>#10c0f0</osmand:color>
      <osmand:background>square</osmand:background>
      <osmand:icon>public_bookcase</osmand:icon>
    </extensions>
  </wpt>
  <wpt lat="48.469637" lon="-2.513139">
    <name>Lamballe z28632</name>
    <type>ZoneLivre Bretagne</type>
    <extensions>
      <osmand:color>#10c0f0</osmand:color>
      <osmand:background>square</osmand:background>
      <osmand:icon>public_bookcase</osmand:icon>
    </extensions>
  </wpt>
  <wpt lat="48.626011" lon="-2.404777">
    <name>Plurien z28630</name>
    <type>ZoneLivre Bretagne</type>
    <extensions>
      <osmand:color>#10c0f0</osmand:color>
      <osmand:background>square</osmand:background>
      <osmand:icon>public_bookcase</osmand:icon>
    </extensions>
  </wpt>
  <wpt lat="48.55744" lon="-2.292189">
    <name>Saint-Pôtan z28628</name>
    <type>ZoneLivre Bretagne</type>
    <extensions>
      <osmand:color>#10c0f0</osmand:color>
      <osmand:background>square</osmand:background>
      <osmand:icon>public_bookcase</osmand:icon>
    </extensions>
  </wpt>
  <wpt lat="48.59631" lon="-2.29233">
    <name>Matignon z28626</name>
    <type>ZoneLivre Bretagne</type>
    <extensions>
      <osmand:color>#10c0f0</osmand:color>
      <osmand:background>square</osmand:background>
      <osmand:icon>public_bookcase</osmand:icon>
    </extensions>
  </wpt>
  <wpt lat="48.597254" lon="-2.288823">
    <name>Matignon z28623</name>
    <type>ZoneLivre Bretagne</type>
    <extensions>
      <osmand:color>#10c0f0</osmand:color>
      <osmand:background>square</osmand:background>
      <osmand:icon>public_bookcase</osmand:icon>
    </extensions>
  </wpt>
  <wpt lat="48.636482" lon="-2.436886">
    <name>Erquy z28621</name>
    <type>ZoneLivre Bretagne</type>
    <extensions>
      <osmand:color>#10c0f0</osmand:color>
      <osmand:background>square</osmand:background>
      <osmand:icon>public_bookcase</osmand:icon>
    </extensions>
  </wpt>
  <wpt lat="48.584472" lon="-2.537107">
    <name>Pléneuf-Val-André z28619</name>
    <type>ZoneLivre Bretagne</type>
    <extensions>
      <osmand:color>#10c0f0</osmand:color>
      <osmand:background>square</osmand:background>
      <osmand:icon>public_bookcase</osmand:icon>
    </extensions>
  </wpt>
  <wpt lat="48.588991" lon="-2.554174">
    <name>Pléneuf-Val-André z28617</name>
    <type>ZoneLivre Bretagne</type>
    <extensions>
      <osmand:color>#10c0f0</osmand:color>
      <osmand:background>square</osmand:background>
      <osmand:icon>public_bookcase</osmand:icon>
    </extensions>
  </wpt>
  <wpt lat="48.530896" lon="-2.663844">
    <name>Hillion z28615</name>
    <type>ZoneLivre Bretagne</type>
    <extensions>
      <osmand:color>#10c0f0</osmand:color>
      <osmand:background>square</osmand:background>
      <osmand:icon>public_bookcase</osmand:icon>
    </extensions>
  </wpt>
  <wpt lat="48.523682" lon="-2.678382">
    <name>Hillion z28613</name>
    <type>ZoneLivre Bretagne</type>
    <extensions>
      <osmand:color>#10c0f0</osmand:color>
      <osmand:background>square</osmand:background>
      <osmand:icon>public_bookcase</osmand:icon>
    </extensions>
  </wpt>
  <wpt lat="48.512518" lon="-2.667591">
    <name>Hillion z28611</name>
    <type>ZoneLivre Bretagne</type>
    <extensions>
      <osmand:color>#10c0f0</osmand:color>
      <osmand:background>square</osmand:background>
      <osmand:icon>public_bookcase</osmand:icon>
    </extensions>
  </wpt>
  <wpt lat="48.485508" lon="-2.662471">
    <name>Hillion z28609</name>
    <type>ZoneLivre Bretagne</type>
    <extensions>
      <osmand:color>#10c0f0</osmand:color>
      <osmand:background>square</osmand:background>
      <osmand:icon>public_bookcase</osmand:icon>
    </extensions>
  </wpt>
  <wpt lat="48.534679" lon="-2.768565">
    <name>Plérin z28607</name>
    <type>ZoneLivre Bretagne</type>
    <extensions>
      <osmand:color>#10c0f0</osmand:color>
      <osmand:background>square</osmand:background>
      <osmand:icon>public_bookcase</osmand:icon>
    </extensions>
  </wpt>
  <wpt lat="48.555847" lon="-2.72635">
    <name>Plérin z28604</name>
    <type>ZoneLivre Bretagne</type>
    <extensions>
      <osmand:color>#10c0f0</osmand:color>
      <osmand:background>square</osmand:background>
      <osmand:icon>public_bookcase</osmand:icon>
    </extensions>
  </wpt>
  <wpt lat="48.504196" lon="-2.697315">
    <name>Langueux z28602</name>
    <type>ZoneLivre Bretagne</type>
    <extensions>
      <osmand:color>#10c0f0</osmand:color>
      <osmand:background>square</osmand:background>
      <osmand:icon>public_bookcase</osmand:icon>
    </extensions>
  </wpt>
  <wpt lat="48.494042" lon="-2.716045">
    <name>Langueux z28599</name>
    <type>ZoneLivre Bretagne</type>
    <extensions>
      <osmand:color>#10c0f0</osmand:color>
      <osmand:background>square</osmand:background>
      <osmand:icon>public_bookcase</osmand:icon>
    </extensions>
  </wpt>
  <wpt lat="48.494458" lon="-2.71465">
    <name>Langueux z28597</name>
    <type>ZoneLivre Bretagne</type>
    <extensions>
      <osmand:color>#10c0f0</osmand:color>
      <osmand:background>square</osmand:background>
      <osmand:icon>public_bookcase</osmand:icon>
    </extensions>
  </wpt>
  <wpt lat="48.501713" lon="-2.721141">
    <name>Langueux z28595</name>
    <type>ZoneLivre Bretagne</type>
    <extensions>
      <osmand:color>#10c0f0</osmand:color>
      <osmand:background>square</osmand:background>
      <osmand:icon>public_bookcase</osmand:icon>
    </extensions>
  </wpt>
  <wpt lat="48.513795" lon="-2.740094">
    <name>Saint-Brieuc z28592</name>
    <type>ZoneLivre Bretagne</type>
    <extensions>
      <osmand:color>#10c0f0</osmand:color>
      <osmand:background>square</osmand:background>
      <osmand:icon>public_bookcase</osmand:icon>
    </extensions>
  </wpt>
  <wpt lat="48.50523" lon="-2.763845">
    <name>Saint-Brieuc z28590</name>
    <type>ZoneLivre Bretagne</type>
    <extensions>
      <osmand:color>#10c0f0</osmand:color>
      <osmand:background>square</osmand:background>
      <osmand:icon>public_bookcase</osmand:icon>
    </extensions>
  </wpt>
  <wpt lat="48.494757" lon="-2.776475">
    <name>Ploufragan z28588</name>
    <type>ZoneLivre Bretagne</type>
    <extensions>
      <osmand:color>#10c0f0</osmand:color>
      <osmand:background>square</osmand:background>
      <osmand:icon>public_bookcase</osmand:icon>
    </extensions>
  </wpt>
  <wpt lat="48.514931" lon="-2.883855">
    <name>Plerneuf z28586</name>
    <type>ZoneLivre Bretagne</type>
    <extensions>
      <osmand:color>#10c0f0</osmand:color>
      <osmand:background>square</osmand:background>
      <osmand:icon>public_bookcase</osmand:icon>
    </extensions>
  </wpt>
  <wpt lat="48.555215" lon="-2.858532">
    <name>Pordic z28584</name>
    <type>ZoneLivre Bretagne</type>
    <extensions>
      <osmand:color>#10c0f0</osmand:color>
      <osmand:background>square</osmand:background>
      <osmand:icon>public_bookcase</osmand:icon>
    </extensions>
  </wpt>
  <wpt lat="48.569215" lon="-2.818004">
    <name>Pordic z28581</name>
    <type>ZoneLivre Bretagne</type>
    <extensions>
      <osmand:color>#10c0f0</osmand:color>
      <osmand:background>square</osmand:background>
      <osmand:icon>public_bookcase</osmand:icon>
    </extensions>
  </wpt>
  <wpt lat="48.623903" lon="-2.836205">
    <name>Étables-sur-Mer z28579</name>
    <type>ZoneLivre Bretagne</type>
    <extensions>
      <osmand:color>#10c0f0</osmand:color>
      <osmand:background>square</osmand:background>
      <osmand:icon>public_bookcase</osmand:icon>
    </extensions>
  </wpt>
  <wpt lat="48.67394" lon="-2.933111">
    <name>Plouha z28577</name>
    <type>ZoneLivre Bretagne</type>
    <extensions>
      <osmand:color>#10c0f0</osmand:color>
      <osmand:background>square</osmand:background>
      <osmand:icon>public_bookcase</osmand:icon>
    </extensions>
  </wpt>
  <wpt lat="48.676411" lon="-2.929071">
    <name>Plouha z28574</name>
    <type>ZoneLivre Bretagne</type>
    <extensions>
      <osmand:color>#10c0f0</osmand:color>
      <osmand:background>square</osmand:background>
      <osmand:icon>public_bookcase</osmand:icon>
    </extensions>
  </wpt>
  <wpt lat="48.72714" lon="-2.948788">
    <name>Plouézec z28571</name>
    <type>ZoneLivre Bretagne</type>
    <extensions>
      <osmand:color>#10c0f0</osmand:color>
      <osmand:background>square</osmand:background>
      <osmand:icon>public_bookcase</osmand:icon>
    </extensions>
  </wpt>
  <wpt lat="48.67534" lon="-3.191418">
    <name>Plouëc-du-Trieux z28569</name>
    <type>ZoneLivre Bretagne</type>
    <extensions>
      <osmand:color>#10c0f0</osmand:color>
      <osmand:background>square</osmand:background>
      <osmand:icon>public_bookcase</osmand:icon>
    </extensions>
  </wpt>