{
  "type": "FeatureCollection",
  "features": [
    {
      "type": "Feature",
      "geometry": {
        "type": "Point",
        "coordinates": [
          0.137935,
          48.925011
        ]
      },
      "properties": {
        "id": "25285",
        "name": "Crouttes"
      }
    },
    {
      "type": "Feature",
      "geometry": {
        "type": "Point",
        "coordinates": [
          -0.393778,
          49.156971
        ]
      },
      "properties": {
        "id": "25283",
        "name": "Louvigny"
      }
    },
    {
      "type": "Feature",
      "geometry": {
        "type": "Point",
        "coordinates": [
          -0.398866,
          49.185303
        ]
      },
      "properties": {
        "id": "24732",
        "name": "Caen"
      }
    },
    {
      "type": "Feature",
      "geometry": {
        "type": "Point",
        "coordinates": [
          -1.825005,
          48.872628
        ]
      },
      "properties": {
        "id": "24626",
        "name": "Îles Chausey"
      }
    },
    {
      "type": "Feature",
      "geometry": {
        "type": "Point",
        "coordinates": [
          0.147086,
          49.503777
        ]
      },
      "properties": {
        "id": "24613",
        "name": "Le Havre"
      }
    },
    {
      "type": "Feature",
      "geometry": {
        "type": "Point",
        "coordinates": [
          0.071516,
          49.282711
        ]
      },
      "properties": {
        "id": "24609",
        "name": "Glanville"
      }
    },
    {
      "type": "Feature",
      "geometry": {
        "type": "Point",
        "coordinates": [
          0.174306,
          49.185539
        ]
      },
      "properties": {
        "id": "24594",
        "name": "Manerbe"
      }
    },
    {
      "type": "Feature",
      "geometry": {
        "type": "Point",
        "coordinates": [
          -1.222197,
          48.841791
        ]
      },
      "properties": {
        "id": "24590",
        "name": "Villedieu-les-Poêles-Rouffigny"
      }
    },
    {
      "type": "Feature",
      "geometry": {
        "type": "Point",
        "coordinates": [
          -0.3813,
          49.11855
        ]
      },
      "properties": {
        "id": "24583",
        "name": "Saint-André-sur-Orne"
      }
    },
    {
      "type": "Feature",
      "geometry": {
        "type": "Point",
        "coordinates": [
          -0.348234,
          49.15254
        ]
      },
      "properties": {
        "id": "24580",
        "name": "Ifs"
      }
    },
    {
      "type": "Feature",
      "geometry": {
        "type": "Point",
        "coordinates": [
          -0.400459,
          49.190543
        ]
      },
      "properties": {
        "id": "24558",
        "name": "Caen"
      }
    },
    {
      "type": "Feature",
      "geometry": {
        "type": "Point",
        "coordinates": [
          -0.379739,
          49.177048
        ]
      },
      "properties": {
        "id": "24544",
        "name": "Caen"
      }
    },
    {
      "type": "Feature",
      "geometry": {
        "type": "Point",
        "coordinates": [
          -0.400971,
          49.181954
        ]
      },
      "properties": {
        "id": "24541",
        "name": "Caen"
      }
    },
    {
      "type": "Feature",
      "geometry": {
        "type": "Point",
        "coordinates": [
          -1.23645,
          48.764048
        ]
      },
      "properties": {
        "id": "24508",
        "name": "La Chaise-Baudouin"
      }
    },
    {
      "type": "Feature",
      "geometry": {
        "type": "Point",
        "coordinates": [
          -1.08818,
          48.541746
        ]
      },
      "properties": {
        "id": "24503",
        "name": "Les Loges-Marchis"
      }
    },
    {
      "type": "Feature",
      "geometry": {
        "type": "Point",
        "coordinates": [
          -1.526826,
          48.951449
        ]
      },
      "properties": {
        "id": "24501",
        "name": "Tourneville-sur-Mer"
      }
    },
    {
      "type": "Feature",
      "geometry": {
        "type": "Point",
        "coordinates": [
          -1.486083,
          48.899219
        ]
      },
      "properties": {
        "id": "24499",
        "name": "Chanteloup"
      }
    },
    {
      "type": "Feature",
      "geometry": {
        "type": "Point",
        "coordinates": [
          -1.308591,
          48.698276
        ]
      },
      "properties": {
        "id": "24496",
        "name": "Saint-Brice"
      }
    },
    {
      "type": "Feature",
      "geometry": {
        "type": "Point",
        "coordinates": [
          -1.521479,
          48.91295
        ]
      },
      "properties": {
        "id": "24494",
        "name": "Bricqueville-sur-Mer"
      }
    },
    {
      "type": "Feature",
      "geometry": {
        "type": "Point",
        "coordinates": [
          -0.572874,
          48.947967
        ]
      },
      "properties": {
        "id": "24463",
        "name": "Cauville"
      }
    },
    {
      "type": "Feature",
      "geometry": {
        "type": "Point",
        "coordinates": [
          0.113331,
          49.377471
        ]
      },
      "properties": {
        "id": "24421",
        "name": "Trouville-sur-Mer"
      }
    },
    {
      "type": "Feature",
      "geometry": {
        "type": "Point",
        "coordinates": [
          0.118902,
          49.338088
        ]
      },
      "properties": {
        "id": "24419",
        "name": "Bonneville-sur-Touques"
      }
    },
    {
      "type": "Feature",
      "geometry": {
        "type": "Point",
        "coordinates": [
          -1.448173,
          49.046863
        ]
      },
      "properties": {
        "id": "24397",
        "name": "Coutances"
      }
    },
    {
      "type": "Feature",
      "geometry": {
        "type": "Point",
        "coordinates": [
          -1.446891,
          49.047508
        ]
      },
      "properties": {
        "id": "24394",
        "name": "Coutances"
      }
    },
    {
      "type": "Feature",
      "geometry": {
        "type": "Point",
        "coordinates": [
          0.572965,
          49.527353
        ]
      },
      "properties": {
        "id": "24382",
        "name": "La Frénaye"
      }
    },
    {
      "type": "Feature",
      "geometry": {
        "type": "Point",
        "coordinates": [
          0.483136,
          49.556703
        ]
      },
      "properties": {
        "id": "24379",
        "name": "Gruchet-le-Valasse"
      }
    },
    {
      "type": "Feature",
      "geometry": {
        "type": "Point",
        "coordinates": [
          0.50587,
          49.52359
        ]
      },
      "properties": {
        "id": "24377",
        "name": "Saint-Jean-de-Folleville"
      }
    },
    {
      "type": "Feature",
      "geometry": {
        "type": "Point",
        "coordinates": [
          0.412092,
          49.507551
        ]
      },
      "properties": {
        "id": "24375",
        "name": "La Cerlangue"
      }
    },
    {
      "type": "Feature",
      "geometry": {
        "type": "Point",
        "coordinates": [
          0.35834,
          49.52869
        ]
      },
      "properties": {
        "id": "24372",
        "name": "Saint-Romain-de-Colbosc"
      }
    },
    {
      "type": "Feature",
      "geometry": {
        "type": "Point",
        "coordinates": [
          0.331907,
          49.520432
        ]
      },
      "properties": {
        "id": "24370",
        "name": "Saint-Aubin-Routot"
      }
    },
    {
      "type": "Feature",
      "geometry": {
        "type": "Point",
        "coordinates": [
          0.252511,
          49.528567
        ]
      },
      "properties": {
        "id": "24368",
        "name": "Saint-Laurent-de-Brèvedent"
      }
    },
    {
      "type": "Feature",
      "geometry": {
        "type": "Point",
        "coordinates": [
          0.189345,
          49.508995
        ]
      },
      "properties": {
        "id": "24364",
        "name": "Harfleur"
      }
    },
    {
      "type": "Feature",
      "geometry": {
        "type": "Point",
        "coordinates": [
          -1.58481,
          48.838145
        ]
      },
      "properties": {
        "id": "24097",
        "name": "Granville"
      }
    },
    {
      "type": "Feature",
      "geometry": {
        "type": "Point",
        "coordinates": [
          -0.385205,
          49.176878
        ]
      },
      "properties": {
        "id": "24086",
        "name": "Caen"
      }
    },
    {
      "type": "Feature",
      "geometry": {
        "type": "Point",
        "coordinates": [
          -0.327154,
          49.151121
        ]
      },
      "properties": {
        "id": "24082",
        "name": "Cormelles-le-Royal"
      }
    },
    {
      "type": "Feature",
      "geometry": {
        "type": "Point",
        "coordinates": [
          -1.506881,
          48.54937
        ]
      },
      "properties": {
        "id": "23890",
        "name": "Pontorson"
      }
    },
    {
      "type": "Feature",
      "geometry": {
        "type": "Point",
        "coordinates": [
          -1.096597,
          48.568729
        ]
      },
      "properties": {
        "id": "23888",
        "name": "Saint-Hilaire-du-Harcouët"
      }
    },
    {
      "type": "Feature",
      "geometry": {
        "type": "Point",
        "coordinates": [
          -1.350736,
          48.631049
        ]
      },
      "properties": {
        "id": "23885",
        "name": "Pontaubault"
      }
    },
    {
      "type": "Feature",
      "geometry": {
        "type": "Point",
        "coordinates": [
          -1.316176,
          48.646652
        ]
      },
      "properties": {
        "id": "23883",
        "name": "Saint-Quentin-sur-le-Homme"
      }
    },
    {
      "type": "Feature",
      "geometry": {
        "type": "Point",
        "coordinates": [
          -1.566649,
          48.765975
        ]
      },
      "properties": {
        "id": "23881",
        "name": "Jullouville"
      }
    },
    {
      "type": "Feature",
      "geometry": {
        "type": "Point",
        "coordinates": [
          -1.447885,
          49.682059
        ]
      },
      "properties": {
        "id": "23879",
        "name": "Fermanville"
      }
    },
    {
      "type": "Feature",
      "geometry": {
        "type": "Point",
        "coordinates": [
          -1.416705,
          49.625912
        ]
      },
      "properties": {
        "id": "23877",
        "name": "Brillevast"
      }
    },
    {
      "type": "Feature",
      "geometry": {
        "type": "Point",
        "coordinates": [
          -1.299568,
          49.618617
        ]
      },
      "properties": {
        "id": "23875",
        "name": "La Pernelle"
      }
    },
    {
      "type": "Feature",
      "geometry": {
        "type": "Point",
        "coordinates": [
          -1.780246,
          49.527863
        ]
      },
      "properties": {
        "id": "23873",
        "name": "Benoîtville"
      }
    },
    {
      "type": "Feature",
      "geometry": {
        "type": "Point",
        "coordinates": [
          -1.808528,
          49.513012
        ]
      },
      "properties": {
        "id": "23870",
        "name": "Les Pieux"
      }
    },
    {
      "type": "Feature",
      "geometry": {
        "type": "Point",
        "coordinates": [
          -1.813192,
          49.459955
        ]
      },
      "properties": {
        "id": "23867",
        "name": "Surtainville"
      }
    },
    {
      "type": "Feature",
      "geometry": {
        "type": "Point",
        "coordinates": [
          -1.540063,
          49.331609
        ]
      },
      "properties": {
        "id": "23864",
        "name": "Doville"
      }
    },
    {
      "type": "Feature",
      "geometry": {
        "type": "Point",
        "coordinates": [
          -1.349744,
          49.167132
        ]
      },
      "properties": {
        "id": "23861",
        "name": "Saint-Martin-d'Aubigny"
      }
    },
    {
      "type": "Feature",
      "geometry": {
        "type": "Point",
        "coordinates": [
          -1.551666,
          49.010147
        ]
      },
      "properties": {
        "id": "23859",
        "name": "Regnéville-sur-Mer"
      }
    },
    {
      "type": "Feature",
      "geometry": {
        "type": "Point",
        "coordinates": [
          -0.128266,
          49.041847
        ]
      },
      "properties": {
        "id": "23848",
        "name": "Condé-sur-Ifs"
      }
    },
    {
      "type": "Feature",
      "geometry": {
        "type": "Point",
        "coordinates": [
          -1.257672,
          48.995294
        ]
      },
      "properties": {
        "id": "23726",
        "name": "Notre-Dame-de-Cenilly"
      }
    },
    {
      "type": "Feature",
      "geometry": {
        "type": "Point",
        "coordinates": [
          -1.205578,
          48.743898
        ]
      },
      "properties": {
        "id": "23717",
        "name": "Notre-Dame-de-Livoye"
      }
    },
    {
      "type": "Feature",
      "geometry": {
        "type": "Point",
        "coordinates": [
          -0.138649,
          48.984642
        ]
      },
      "properties": {
        "id": "23662",
        "name": "Sassy"
      }
    },
    {
      "type": "Feature",
      "geometry": {
        "type": "Point",
        "coordinates": [
          0.016286,
          48.469989
        ]
      },
      "properties": {
        "id": "23594",
        "name": "Cuissai"
      }
    },
    {
      "type": "Feature",
      "geometry": {
        "type": "Point",
        "coordinates": [
          -1.334219,
          49.179487
        ]
      },
      "properties": {
        "id": "23586",
        "name": "Saint-Martin-d'Aubigny"
      }
    },
    {
      "type": "Feature",
      "geometry": {
        "type": "Point",
        "coordinates": [
          -1.034603,
          49.111525
        ]
      },
      "properties": {
        "id": "23583",
        "name": "La Barre-de-Semilly"
      }
    },
    {
      "type": "Feature",
      "geometry": {
        "type": "Point",
        "coordinates": [
          -0.759835,
          49.185383
        ]
      },
      "properties": {
        "id": "23581",
        "name": "Saint-Paul-du-Vernay"
      }
    },
    {
      "type": "Feature",
      "geometry": {
        "type": "Point",
        "coordinates": [
          -0.761662,
          49.187583
        ]
      },
      "properties": {
        "id": "23578",
        "name": "Saint-Paul-du-Vernay"
      }
    },
    {
      "type": "Feature",
      "geometry": {
        "type": "Point",
        "coordinates": [
          -0.368302,
          48.701843
        ]
      },
      "properties": {
        "id": "23575",
        "name": "Briouze"
      }
    },
    {
      "type": "Feature",
      "geometry": {
        "type": "Point",
        "coordinates": [
          -0.030376,
          49.0187
        ]
      },
      "properties": {
        "id": "23573",
        "name": "Saint-Pierre-en-Auge"
      }
    },
    {
      "type": "Feature",
      "geometry": {
        "type": "Point",
        "coordinates": [
          -0.112218,
          49.293069
        ]
      },
      "properties": {
        "id": "23571",
        "name": "Cabourg"
      }
    },
    {
      "type": "Feature",
      "geometry": {
        "type": "Point",
        "coordinates": [
          -0.115638,
          49.28745
        ]
      },
      "properties": {
        "id": "23568",
        "name": "Cabourg"
      }
    },
    {
      "type": "Feature",
      "geometry": {
        "type": "Point",
        "coordinates": [
          -0.1266,
          49.281822
        ]
      },
      "properties": {
        "id": "23565",
        "name": "Cabourg"
      }
    },
    {
      "type": "Feature",
      "geometry": {
        "type": "Point",
        "coordinates": [
          -0.131978,
          49.28211
        ]
      },
      "properties": {
        "id": "23562",
        "name": "Cabourg"
      }
    },
    {
      "type": "Feature",
      "geometry": {
        "type": "Point",
        "coordinates": [
          -0.323638,
          49.300229
        ]
      },
      "properties": {
        "id": "23558",
        "name": "Lion-sur-Mer"
      }
    },
    {
      "type": "Feature",
      "geometry": {
        "type": "Point",
        "coordinates": [
          -0.386694,
          49.188311
        ]
      },
      "properties": {
        "id": "23555",
        "name": "Caen"
      }
    },
    {
      "type": "Feature",
      "geometry": {
        "type": "Point",
        "coordinates": [
          -0.386689,
          49.177478
        ]
      },
      "properties": {
        "id": "23553",
        "name": "Caen"
      }
    },
    {
      "type": "Feature",
      "geometry": {
        "type": "Point",
        "coordinates": [
          -0.218385,
          48.942474
        ]
      },
      "properties": {
        "id": "23550",
        "name": "Soulangy"
      }
    },
    {
      "type": "Feature",
      "geometry": {
        "type": "Point",
        "coordinates": [
          -0.281155,
          49.081177
        ]
      },
      "properties": {
        "id": "23547",
        "name": "Saint-Aignan-de-Cramesnil"
      }
    },
    {
      "type": "Feature",
      "geometry": {
        "type": "Point",
        "coordinates": [
          -0.287801,
          49.098217
        ]
      },
      "properties": {
        "id": "23545",
        "name": "Garcelles"
      }
    },
    {
      "type": "Feature",
      "geometry": {
        "type": "Point",
        "coordinates": [
          -0.32247,
          49.04409
        ]
      },
      "properties": {
        "id": "23543",
        "name": "Bretteville-sur-Laize"
      }
    },
    {
      "type": "Feature",
      "geometry": {
        "type": "Point",
        "coordinates": [
          -0.717199,
          49.123173
        ]
      },
      "properties": {
        "id": "23540",
        "name": "Saint-Germain-d'Ectot"
      }
    },
    {
      "type": "Feature",
      "geometry": {
        "type": "Point",
        "coordinates": [
          -0.652957,
          48.935693
        ]
      },
      "properties": {
        "id": "23538",
        "name": "Terres de Druance"
      }
    },
    {
      "type": "Feature",
      "geometry": {
        "type": "Point",
        "coordinates": [
          -0.388888,
          49.301346
        ]
      },
      "properties": {
        "id": "23391",
        "name": "Douvres-la-Délivrande"
      }
    },
    {
      "type": "Feature",
      "geometry": {
        "type": "Point",
        "coordinates": [
          -0.205669,
          49.24883
        ]
      },
      "properties": {
        "id": "23388",
        "name": "Bréville-les-Monts"
      }
    },
    {
      "type": "Feature",
      "geometry": {
        "type": "Point",
        "coordinates": [
          -0.300461,
          49.182591
        ]
      },
      "properties": {
        "id": "23361",
        "name": "Giberville"
      }
    },
    {
      "type": "Feature",
      "geometry": {
        "type": "Point",
        "coordinates": [
          -0.283118,
          49.181407
        ]
      },
      "properties": {
        "id": "23358",
        "name": "Giberville"
      }
    },
    {
      "type": "Feature",
      "geometry": {
        "type": "Point",
        "coordinates": [
          -0.393552,
          49.047988
        ]
      },
      "properties": {
        "id": "23341",
        "name": "Boulon"
      }
    },
    {
      "type": "Feature",
      "geometry": {
        "type": "Point",
        "coordinates": [
          0.054358,
          49.353246
        ]
      },
      "properties": {
        "id": "23332",
        "name": "Tourgéville"
      }
    },
    {
      "type": "Feature",
      "geometry": {
        "type": "Point",
        "coordinates": [
          0.877699,
          49.750904
        ]
      },
      "properties": {
        "id": "23323",
        "name": "Saint-Laurent-en-Caux"
      }
    },
    {
      "type": "Feature",
      "geometry": {
        "type": "Point",
        "coordinates": [
          -0.476333,
          49.204382
        ]
      },
      "properties": {
        "id": "23204",
        "name": "Rots"
      }
    },
    {
      "type": "Feature",
      "geometry": {
        "type": "Point",
        "coordinates": [
          -0.551921,
          48.783938
        ]
      },
      "properties": {
        "id": "23137",
        "name": "Aubusson"
      }
    },
    {
      "type": "Feature",
      "geometry": {
        "type": "Point",
        "coordinates": [
          -0.681777,
          48.78491
        ]
      },
      "properties": {
        "id": "23135",
        "name": "Tinchebray-Bocage"
      }
    },
    {
      "type": "Feature",
      "geometry": {
        "type": "Point",
        "coordinates": [
          0.95586,
          48.97474
        ]
      },
      "properties": {
        "id": "23132",
        "name": "Saint-Elier"
      }
    },
    {
      "type": "Feature",
      "geometry": {
        "type": "Point",
        "coordinates": [
          0.964623,
          48.985346
        ]
      },
      "properties": {
        "id": "23127",
        "name": "Saint-Elier"
      }
    },
    {
      "type": "Feature",
      "geometry": {
        "type": "Point",
        "coordinates": [
          -0.410346,
          49.240571
        ]
      },
      "properties": {
        "id": "23057",
        "name": "Villons-les-Buissons"
      }
    },
    {
      "type": "Feature",
      "geometry": {
        "type": "Point",
        "coordinates": [
          -0.411411,
          48.872568
        ]
      },
      "properties": {
        "id": "23053",
        "name": "Pont-d'Ouilly"
      }
    },
    {
      "type": "Feature",
      "geometry": {
        "type": "Point",
        "coordinates": [
          -0.274908,
          49.208772
        ]
      },
      "properties": {
        "id": "23032",
        "name": "Sainte-Honorine la Chardronnette"
      }
    },
    {
      "type": "Feature",
      "geometry": {
        "type": "Point",
        "coordinates": [
          -1.17047,
          48.62164
        ]
      },
      "properties": {
        "id": "23027",
        "name": "Isigny-le-Buat"
      }
    },
    {
      "type": "Feature",
      "geometry": {
        "type": "Point",
        "coordinates": [
          -1.150169,
          48.614949
        ]
      },
      "properties": {
        "id": "23023",
        "name": "Isigny-le-Buat"
      }
    },
    {
      "type": "Feature",
      "geometry": {
        "type": "Point",
        "coordinates": [
          -0.346686,
          49.176443
        ]
      },
      "properties": {
        "id": "23019",
        "name": "Caen"
      }
    },
    {
      "type": "Feature",
      "geometry": {
        "type": "Point",
        "coordinates": [
          -0.688974,
          49.279267
        ]
      },
      "properties": {
        "id": "23015",
        "name": "Saint-Vigor-le-Grand"
      }
    },
    {
      "type": "Feature",
      "geometry": {
        "type": "Point",
        "coordinates": [
          -0.241192,
          49.220409
        ]
      },
      "properties": {
        "id": "22768",
        "name": "Hérouvillette"
      }
    },
    {
      "type": "Feature",
      "geometry": {
        "type": "Point",
        "coordinates": [
          -0.245006,
          49.220038
        ]
      },
      "properties": {
        "id": "22766",
        "name": "Hérouvillette"
      }
    },
    {
      "type": "Feature",
      "geometry": {
        "type": "Point",
        "coordinates": [
          -0.37732,
          49.09995
        ]
      },
      "properties": {
        "id": "22755",
        "name": "May-sur-Orne"
      }
    },
    {
      "type": "Feature",
      "geometry": {
        "type": "Point",
        "coordinates": [
          -1.420425,
          48.809617
        ]
      },
      "properties": {
        "id": "22715",
        "name": "Le Mesnil-Drey"
      }
    },
    {
      "type": "Feature",
      "geometry": {
        "type": "Point",
        "coordinates": [
          -0.443603,
          49.186888
        ]
      },
      "properties": {
        "id": "22663",
        "name": "Carpiquet"
      }
    },
    {
      "type": "Feature",
      "geometry": {
        "type": "Point",
        "coordinates": [
          -0.441313,
          49.183514
        ]
      },
      "properties": {
        "id": "22661",
        "name": "Carpiquet"
      }
    },
    {
      "type": "Feature",
      "geometry": {
        "type": "Point",
        "coordinates": [
          -0.464451,
          49.330793
        ]
      },
      "properties": {
        "id": "22659",
        "name": "Courseulles-sur-Mer"
      }
    },
    {
      "type": "Feature",
      "geometry": {
        "type": "Point",
        "coordinates": [
          -0.453583,
          49.328878
        ]
      },
      "properties": {
        "id": "22657",
        "name": "Courseulles-sur-Mer"
      }
    },
    {
      "type": "Feature",
      "geometry": {
        "type": "Point",
        "coordinates": [
          -1.410187,
          48.824218
        ]
      },
      "properties": {
        "id": "22485",
        "name": "Folligny"
      }
    },
    {
      "type": "Feature",
      "geometry": {
        "type": "Point",
        "coordinates": [
          -1.525906,
          48.823144
        ]
      },
      "properties": {
        "id": "22483",
        "name": "Saint-Planchers"
      }
    },
    {
      "type": "Feature",
      "geometry": {
        "type": "Point",
        "coordinates": [
          -1.557618,
          48.84801
        ]
      },
      "properties": {
        "id": "22481",
        "name": "Yquelon"
      }
    },
    {
      "type": "Feature",
      "geometry": {
        "type": "Point",
        "coordinates": [
          -1.53263,
          48.844465
        ]
      },
      "properties": {
        "id": "22479",
        "name": "Anctoville-sur-Boscq"
      }
    },
    {
      "type": "Feature",
      "geometry": {
        "type": "Point",
        "coordinates": [
          -0.190233,
          48.676888
        ]
      },
      "properties": {
        "id": "22194",
        "name": "Saint-Brice-sous-Rânes"
      }
    },
    {
      "type": "Feature",
      "geometry": {
        "type": "Point",
        "coordinates": [
          0.763105,
          49.653915
        ]
      },
      "properties": {
        "id": "22112",
        "name": "Veauville-lès-Baons"
      }
    },
    {
      "type": "Feature",
      "geometry": {
        "type": "Point",
        "coordinates": [
          1.23895,
          49.192036
        ]
      },
      "properties": {
        "id": "22102",
        "name": "Heudebouville"
      }
    },
    {
      "type": "Feature",
      "geometry": {
        "type": "Point",
        "coordinates": [
          0.616809,
          48.764989
        ]
      },
      "properties": {
        "id": "22012",
        "name": "L'Aigle"
      }
    },
    {
      "type": "Feature",
      "geometry": {
        "type": "Point",
        "coordinates": [
          0.892543,
          48.433324
        ]
      },
      "properties": {
        "id": "22008",
        "name": "Bretoncelles"
      }
    },
    {
      "type": "Feature",
      "geometry": {
        "type": "Point",
        "coordinates": [
          0.612397,
          48.478297
        ]
      },
      "properties": {
        "id": "22006",
        "name": "Courgeon"
      }
    },
    {
      "type": "Feature",
      "geometry": {
        "type": "Point",
        "coordinates": [
          -0.379404,
          48.780446
        ]
      },
      "properties": {
        "id": "22003",
        "name": "Sainte-Honorine-la-Guillaume"
      }
    },
    {
      "type": "Feature",
      "geometry": {
        "type": "Point",
        "coordinates": [
          -0.06918,
          48.723659
        ]
      },
      "properties": {
        "id": "22000",
        "name": "Fontenai-sur-Orne"
      }
    },
    {
      "type": "Feature",
      "geometry": {
        "type": "Point",
        "coordinates": [
          -0.198937,
          48.817092
        ]
      },
      "properties": {
        "id": "21997",
        "name": "Neuvy-au-Houlme"
      }
    },
    {
      "type": "Feature",
      "geometry": {
        "type": "Point",
        "coordinates": [
          -0.358644,
          48.586847
        ]
      },
      "properties": {
        "id": "21994",
        "name": "La Ferté Macé"
      }
    },
    {
      "type": "Feature",
      "geometry": {
        "type": "Point",
        "coordinates": [
          -0.26313,
          48.68642
        ]
      },
      "properties": {
        "id": "21991",
        "name": "Montreuil-au-Houlme"
      }
    },
    {
      "type": "Feature",
      "geometry": {
        "type": "Point",
        "coordinates": [
          -0.006767,
          48.836209
        ]
      },
      "properties": {
        "id": "21982",
        "name": "Guêprei"
      }
    },
    {
      "type": "Feature",
      "geometry": {
        "type": "Point",
        "coordinates": [
          0.076132,
          48.41945
        ]
      },
      "properties": {
        "id": "21957",
        "name": "Saint-Germain-du-Corbéis"
      }
    },
    {
      "type": "Feature",
      "geometry": {
        "type": "Point",
        "coordinates": [
          0.109992,
          48.462959
        ]
      },
      "properties": {
        "id": "21726",
        "name": "Valframbert"
      }
    },
    {
      "type": "Feature",
      "geometry": {
        "type": "Point",
        "coordinates": [
          0.163416,
          48.495148
        ]
      },
      "properties": {
        "id": "21724",
        "name": "Larré"
      }
    },
    {
      "type": "Feature",
      "geometry": {
        "type": "Point",
        "coordinates": [
          -1.350221,
          49.64501
        ]
      },
      "properties": {
        "id": "21706",
        "name": "Canteloup (50)"
      }
    },
    {
      "type": "Feature",
      "geometry": {
        "type": "Point",
        "coordinates": [
          1.048805,
          48.991994
        ]
      },
      "properties": {
        "id": "21704",
        "name": "Aulnay-sur-Iton"
      }
    },
    {
      "type": "Feature",
      "geometry": {
        "type": "Point",
        "coordinates": [
          -1.18561,
          48.681494
        ]
      },
      "properties": {
        "id": "21696",
        "name": "Le Grand-Celland"
      }
    },
    {
      "type": "Feature",
      "geometry": {
        "type": "Point",
        "coordinates": [
          0.605409,
          48.280298
        ]
      },
      "properties": {
        "id": "21661",
        "name": "Saint-Germain-de-la-Coudre"
      }
    },
    {
      "type": "Feature",
      "geometry": {
        "type": "Point",
        "coordinates": [
          0.167177,
          48.600574
        ]
      },
      "properties": {
        "id": "21611",
        "name": "Sées"
      }
    },
    {
      "type": "Feature",
      "geometry": {
        "type": "Point",
        "coordinates": [
          -0.78132,
          49.29642
        ]
      },
      "properties": {
        "id": "21564",
        "name": "Tour-en-Bessin"
      }
    },
    {
      "type": "Feature",
      "geometry": {
        "type": "Point",
        "coordinates": [
          -0.464081,
          49.139527
        ]
      },
      "properties": {
        "id": "21562",
        "name": "Fontaine-Étoupefour"
      }
    },
    {
      "type": "Feature",
      "geometry": {
        "type": "Point",
        "coordinates": [
          -0.267749,
          49.014315
        ]
      },
      "properties": {
        "id": "21558",
        "name": "Grainville-Langannerie"
      }
    },
    {
      "type": "Feature",
      "geometry": {
        "type": "Point",
        "coordinates": [
          1.020983,
          48.983799
        ]
      },
      "properties": {
        "id": "21546",
        "name": "Glisolles"
      }
    },
    {
      "type": "Feature",
      "geometry": {
        "type": "Point",
        "coordinates": [
          0.925148,
          49.613167
        ]
      },
      "properties": {
        "id": "21470",
        "name": "Limésy"
      }
    },
    {
      "type": "Feature",
      "geometry": {
        "type": "Point",
        "coordinates": [
          0.951693,
          49.881907
        ]
      },
      "properties": {
        "id": "21468",
        "name": "Longueil"
      }
    },
    {
      "type": "Feature",
      "geometry": {
        "type": "Point",
        "coordinates": [
          0.89376,
          49.771992
        ]
      },
      "properties": {
        "id": "21465",
        "name": "Sassetot-le-Malgardé"
      }
    },
    {
      "type": "Feature",
      "geometry": {
        "type": "Point",
        "coordinates": [
          0.954333,
          49.566411
        ]
      },
      "properties": {
        "id": "21462",
        "name": "Pavilly"
      }
    },
    {
      "type": "Feature",
      "geometry": {
        "type": "Point",
        "coordinates": [
          0.945194,
          49.565522
        ]
      },
      "properties": {
        "id": "21460",
        "name": "Pavilly"
      }
    },
    {
      "type": "Feature",
      "geometry": {
        "type": "Point",
        "coordinates": [
          0.898795,
          49.763599
        ]
      },
      "properties": {
        "id": "21457",
        "name": "Gonnetot"
      }
    },
    {
      "type": "Feature",
      "geometry": {
        "type": "Point",
        "coordinates": [
          0.898254,
          49.669174
        ]
      },
      "properties": {
        "id": "21455",
        "name": "Yerville"
      }
    },
    {
      "type": "Feature",
      "geometry": {
        "type": "Point",
        "coordinates": [
          0.896518,
          49.665699
        ]
      },
      "properties": {
        "id": "21452",
        "name": "Yerville"
      }
    },
    {
      "type": "Feature",
      "geometry": {
        "type": "Point",
        "coordinates": [
          -1.592012,
          48.838301
        ]
      },
      "properties": {
        "id": "21432",
        "name": "Granville"
      }
    },
    {
      "type": "Feature",
      "geometry": {
        "type": "Point",
        "coordinates": [
          1.10098,
          49.382978
        ]
      },
      "properties": {
        "id": "21421",
        "name": "Saint-Étienne-du-Rouvray"
      }
    },
    {
      "type": "Feature",
      "geometry": {
        "type": "Point",
        "coordinates": [
          -0.018049,
          48.7405
        ]
      },
      "properties": {
        "id": "21358",
        "name": "Argentan"
      }
    },
    {
      "type": "Feature",
      "geometry": {
        "type": "Point",
        "coordinates": [
          -0.13358,
          49.1693
        ]
      },
      "properties": {
        "id": "21198",
        "name": "Saint-Pierre-du-Jonquet"
      }
    },
    {
      "type": "Feature",
      "geometry": {
        "type": "Point",
        "coordinates": [
          -0.66889,
          49.26563
        ]
      },
      "properties": {
        "id": "21176",
        "name": "Saint-Martin-des-Entrées"
      }
    },
    {
      "type": "Feature",
      "geometry": {
        "type": "Point",
        "coordinates": [
          -0.139362,
          49.168752
        ]
      },
      "properties": {
        "id": "21174",
        "name": "Saint-Pierre-du-Jonquet"
      }
    },
    {
      "type": "Feature",
      "geometry": {
        "type": "Point",
        "coordinates": [
          -0.357034,
          49.180821
        ]
      },
      "properties": {
        "id": "21172",
        "name": "Caen"
      }
    },
    {
      "type": "Feature",
      "geometry": {
        "type": "Point",
        "coordinates": [
          -1.64147,
          49.22941
        ]
      },
      "properties": {
        "id": "21158",
        "name": "Saint-Germain-sur-Ay"
      }
    },
    {
      "type": "Feature",
      "geometry": {
        "type": "Point",
        "coordinates": [
          -0.5618,
          49.23191
        ]
      },
      "properties": {
        "id": "21156",
        "name": "Sainte-Croix-Grand-Tonne"
      }
    },
    {
      "type": "Feature",
      "geometry": {
        "type": "Point",
        "coordinates": [
          -0.53287,
          49.24896
        ]
      },
      "properties": {
        "id": "21154",
        "name": "Cully"
      }
    },
    {
      "type": "Feature",
      "geometry": {
        "type": "Point",
        "coordinates": [
          -0.37162,
          49.06241
        ]
      },
      "properties": {
        "id": "21150",
        "name": "Fresney-le-Puceux"
      }
    },
    {
      "type": "Feature",
      "geometry": {
        "type": "Point",
        "coordinates": [
          -1.35504,
          48.68108
        ]
      },
      "properties": {
        "id": "20762",
        "name": "Avranches"
      }
    },
    {
      "type": "Feature",
      "geometry": {
        "type": "Point",
        "coordinates": [
          0.73256,
          49.83142
        ]
      },
      "properties": {
        "id": "20715",
        "name": "Cailleville"
      }
    },
    {
      "type": "Feature",
      "geometry": {
        "type": "Point",
        "coordinates": [
          -0.3453,
          49.17256
        ]
      },
      "properties": {
        "id": "20696",
        "name": "Caen"
      }
    },
    {
      "type": "Feature",
      "geometry": {
        "type": "Point",
        "coordinates": [
          0.39098,
          49.6632
        ]
      },
      "properties": {
        "id": "20607",
        "name": "Bretteville du Grand Caux"
      }
    },
    {
      "type": "Feature",
      "geometry": {
        "type": "Point",
        "coordinates": [
          -0.44194,
          49.18524
        ]
      },
      "properties": {
        "id": "20476",
        "name": "Carpiquet"
      }
    },
    {
      "type": "Feature",
      "geometry": {
        "type": "Point",
        "coordinates": [
          0.96534,
          49.29254
        ]
      },
      "properties": {
        "id": "20388",
        "name": "La Londe"
      }
    },
    {
      "type": "Feature",
      "geometry": {
        "type": "Point",
        "coordinates": [
          0.91601,
          49.37176
        ]
      },
      "properties": {
        "id": "20360",
        "name": "Caumont"
      }
    },
    {
      "type": "Feature",
      "geometry": {
        "type": "Point",
        "coordinates": [
          1.072,
          49.44141
        ]
      },
      "properties": {
        "id": "20326",
        "name": "Rouen"
      }
    },
    {
      "type": "Feature",
      "geometry": {
        "type": "Point",
        "coordinates": [
          1.07188,
          49.44356
        ]
      },
      "properties": {
        "id": "20324",
        "name": "Rouen"
      }
    },
    {
      "type": "Feature",
      "geometry": {
        "type": "Point",
        "coordinates": [
          -0.5056,
          49.20936
        ]
      },
      "properties": {
        "id": "20300",
        "name": "Bretteville-l'Orgueilleuse"
      }
    },
    {
      "type": "Feature",
      "geometry": {
        "type": "Point",
        "coordinates": [
          -0.50565,
          49.21471
        ]
      },
      "properties": {
        "id": "20298",
        "name": "Bretteville-l'Orgueilleuse"
      }
    },
    {
      "type": "Feature",
      "geometry": {
        "type": "Point",
        "coordinates": [
          1.42058,
          48.98146
        ]
      },
      "properties": {
        "id": "20293",
        "name": "Hécourt"
      }
    },
    {
      "type": "Feature",
      "geometry": {
        "type": "Point",
        "coordinates": [
          -0.31793,
          49.05068
        ]
      },
      "properties": {
        "id": "20250",
        "name": "Bretteville-sur-Laize"
      }
    },
    {
      "type": "Feature",
      "geometry": {
        "type": "Point",
        "coordinates": [
          -0.31928,
          49.04688
        ]
      },
      "properties": {
        "id": "20248",
        "name": "Bretteville-sur-Laize"
      }
    },
    {
      "type": "Feature",
      "geometry": {
        "type": "Point",
        "coordinates": [
          -0.40189,
          49.16335
        ]
      },
      "properties": {
        "id": "20244",
        "name": "Louvigny"
      }
    },
    {
      "type": "Feature",
      "geometry": {
        "type": "Point",
        "coordinates": [
          -0.917,
          48.72489
        ]
      },
      "properties": {
        "id": "20165",
        "name": "Sourdeval"
      }
    },
    {
      "type": "Feature",
      "geometry": {
        "type": "Point",
        "coordinates": [
          -0.078709,
          49.256488
        ]
      },
      "properties": {
        "id": "20155",
        "name": "Périers-en-Auge"
      }
    },
    {
      "type": "Feature",
      "geometry": {
        "type": "Point",
        "coordinates": [
          -0.15722,
          49.2537
        ]
      },
      "properties": {
        "id": "20150",
        "name": "Varaville"
      }
    },
    {
      "type": "Feature",
      "geometry": {
        "type": "Point",
        "coordinates": [
          -0.48381,
          49.14614
        ]
      },
      "properties": {
        "id": "20147",
        "name": "Mouen"
      }
    },
    {
      "type": "Feature",
      "geometry": {
        "type": "Point",
        "coordinates": [
          -0.88796,
          48.83759
        ]
      },
      "properties": {
        "id": "20133",
        "name": "Vire-Normandie"
      }
    },
    {
      "type": "Feature",
      "geometry": {
        "type": "Point",
        "coordinates": [
          -0.39292,
          49.19278
        ]
      },
      "properties": {
        "id": "20090",
        "name": "Caen"
      }
    },
    {
      "type": "Feature",
      "geometry": {
        "type": "Point",
        "coordinates": [
          -0.34545,
          49.19089
        ]
      },
      "properties": {
        "id": "20088",
        "name": "Caen"
      }
    },
    {
      "type": "Feature",
      "geometry": {
        "type": "Point",
        "coordinates": [
          -0.286605,
          48.884646
        ]
      },
      "properties": {
        "id": "20086",
        "name": "Martigny-sur-l'Ante"
      }
    },
    {
      "type": "Feature",
      "geometry": {
        "type": "Point",
        "coordinates": [
          -0.721528,
          49.052351
        ]
      },
      "properties": {
        "id": "20083",
        "name": "Seulline"
      }
    },
    {
      "type": "Feature",
      "geometry": {
        "type": "Point",
        "coordinates": [
          0.5086,
          49.55665
        ]
      },
      "properties": {
        "id": "20075",
        "name": "Gruchet-le-Valasse"
      }
    },
    {
      "type": "Feature",
      "geometry": {
        "type": "Point",
        "coordinates": [
          0.96539,
          49.25166
        ]
      },
      "properties": {
        "id": "20069",
        "name": "Saint-Pierre-des-Fleurs"
      }
    },
    {
      "type": "Feature",
      "geometry": {
        "type": "Point",
        "coordinates": [
          -1.44995,
          48.509
        ]
      },
      "properties": {
        "id": "20061",
        "name": "Sacey"
      }
    },
    {
      "type": "Feature",
      "geometry": {
        "type": "Point",
        "coordinates": [
          0.8006,
          49.42983
        ]
      },
      "properties": {
        "id": "20021",
        "name": "Heurteauville"
      }
    },
    {
      "type": "Feature",
      "geometry": {
        "type": "Point",
        "coordinates": [
          0.68976,
          49.80093
        ]
      },
      "properties": {
        "id": "20019",
        "name": "Ocqueville"
      }
    },
    {
      "type": "Feature",
      "geometry": {
        "type": "Point",
        "coordinates": [
          0.75522,
          49.61626
        ]
      },
      "properties": {
        "id": "20017",
        "name": "Yvetot"
      }
    },
    {
      "type": "Feature",
      "geometry": {
        "type": "Point",
        "coordinates": [
          0.75191,
          49.6145
        ]
      },
      "properties": {
        "id": "20015",
        "name": "Yvetot"
      }
    },
    {
      "type": "Feature",
      "geometry": {
        "type": "Point",
        "coordinates": [
          0.80028,
          49.87252
        ]
      },
      "properties": {
        "id": "20013",
        "name": "Veules-les-Roses"
      }
    },
    {
      "type": "Feature",
      "geometry": {
        "type": "Point",
        "coordinates": [
          0.66573,
          49.82321
        ]
      },
      "properties": {
        "id": "20011",
        "name": "Saint-Riquier-és-Plains"
      }
    },
    {
      "type": "Feature",
      "geometry": {
        "type": "Point",
        "coordinates": [
          -0.41498,
          49.18838
        ]
      },
      "properties": {
        "id": "19976",
        "name": "Carpiquet"
      }
    },
    {
      "type": "Feature",
      "geometry": {
        "type": "Point",
        "coordinates": [
          -1.57909,
          49.09514
        ]
      },
      "properties": {
        "id": "19972",
        "name": "Gouville-sur-Mer"
      }
    },
    {
      "type": "Feature",
      "geometry": {
        "type": "Point",
        "coordinates": [
          -0.42537,
          49.08563
        ]
      },
      "properties": {
        "id": "19968",
        "name": "Amayé-sur-Orne"
      }
    },
    {
      "type": "Feature",
      "geometry": {
        "type": "Point",
        "coordinates": [
          -0.07653,
          49.29966
        ]
      },
      "properties": {
        "id": "19962",
        "name": "Houlgate"
      }
    },
    {
      "type": "Feature",
      "geometry": {
        "type": "Point",
        "coordinates": [
          -1.39859,
          49.66674
        ]
      },
      "properties": {
        "id": "19914",
        "name": "Saint-Pierre-Église"
      }
    },
    {
      "type": "Feature",
      "geometry": {
        "type": "Point",
        "coordinates": [
          -1.40338,
          49.66838
        ]
      },
      "properties": {
        "id": "19912",
        "name": "Saint-Pierre-Église"
      }
    },
    {
      "type": "Feature",
      "geometry": {
        "type": "Point",
        "coordinates": [
          1.3338,
          49.16055
        ]
      },
      "properties": {
        "id": "19861",
        "name": "Gaillon"
      }
    },
    {
      "type": "Feature",
      "geometry": {
        "type": "Point",
        "coordinates": [
          -0.213209,
          49.125913
        ]
      },
      "properties": {
        "id": "19796",
        "name": "Bellengreville"
      }
    },
    {
      "type": "Feature",
      "geometry": {
        "type": "Point",
        "coordinates": [
          -0.34449,
          49.05052
        ]
      },
      "properties": {
        "id": "19765",
        "name": "Bretteville-sur-Laize"
      }
    },
    {
      "type": "Feature",
      "geometry": {
        "type": "Point",
        "coordinates": [
          -0.32619,
          49.04519
        ]
      },
      "properties": {
        "id": "19762",
        "name": "Bretteville-sur-Laize"
      }
    },
    {
      "type": "Feature",
      "geometry": {
        "type": "Point",
        "coordinates": [
          -0.75611,
          49.34845
        ]
      },
      "properties": {
        "id": "19760",
        "name": "Port-en-Bessin-Huppain"
      }
    },
    {
      "type": "Feature",
      "geometry": {
        "type": "Point",
        "coordinates": [
          -1.088234,
          49.119193
        ]
      },
      "properties": {
        "id": "19756",
        "name": "Saint-Lô"
      }
    },
    {
      "type": "Feature",
      "geometry": {
        "type": "Point",
        "coordinates": [
          -1.089052,
          49.120565
        ]
      },
      "properties": {
        "id": "19754",
        "name": "Saint-Lô"
      }
    },
    {
      "type": "Feature",
      "geometry": {
        "type": "Point",
        "coordinates": [
          -0.36999,
          49.32577
        ]
      },
      "properties": {
        "id": "19752",
        "name": "Langrune-sur-Mer"
      }
    },
    {
      "type": "Feature",
      "geometry": {
        "type": "Point",
        "coordinates": [
          -0.02015,
          49.03798
        ]
      },
      "properties": {
        "id": "19551",
        "name": "Bretteville-sur-Dives"
      }
    },
    {
      "type": "Feature",
      "geometry": {
        "type": "Point",
        "coordinates": [
          -0.3672,
          49.18373
        ]
      },
      "properties": {
        "id": "19529",
        "name": "Caen"
      }
    },
    {
      "type": "Feature",
      "geometry": {
        "type": "Point",
        "coordinates": [
          -0.37072,
          49.3247
        ]
      },
      "properties": {
        "id": "19521",
        "name": "Langrune-sur-Mer"
      }
    },
    {
      "type": "Feature",
      "geometry": {
        "type": "Point",
        "coordinates": [
          1.20005,
          48.9361
        ]
      },
      "properties": {
        "id": "19488",
        "name": "Grossœuvre"
      }
    },
    {
      "type": "Feature",
      "geometry": {
        "type": "Point",
        "coordinates": [
          1.26669,
          48.81985
        ]
      },
      "properties": {
        "id": "19486",
        "name": "Illiers-l'Évêque"
      }
    },
    {
      "type": "Feature",
      "geometry": {
        "type": "Point",
        "coordinates": [
          -0.57257,
          48.81517
        ]
      },
      "properties": {
        "id": "19457",
        "name": "Montilly-sur-Noireau"
      }
    },
    {
      "type": "Feature",
      "geometry": {
        "type": "Point",
        "coordinates": [
          -0.59486,
          48.80795
        ]
      },
      "properties": {
        "id": "19455",
        "name": "Caligny"
      }
    },
    {
      "type": "Feature",
      "geometry": {
        "type": "Point",
        "coordinates": [
          1.34564,
          48.8258
        ]
      },
      "properties": {
        "id": "19393",
        "name": "Marcilly-sur-Eure"
      }
    },
    {
      "type": "Feature",
      "geometry": {
        "type": "Point",
        "coordinates": [
          1.40791,
          48.96432
        ]
      },
      "properties": {
        "id": "19391",
        "name": "Mérey"
      }
    },
    {
      "type": "Feature",
      "geometry": {
        "type": "Point",
        "coordinates": [
          -0.57597,
          48.91954
        ]
      },
      "properties": {
        "id": "19368",
        "name": "Saint-Pierre-la-Vieille"
      }
    },
    {
      "type": "Feature",
      "geometry": {
        "type": "Point",
        "coordinates": [
          -0.48184,
          48.9168
        ]
      },
      "properties": {
        "id": "19341",
        "name": "Clécy"
      }
    },
    {
      "type": "Feature",
      "geometry": {
        "type": "Point",
        "coordinates": [
          -0.53721,
          48.88439
        ]
      },
      "properties": {
        "id": "19317",
        "name": "Proussy"
      }
    },
    {
      "type": "Feature",
      "geometry": {
        "type": "Point",
        "coordinates": [
          -0.625556,
          49.174969
        ]
      },
      "properties": {
        "id": "19224",
        "name": "Tilly-sur-Seulles"
      }
    },
    {
      "type": "Feature",
      "geometry": {
        "type": "Point",
        "coordinates": [
          -1.22045,
          48.83676
        ]
      },
      "properties": {
        "id": "19222",
        "name": "Villedieu-les-Poêles-Rouffigny"
      }
    },
    {
      "type": "Feature",
      "geometry": {
        "type": "Point",
        "coordinates": [
          -0.73486,
          48.89737
        ]
      },
      "properties": {
        "id": "19220",
        "name": "Estry"
      }
    },
    {
      "type": "Feature",
      "geometry": {
        "type": "Point",
        "coordinates": [
          -1.51348,
          48.55331
        ]
      },
      "properties": {
        "id": "19175",
        "name": "Pontorson"
      }
    },
    {
      "type": "Feature",
      "geometry": {
        "type": "Point",
        "coordinates": [
          -0.5451,
          48.99755
        ]
      },
      "properties": {
        "id": "18996",
        "name": "Hamars"
      }
    },
    {
      "type": "Feature",
      "geometry": {
        "type": "Point",
        "coordinates": [
          -1.67234,
          49.5366
        ]
      },
      "properties": {
        "id": "18891",
        "name": "Breuville"
      }
    },
    {
      "type": "Feature",
      "geometry": {
        "type": "Point",
        "coordinates": [
          -0.10556,
          48.8552
        ]
      },
      "properties": {
        "id": "18835",
        "name": "Vignats"
      }
    },
    {
      "type": "Feature",
      "geometry": {
        "type": "Point",
        "coordinates": [
          0.02139,
          48.73
        ]
      },
      "properties": {
        "id": "18833",
        "name": "Juvigny-sur-Orne"
      }
    },
    {
      "type": "Feature",
      "geometry": {
        "type": "Point",
        "coordinates": [
          0.02283,
          48.74328
        ]
      },
      "properties": {
        "id": "18831",
        "name": "Sai"
      }
    },
    {
      "type": "Feature",
      "geometry": {
        "type": "Point",
        "coordinates": [
          0.28937,
          48.70047
        ]
      },
      "properties": {
        "id": "18829",
        "name": "Le Merlerault"
      }
    },
    {
      "type": "Feature",
      "geometry": {
        "type": "Point",
        "coordinates": [
          1.05854,
          48.75817
        ]
      },
      "properties": {
        "id": "18825",
        "name": "Tillières-sur-Avre"
      }
    },
    {
      "type": "Feature",
      "geometry": {
        "type": "Point",
        "coordinates": [
          1.31669,
          48.84566
        ]
      },
      "properties": {
        "id": "18823",
        "name": "Saint-Laurent-des-Bois"
      }
    },
    {
      "type": "Feature",
      "geometry": {
        "type": "Point",
        "coordinates": [
          1.38803,
          49.09571
        ]
      },
      "properties": {
        "id": "18821",
        "name": "La Chapelle-Réanville"
      }
    },
    {
      "type": "Feature",
      "geometry": {
        "type": "Point",
        "coordinates": [
          1.08999,
          48.91976
        ]
      },
      "properties": {
        "id": "18819",
        "name": "Sylvains-les-Moulins"
      }
    },
    {
      "type": "Feature",
      "geometry": {
        "type": "Point",
        "coordinates": [
          0.58242,
          48.78891
        ]
      },
      "properties": {
        "id": "18817",
        "name": "Saint-Symphorien-des-Bruyères"
      }
    },
    {
      "type": "Feature",
      "geometry": {
        "type": "Point",
        "coordinates": [
          0.59621,
          49.08722
        ]
      },
      "properties": {
        "id": "18815",
        "name": "Bernay"
      }
    },
    {
      "type": "Feature",
      "geometry": {
        "type": "Point",
        "coordinates": [
          0.47641,
          49.39763
        ]
      },
      "properties": {
        "id": "18813",
        "name": "Bouquelon"
      }
    },
    {
      "type": "Feature",
      "geometry": {
        "type": "Point",
        "coordinates": [
          1.12609,
          49.88179
        ]
      },
      "properties": {
        "id": "18811",
        "name": "Arques-la-Bataille"
      }
    },
    {
      "type": "Feature",
      "geometry": {
        "type": "Point",
        "coordinates": [
          1.098507,
          49.715975
        ]
      },
      "properties": {
        "id": "18809",
        "name": "Val-de-Scie"
      }
    },
    {
      "type": "Feature",
      "geometry": {
        "type": "Point",
        "coordinates": [
          0.94592,
          49.67474
        ]
      },
      "properties": {
        "id": "18807",
        "name": "Bourdainville"
      }
    },
    {
      "type": "Feature",
      "geometry": {
        "type": "Point",
        "coordinates": [
          1.27043,
          49.53796
        ]
      },
      "properties": {
        "id": "18805",
        "name": "Bierville"
      }
    },
    {
      "type": "Feature",
      "geometry": {
        "type": "Point",
        "coordinates": [
          1.17578,
          49.62616
        ]
      },
      "properties": {
        "id": "18803",
        "name": "Bosc-le-Hard"
      }
    },
    {
      "type": "Feature",
      "geometry": {
        "type": "Point",
        "coordinates": [
          -1.82835,
          49.48854
        ]
      },
      "properties": {
        "id": "18542",
        "name": "Le Rozel"
      }
    },
    {
      "type": "Feature",
      "geometry": {
        "type": "Point",
        "coordinates": [
          -1.5581,
          49.1314
        ]
      },
      "properties": {
        "id": "18540",
        "name": "Geffosses"
      }
    },
    {
      "type": "Feature",
      "geometry": {
        "type": "Point",
        "coordinates": [
          -1.60454,
          49.1976
        ]
      },
      "properties": {
        "id": "18538",
        "name": "Créances"
      }
    },
    {
      "type": "Feature",
      "geometry": {
        "type": "Point",
        "coordinates": [
          -1.25068,
          49.23483
        ]
      },
      "properties": {
        "id": "18536",
        "name": "Saint-André-de-Bohon"
      }
    },
    {
      "type": "Feature",
      "geometry": {
        "type": "Point",
        "coordinates": [
          -0.59558,
          49.28328
        ]
      },
      "properties": {
        "id": "18534",
        "name": "Le Manoir"
      }
    },
    {
      "type": "Feature",
      "geometry": {
        "type": "Point",
        "coordinates": [
          -0.12959,
          49.29124
        ]
      },
      "properties": {
        "id": "18532",
        "name": "Cabourg"
      }
    },
    {
      "type": "Feature",
      "geometry": {
        "type": "Point",
        "coordinates": [
          -0.29699,
          49.12214
        ]
      },
      "properties": {
        "id": "18530",
        "name": "Bourguebus"
      }
    },
    {
      "type": "Feature",
      "geometry": {
        "type": "Point",
        "coordinates": [
          -0.331628,
          49.064421
        ]
      },
      "properties": {
        "id": "18528",
        "name": "Caillouet"
      }
    },
    {
      "type": "Feature",
      "geometry": {
        "type": "Point",
        "coordinates": [
          1.1163,
          49.45414
        ]
      },
      "properties": {
        "id": "18526",
        "name": "Bihorel"
      }
    },
    {
      "type": "Feature",
      "geometry": {
        "type": "Point",
        "coordinates": [
          1.06408,
          49.44958
        ]
      },
      "properties": {
        "id": "18520",
        "name": "Rouen"
      }
    },
    {
      "type": "Feature",
      "geometry": {
        "type": "Point",
        "coordinates": [
          1.10186,
          49.44214
        ]
      },
      "properties": {
        "id": "18514",
        "name": "Rouen"
      }
    },
    {
      "type": "Feature",
      "geometry": {
        "type": "Point",
        "coordinates": [
          1.07837,
          49.42288
        ]
      },
      "properties": {
        "id": "18510",
        "name": "Rouen"
      }
    },
    {
      "type": "Feature",
      "geometry": {
        "type": "Point",
        "coordinates": [
          1.07593,
          49.4081
        ]
      },
      "properties": {
        "id": "18506",
        "name": "Sotteville-lès-Rouen"
      }
    },
    {
      "type": "Feature",
      "geometry": {
        "type": "Point",
        "coordinates": [
          0.93089,
          49.35212
        ]
      },
      "properties": {
        "id": "18504",
        "name": "La Bouille"
      }
    },
    {
      "type": "Feature",
      "geometry": {
        "type": "Point",
        "coordinates": [
          0.87838,
          49.35991
        ]
      },
      "properties": {
        "id": "18502",
        "name": "La Trinité-de-Thouberville"
      }
    },
    {
      "type": "Feature",
      "geometry": {
        "type": "Point",
        "coordinates": [
          -0.50372,
          49.14016
        ]
      },
      "properties": {
        "id": "18500",
        "name": "Tourville-sur-Odon"
      }
    },
    {
      "type": "Feature",
      "geometry": {
        "type": "Point",
        "coordinates": [
          -0.47759,
          49.04924
        ]
      },
      "properties": {
        "id": "18498",
        "name": "Montillières-sur-Orne"
      }
    },
    {
      "type": "Feature",
      "geometry": {
        "type": "Point",
        "coordinates": [
          -1.02963,
          48.76181
        ]
      },
      "properties": {
        "id": "18455",
        "name": "Saint-Michel-de-Montjoie"
      }
    },
    {
      "type": "Feature",
      "geometry": {
        "type": "Point",
        "coordinates": [
          -0.90585,
          49.30918
        ]
      },
      "properties": {
        "id": "18181",
        "name": "Trévières"
      }
    },
    {
      "type": "Feature",
      "geometry": {
        "type": "Point",
        "coordinates": [
          0.80377,
          48.50839
        ]
      },
      "properties": {
        "id": "18165",
        "name": "Le Mage"
      }
    },
    {
      "type": "Feature",
      "geometry": {
        "type": "Point",
        "coordinates": [
          0.75899,
          48.52797
        ]
      },
      "properties": {
        "id": "18163",
        "name": "Longny les Villages"
      }
    },
    {
      "type": "Feature",
      "geometry": {
        "type": "Point",
        "coordinates": [
          0.84622,
          48.47502
        ]
      },
      "properties": {
        "id": "18160",
        "name": "Moutiers-au-Perche"
      }
    },
    {
      "type": "Feature",
      "geometry": {
        "type": "Point",
        "coordinates": [
          -0.33154,
          49.15085
        ]
      },
      "properties": {
        "id": "18099",
        "name": "Cormelles-le-Royal"
      }
    },
    {
      "type": "Feature",
      "geometry": {
        "type": "Point",
        "coordinates": [
          -0.459114,
          49.228264
        ]
      },
      "properties": {
        "id": "18097",
        "name": "Rosel"
      }
    },
    {
      "type": "Feature",
      "geometry": {
        "type": "Point",
        "coordinates": [
          -1.39954,
          48.54194
        ]
      },
      "properties": {
        "id": "17970",
        "name": "Villiers-le-Pré"
      }
    },
    {
      "type": "Feature",
      "geometry": {
        "type": "Point",
        "coordinates": [
          -0.269524,
          49.102264
        ]
      },
      "properties": {
        "id": "17904",
        "name": "Garcelles-Secqueville"
      }
    },
    {
      "type": "Feature",
      "geometry": {
        "type": "Point",
        "coordinates": [
          -1.435891,
          48.916478
        ]
      },
      "properties": {
        "id": "17892",
        "name": "Cérences"
      }
    },
    {
      "type": "Feature",
      "geometry": {
        "type": "Point",
        "coordinates": [
          -0.371572,
          49.189422
        ]
      },
      "properties": {
        "id": "17890",
        "name": "Caen"
      }
    },
    {
      "type": "Feature",
      "geometry": {
        "type": "Point",
        "coordinates": [
          -0.387833,
          49.184613
        ]
      },
      "properties": {
        "id": "17888",
        "name": "Caen"
      }
    },
    {
      "type": "Feature",
      "geometry": {
        "type": "Point",
        "coordinates": [
          -0.33429,
          49.15595
        ]
      },
      "properties": {
        "id": "17768",
        "name": "Cormelles-le-Royal"
      }
    },
    {
      "type": "Feature",
      "geometry": {
        "type": "Point",
        "coordinates": [
          -0.33068,
          49.15346
        ]
      },
      "properties": {
        "id": "17766",
        "name": "Cormelles-le-Royal"
      }
    },
    {
      "type": "Feature",
      "geometry": {
        "type": "Point",
        "coordinates": [
          -0.386893,
          49.289863
        ]
      },
      "properties": {
        "id": "17763",
        "name": "Douvres-la-Délivrande"
      }
    },
    {
      "type": "Feature",
      "geometry": {
        "type": "Point",
        "coordinates": [
          -0.46156,
          49.10126
        ]
      },
      "properties": {
        "id": "17761",
        "name": "Avenay"
      }
    },
    {
      "type": "Feature",
      "geometry": {
        "type": "Point",
        "coordinates": [
          1.0878,
          49.43312
        ]
      },
      "properties": {
        "id": "17718",
        "name": "Rouen"
      }
    },
    {
      "type": "Feature",
      "geometry": {
        "type": "Point",
        "coordinates": [
          1.07788,
          49.42861
        ]
      },
      "properties": {
        "id": "17714",
        "name": "Rouen"
      }
    },
    {
      "type": "Feature",
      "geometry": {
        "type": "Point",
        "coordinates": [
          1.06823,
          49.44598
        ]
      },
      "properties": {
        "id": "17684",
        "name": "Rouen"
      }
    },
    {
      "type": "Feature",
      "geometry": {
        "type": "Point",
        "coordinates": [
          -0.327956,
          49.239662
        ]
      },
      "properties": {
        "id": "17402",
        "name": "Biéville-Beuville"
      }
    },
    {
      "type": "Feature",
      "geometry": {
        "type": "Point",
        "coordinates": [
          1.09374,
          49.44472
        ]
      },
      "properties": {
        "id": "17284",
        "name": "Rouen"
      }
    },
    {
      "type": "Feature",
      "geometry": {
        "type": "Point",
        "coordinates": [
          1.07013,
          49.46278
        ]
      },
      "properties": {
        "id": "17282",
        "name": "Mont-Saint-Aignan"
      }
    },
    {
      "type": "Feature",
      "geometry": {
        "type": "Point",
        "coordinates": [
          -0.415968,
          49.202251
        ]
      },
      "properties": {
        "id": "17259",
        "name": "Authie"
      }
    },
    {
      "type": "Feature",
      "geometry": {
        "type": "Point",
        "coordinates": [
          1.069603,
          49.41763
        ]
      },
      "properties": {
        "id": "17146",
        "name": "Le Petit-Quevilly"
      }
    },
    {
      "type": "Feature",
      "geometry": {
        "type": "Point",
        "coordinates": [
          -0.63243,
          48.64413
        ]
      },
      "properties": {
        "id": "17141",
        "name": "Saint-Bômer-les-Forges"
      }
    },
    {
      "type": "Feature",
      "geometry": {
        "type": "Point",
        "coordinates": [
          -0.525831,
          49.111897
        ]
      },
      "properties": {
        "id": "16953",
        "name": "Bougy"
      }
    },
    {
      "type": "Feature",
      "geometry": {
        "type": "Point",
        "coordinates": [
          -0.64952,
          48.80965
        ]
      },
      "properties": {
        "id": "16938",
        "name": "Saint-Pierre-d'Entremont"
      }
    },
    {
      "type": "Feature",
      "geometry": {
        "type": "Point",
        "coordinates": [
          -1.50437,
          49.38851
        ]
      },
      "properties": {
        "id": "16858",
        "name": "Rauville-la-Place"
      }
    },
    {
      "type": "Feature",
      "geometry": {
        "type": "Point",
        "coordinates": [
          -0.95352,
          48.68177
        ]
      },
      "properties": {
        "id": "16712",
        "name": "Saint-Barthelemy"
      }
    },
    {
      "type": "Feature",
      "geometry": {
        "type": "Point",
        "coordinates": [
          -0.55203,
          48.85095
        ]
      },
      "properties": {
        "id": "16709",
        "name": "Condé-sur-Noireau"
      }
    },
    {
      "type": "Feature",
      "geometry": {
        "type": "Point",
        "coordinates": [
          1.13908,
          49.3877
        ]
      },
      "properties": {
        "id": "16667",
        "name": "Belbeuf"
      }
    },
    {
      "type": "Feature",
      "geometry": {
        "type": "Point",
        "coordinates": [
          0.56924,
          48.66382
        ]
      },
      "properties": {
        "id": "16588",
        "name": "Les Genettes"
      }
    },
    {
      "type": "Feature",
      "geometry": {
        "type": "Point",
        "coordinates": [
          0.56205,
          48.37486
        ]
      },
      "properties": {
        "id": "16585",
        "name": "Bellême"
      }
    },
    {
      "type": "Feature",
      "geometry": {
        "type": "Point",
        "coordinates": [
          -0.673145,
          49.175097
        ]
      },
      "properties": {
        "id": "16544",
        "name": "Lingèvres"
      }
    },
    {
      "type": "Feature",
      "geometry": {
        "type": "Point",
        "coordinates": [
          1.11505,
          49.06804
        ]
      },
      "properties": {
        "id": "16423",
        "name": "Le Mesnil-Fuguet"
      }
    },
    {
      "type": "Feature",
      "geometry": {
        "type": "Point",
        "coordinates": [
          1.09284,
          49.90421
        ]
      },
      "properties": {
        "id": "16421",
        "name": "Rouxmesnil-Bouteilles"
      }
    },
    {
      "type": "Feature",
      "geometry": {
        "type": "Point",
        "coordinates": [
          1.10311,
          49.85883
        ]
      },
      "properties": {
        "id": "16415",
        "name": "Tourville-sur-Arques"
      }
    },
    {
      "type": "Feature",
      "geometry": {
        "type": "Point",
        "coordinates": [
          1.3571,
          48.87135
        ]
      },
      "properties": {
        "id": "16257",
        "name": "L'habit"
      }
    },
    {
      "type": "Feature",
      "geometry": {
        "type": "Point",
        "coordinates": [
          0.06407,
          48.42366
        ]
      },
      "properties": {
        "id": "16185",
        "name": "Saint-Germain-du-Corbéis"
      }
    },
    {
      "type": "Feature",
      "geometry": {
        "type": "Point",
        "coordinates": [
          0.35322,
          48.51251
        ]
      },
      "properties": {
        "id": "16182",
        "name": "Le Mêle-sur-Sarthe"
      }
    },
    {
      "type": "Feature",
      "geometry": {
        "type": "Point",
        "coordinates": [
          0.23311,
          49.42299
        ]
      },
      "properties": {
        "id": "16158",
        "name": "Honfleur"
      }
    },
    {
      "type": "Feature",
      "geometry": {
        "type": "Point",
        "coordinates": [
          -0.286479,
          49.150643
        ]
      },
      "properties": {
        "id": "16138",
        "name": "Grentheville"
      }
    },
    {
      "type": "Feature",
      "geometry": {
        "type": "Point",
        "coordinates": [
          -0.298771,
          49.138428
        ]
      },
      "properties": {
        "id": "16136",
        "name": "Soliers"
      }
    },
    {
      "type": "Feature",
      "geometry": {
        "type": "Point",
        "coordinates": [
          -0.767627,
          49.066189
        ]
      },
      "properties": {
        "id": "16134",
        "name": "Cahagnes"
      }
    },
    {
      "type": "Feature",
      "geometry": {
        "type": "Point",
        "coordinates": [
          -0.33532,
          49.16055
        ]
      },
      "properties": {
        "id": "16132",
        "name": "Cormelles-le-Royal"
      }
    },
    {
      "type": "Feature",
      "geometry": {
        "type": "Point",
        "coordinates": [
          -0.88203,
          49.35916
        ]
      },
      "properties": {
        "id": "16127",
        "name": "Saint-Laurent-sur-Mer"
      }
    },
    {
      "type": "Feature",
      "geometry": {
        "type": "Point",
        "coordinates": [
          -1.275535,
          48.847574
        ]
      },
      "properties": {
        "id": "16122",
        "name": "Fleury"
      }
    },
    {
      "type": "Feature",
      "geometry": {
        "type": "Point",
        "coordinates": [
          -0.254676,
          49.147707
        ]
      },
      "properties": {
        "id": "16102",
        "name": "Cagny"
      }
    },
    {
      "type": "Feature",
      "geometry": {
        "type": "Point",
        "coordinates": [
          0.63509,
          48.5101
        ]
      },
      "properties": {
        "id": "15996",
        "name": "Saint-Mard-de-Réno"
      }
    },
    {
      "type": "Feature",
      "geometry": {
        "type": "Point",
        "coordinates": [
          -1.25943,
          49.67263
        ]
      },
      "properties": {
        "id": "15658",
        "name": "Barfleur"
      }
    },
    {
      "type": "Feature",
      "geometry": {
        "type": "Point",
        "coordinates": [
          -0.392681,
          49.156941
        ]
      },
      "properties": {
        "id": "15653",
        "name": "Louvigny"
      }
    },
    {
      "type": "Feature",
      "geometry": {
        "type": "Point",
        "coordinates": [
          1.35614,
          49.5836
        ]
      },
      "properties": {
        "id": "15651",
        "name": "Buchy"
      }
    },
    {
      "type": "Feature",
      "geometry": {
        "type": "Point",
        "coordinates": [
          0.25098,
          49.71743
        ]
      },
      "properties": {
        "id": "15586",
        "name": "Bénouville (76)"
      }
    },
    {
      "type": "Feature",
      "geometry": {
        "type": "Point",
        "coordinates": [
          0.10934,
          49.27902
        ]
      },
      "properties": {
        "id": "15562",
        "name": "Beaumont-en-Auge"
      }
    },
    {
      "type": "Feature",
      "geometry": {
        "type": "Point",
        "coordinates": [
          0.6262,
          49.4301
        ]
      },
      "properties": {
        "id": "15475",
        "name": "Aizier"
      }
    },
    {
      "type": "Feature",
      "geometry": {
        "type": "Point",
        "coordinates": [
          0.05073,
          49.34867
        ]
      },
      "properties": {
        "id": "15327",
        "name": "Benerville-sur-Mer"
      }
    },
    {
      "type": "Feature",
      "geometry": {
        "type": "Point",
        "coordinates": [
          0.03748,
          49.34214
        ]
      },
      "properties": {
        "id": "15325",
        "name": "Benerville-sur-Mer"
      }
    },
    {
      "type": "Feature",
      "geometry": {
        "type": "Point",
        "coordinates": [
          -1.34621,
          48.68188
        ]
      },
      "properties": {
        "id": "15276",
        "name": "Avranches"
      }
    },
    {
      "type": "Feature",
      "geometry": {
        "type": "Point",
        "coordinates": [
          -1.35189,
          48.67794
        ]
      },
      "properties": {
        "id": "15274",
        "name": "Avranches"
      }
    },
    {
      "type": "Feature",
      "geometry": {
        "type": "Point",
        "coordinates": [
          -1.34596,
          48.6797
        ]
      },
      "properties": {
        "id": "15272",
        "name": "Avranches"
      }
    },
    {
      "type": "Feature",
      "geometry": {
        "type": "Point",
        "coordinates": [
          -1.35868,
          48.67705
        ]
      },
      "properties": {
        "id": "15270",
        "name": "Avranches"
      }
    },
    {
      "type": "Feature",
      "geometry": {
        "type": "Point",
        "coordinates": [
          -1.357764,
          48.688041
        ]
      },
      "properties": {
        "id": "15268",
        "name": "Avranches"
      }
    },
    {
      "type": "Feature",
      "geometry": {
        "type": "Point",
        "coordinates": [
          1.28306,
          50.00201
        ]
      },
      "properties": {
        "id": "15177",
        "name": "Petit-Caux"
      }
    },
    {
      "type": "Feature",
      "geometry": {
        "type": "Point",
        "coordinates": [
          1.32135,
          49.93916
        ]
      },
      "properties": {
        "id": "15175",
        "name": "Petit-Caux"
      }
    },
    {
      "type": "Feature",
      "geometry": {
        "type": "Point",
        "coordinates": [
          1.2227,
          49.95773
        ]
      },
      "properties": {
        "id": "15173",
        "name": "Petit-Caux"
      }
    },
    {
      "type": "Feature",
      "geometry": {
        "type": "Point",
        "coordinates": [
          1.23253,
          49.98053
        ]
      },
      "properties": {
        "id": "15171",
        "name": "Petit-Caux"
      }
    },
    {
      "type": "Feature",
      "geometry": {
        "type": "Point",
        "coordinates": [
          1.30185,
          49.96647
        ]
      },
      "properties": {
        "id": "15169",
        "name": "Petit-Caux"
      }
    },
    {
      "type": "Feature",
      "geometry": {
        "type": "Point",
        "coordinates": [
          1.30447,
          49.94623
        ]
      },
      "properties": {
        "id": "15167",
        "name": "Petit-Caux"
      }
    },
    {
      "type": "Feature",
      "geometry": {
        "type": "Point",
        "coordinates": [
          1.30209,
          49.9297
        ]
      },
      "properties": {
        "id": "15164",
        "name": "Petit-Caux"
      }
    },
    {
      "type": "Feature",
      "geometry": {
        "type": "Point",
        "coordinates": [
          1.23824,
          49.93635
        ]
      },
      "properties": {
        "id": "15162",
        "name": "Petit-Caux"
      }
    },
    {
      "type": "Feature",
      "geometry": {
        "type": "Point",
        "coordinates": [
          1.18857,
          49.93823
        ]
      },
      "properties": {
        "id": "15159",
        "name": "Petit-Caux"
      }
    },
    {
      "type": "Feature",
      "geometry": {
        "type": "Point",
        "coordinates": [
          1.26901,
          49.96661
        ]
      },
      "properties": {
        "id": "15157",
        "name": "Petit-Caux"
      }
    },
    {
      "type": "Feature",
      "geometry": {
        "type": "Point",
        "coordinates": [
          1.14219,
          49.94031
        ]
      },
      "properties": {
        "id": "15155",
        "name": "Petit-Caux"
      }
    },
    {
      "type": "Feature",
      "geometry": {
        "type": "Point",
        "coordinates": [
          1.25307,
          49.9815
        ]
      },
      "properties": {
        "id": "15153",
        "name": "Petit-Caux"
      }
    },
    {
      "type": "Feature",
      "geometry": {
        "type": "Point",
        "coordinates": [
          1.18699,
          49.95875
        ]
      },
      "properties": {
        "id": "15151",
        "name": "Petit-Caux"
      }
    },
    {
      "type": "Feature",
      "geometry": {
        "type": "Point",
        "coordinates": [
          1.16494,
          49.94946
        ]
      },
      "properties": {
        "id": "15147",
        "name": "Petit-Caux"
      }
    },
    {
      "type": "Feature",
      "geometry": {
        "type": "Point",
        "coordinates": [
          1.29275,
          49.98366
        ]
      },
      "properties": {
        "id": "15145",
        "name": "Petit-Caux"
      }
    },
    {
      "type": "Feature",
      "geometry": {
        "type": "Point",
        "coordinates": [
          1.32895,
          49.94446
        ]
      },
      "properties": {
        "id": "15143",
        "name": "Petit-Caux"
      }
    },
    {
      "type": "Feature",
      "geometry": {
        "type": "Point",
        "coordinates": [
          1.12012,
          49.05857
        ]
      },
      "properties": {
        "id": "15108",
        "name": "Aviron"
      }
    },
    {
      "type": "Feature",
      "geometry": {
        "type": "Point",
        "coordinates": [
          0.66079,
          49.69616
        ]
      },
      "properties": {
        "id": "14863",
        "name": "Ancourteville-sur-Héricourt"
      }
    },
    {
      "type": "Feature",
      "geometry": {
        "type": "Point",
        "coordinates": [
          1.12864,
          49.88054
        ]
      },
      "properties": {
        "id": "14849",
        "name": "Arques-la-Bataille"
      }
    },
    {
      "type": "Feature",
      "geometry": {
        "type": "Point",
        "coordinates": [
          1.13408,
          49.88028
        ]
      },
      "properties": {
        "id": "14847",
        "name": "Arques-la-Bataille"
      }
    },
    {
      "type": "Feature",
      "geometry": {
        "type": "Point",
        "coordinates": [
          -0.02811,
          49.30673
        ]
      },
      "properties": {
        "id": "14743",
        "name": "Auberville"
      }
    },
    {
      "type": "Feature",
      "geometry": {
        "type": "Point",
        "coordinates": [
          -0.214834,
          48.917707
        ]
      },
      "properties": {
        "id": "14732",
        "name": "Aubigny"
      }
    },
    {
      "type": "Feature",
      "geometry": {
        "type": "Point",
        "coordinates": [
          0.7091,
          49.16551
        ]
      },
      "properties": {
        "id": "14588",
        "name": "Aclou"
      }
    },
    {
      "type": "Feature",
      "geometry": {
        "type": "Point",
        "coordinates": [
          -0.009329,
          48.746966
        ]
      },
      "properties": {
        "id": "14577",
        "name": "Argentan"
      }
    },
    {
      "type": "Feature",
      "geometry": {
        "type": "Point",
        "coordinates": [
          -0.03099,
          48.753575
        ]
      },
      "properties": {
        "id": "14575",
        "name": "Argentan"
      }
    },
    {
      "type": "Feature",
      "geometry": {
        "type": "Point",
        "coordinates": [
          -0.018006,
          48.739739
        ]
      },
      "properties": {
        "id": "14573",
        "name": "Argentan"
      }
    },
    {
      "type": "Feature",
      "geometry": {
        "type": "Point",
        "coordinates": [
          0.05914,
          49.25249
        ]
      },
      "properties": {
        "id": "14560",
        "name": "Annebault"
      }
    },
    {
      "type": "Feature",
      "geometry": {
        "type": "Point",
        "coordinates": [
          -0.88868,
          48.84458
        ]
      },
      "properties": {
        "id": "14550",
        "name": "Vire-Normandie"
      }
    },
    {
      "type": "Feature",
      "geometry": {
        "type": "Point",
        "coordinates": [
          -0.96743,
          48.7209
        ]
      },
      "properties": {
        "id": "14548",
        "name": "Brouains"
      }
    },
    {
      "type": "Feature",
      "geometry": {
        "type": "Point",
        "coordinates": [
          -0.55133,
          48.60916
        ]
      },
      "properties": {
        "id": "14546",
        "name": "Champsecret"
      }
    },
    {
      "type": "Feature",
      "geometry": {
        "type": "Point",
        "coordinates": [
          1.2696,
          49.30452
        ]
      },
      "properties": {
        "id": "14484",
        "name": "Amfreville-sous-les-Monts"
      }
    },
    {
      "type": "Feature",
      "geometry": {
        "type": "Point",
        "coordinates": [
          1.13601,
          49.15973
        ]
      },
      "properties": {
        "id": "14440",
        "name": "Amfreville-sur-Iton"
      }
    },
    {
      "type": "Feature",
      "geometry": {
        "type": "Point",
        "coordinates": [
          0.89919,
          48.402
        ]
      },
      "properties": {
        "id": "14348",
        "name": "Coulonges-les-Sablons"
      }
    },
    {
      "type": "Feature",
      "geometry": {
        "type": "Point",
        "coordinates": [
          0.8453,
          48.37984
        ]
      },
      "properties": {
        "id": "14346",
        "name": "Condé-sur-Huisne"
      }
    },
    {
      "type": "Feature",
      "geometry": {
        "type": "Point",
        "coordinates": [
          0.46819,
          48.55437
        ]
      },
      "properties": {
        "id": "14238",
        "name": "Bazoches-sur-Hoëne"
      }
    },
    {
      "type": "Feature",
      "geometry": {
        "type": "Point",
        "coordinates": [
          0.5456,
          48.74007
        ]
      },
      "properties": {
        "id": "14226",
        "name": "Aube"
      }
    },
    {
      "type": "Feature",
      "geometry": {
        "type": "Point",
        "coordinates": [
          -0.354596,
          49.186614
        ]
      },
      "properties": {
        "id": "14180",
        "name": "Caen"
      }
    },
    {
      "type": "Feature",
      "geometry": {
        "type": "Point",
        "coordinates": [
          -0.52256,
          49.07338
        ]
      },
      "properties": {
        "id": "14000",
        "name": "Vacognes-Neuilly"
      }
    },
    {
      "type": "Feature",
      "geometry": {
        "type": "Point",
        "coordinates": [
          1.14257,
          49.47082
        ]
      },
      "properties": {
        "id": "13908",
        "name": "Bihorel"
      }
    },
    {
      "type": "Feature",
      "geometry": {
        "type": "Point",
        "coordinates": [
          -1.72119,
          49.32778
        ]
      },
      "properties": {
        "id": "13823",
        "name": "Port-Bail-sur-Mer"
      }
    },
    {
      "type": "Feature",
      "geometry": {
        "type": "Point",
        "coordinates": [
          1.19593,
          48.77257
        ]
      },
      "properties": {
        "id": "13771",
        "name": "Nonancourt"
      }
    },
    {
      "type": "Feature",
      "geometry": {
        "type": "Point",
        "coordinates": [
          0.60186,
          48.68961
        ]
      },
      "properties": {
        "id": "13748",
        "name": "Les Aspres"
      }
    },
    {
      "type": "Feature",
      "geometry": {
        "type": "Point",
        "coordinates": [
          -0.36028,
          49.17112
        ]
      },
      "properties": {
        "id": "13683",
        "name": "Caen"
      }
    },
    {
      "type": "Feature",
      "geometry": {
        "type": "Point",
        "coordinates": [
          -1.57237,
          48.8148
        ]
      },
      "properties": {
        "id": "13681",
        "name": "Saint-Pair-sur-Mer"
      }
    },
    {
      "type": "Feature",
      "geometry": {
        "type": "Point",
        "coordinates": [
          -0.367704,
          49.181607
        ]
      },
      "properties": {
        "id": "13679",
        "name": "Caen"
      }
    },
    {
      "type": "Feature",
      "geometry": {
        "type": "Point",
        "coordinates": [
          -0.22277,
          49.18078
        ]
      },
      "properties": {
        "id": "13677",
        "name": "Sannerville"
      }
    },
    {
      "type": "Feature",
      "geometry": {
        "type": "Point",
        "coordinates": [
          -0.368466,
          49.219452
        ]
      },
      "properties": {
        "id": "13675",
        "name": "Épron"
      }
    },
    {
      "type": "Feature",
      "geometry": {
        "type": "Point",
        "coordinates": [
          -0.561386,
          49.065589
        ]
      },
      "properties": {
        "id": "13582",
        "name": "Banneville-sur-Ajon"
      }
    },
    {
      "type": "Feature",
      "geometry": {
        "type": "Point",
        "coordinates": [
          -1.32899,
          48.9401
        ]
      },
      "properties": {
        "id": "13580",
        "name": "Saint-Denis-le-Gast"
      }
    },
    {
      "type": "Feature",
      "geometry": {
        "type": "Point",
        "coordinates": [
          -1.359778,
          48.833057
        ]
      },
      "properties": {
        "id": "13578",
        "name": "Beauchamps (50)"
      }
    },
    {
      "type": "Feature",
      "geometry": {
        "type": "Point",
        "coordinates": [
          1.21177,
          49.11613
        ]
      },
      "properties": {
        "id": "13567",
        "name": "Cailly-sur-Eure"
      }
    },
    {
      "type": "Feature",
      "geometry": {
        "type": "Point",
        "coordinates": [
          0.74119,
          48.78451
        ]
      },
      "properties": {
        "id": "13563",
        "name": "Chéronvilliers"
      }
    },
    {
      "type": "Feature",
      "geometry": {
        "type": "Point",
        "coordinates": [
          -1.65704,
          49.30117
        ]
      },
      "properties": {
        "id": "13560",
        "name": "Saint-Rémy-des-Landes"
      }
    },
    {
      "type": "Feature",
      "geometry": {
        "type": "Point",
        "coordinates": [
          0.47437,
          49.04594
        ]
      },
      "properties": {
        "id": "13533",
        "name": "Capelle-les-Grands"
      }
    },
    {
      "type": "Feature",
      "geometry": {
        "type": "Point",
        "coordinates": [
          1.01773,
          49.08284
        ]
      },
      "properties": {
        "id": "13531",
        "name": "Bernienville"
      }
    },
    {
      "type": "Feature",
      "geometry": {
        "type": "Point",
        "coordinates": [
          0.77545,
          49.08113
        ]
      },
      "properties": {
        "id": "13529",
        "name": "Beaumont-le-Roger"
      }
    },
    {
      "type": "Feature",
      "geometry": {
        "type": "Point",
        "coordinates": [
          1.08097,
          48.87219
        ]
      },
      "properties": {
        "id": "13525",
        "name": "Damville"
      }
    },
    {
      "type": "Feature",
      "geometry": {
        "type": "Point",
        "coordinates": [
          1.12115,
          48.83148
        ]
      },
      "properties": {
        "id": "13522",
        "name": "Buis-sur-Damville"
      }
    },
    {
      "type": "Feature",
      "geometry": {
        "type": "Point",
        "coordinates": [
          0.77496,
          48.43196
        ]
      },
      "properties": {
        "id": "13423",
        "name": "Rémalard-en-Perche"
      }
    },
    {
      "type": "Feature",
      "geometry": {
        "type": "Point",
        "coordinates": [
          0.047334,
          49.151215
        ]
      },
      "properties": {
        "id": "13404",
        "name": "Cambremer"
      }
    },
    {
      "type": "Feature",
      "geometry": {
        "type": "Point",
        "coordinates": [
          -0.42286,
          49.14853
        ]
      },
      "properties": {
        "id": "13393",
        "name": "Éterville"
      }
    },
    {
      "type": "Feature",
      "geometry": {
        "type": "Point",
        "coordinates": [
          -0.13942,
          49.289
        ]
      },
      "properties": {
        "id": "13390",
        "name": "Varaville"
      }
    },
    {
      "type": "Feature",
      "geometry": {
        "type": "Point",
        "coordinates": [
          -0.1462,
          49.28763
        ]
      },
      "properties": {
        "id": "13388",
        "name": "Varaville"
      }
    },
    {
      "type": "Feature",
      "geometry": {
        "type": "Point",
        "coordinates": [
          -0.56938,
          48.7493
        ]
      },
      "properties": {
        "id": "13384",
        "name": "Flers"
      }
    },
    {
      "type": "Feature",
      "geometry": {
        "type": "Point",
        "coordinates": [
          -0.734,
          48.76261
        ]
      },
      "properties": {
        "id": "13382",
        "name": "Tinchebray-Bocage"
      }
    },
    {
      "type": "Feature",
      "geometry": {
        "type": "Point",
        "coordinates": [
          -0.3361,
          49.15454
        ]
      },
      "properties": {
        "id": "13380",
        "name": "Cormelles-le-Royal"
      }
    },
    {
      "type": "Feature",
      "geometry": {
        "type": "Point",
        "coordinates": [
          -0.5809,
          49.1718
        ]
      },
      "properties": {
        "id": "13372",
        "name": "Fontenay-le-Pesnel"
      }
    },
    {
      "type": "Feature",
      "geometry": {
        "type": "Point",
        "coordinates": [
          -1.39026,
          48.69722
        ]
      },
      "properties": {
        "id": "13369",
        "name": "Marcey-les-Grèves"
      }
    },
    {
      "type": "Feature",
      "geometry": {
        "type": "Point",
        "coordinates": [
          -0.55737,
          49.04814
        ]
      },
      "properties": {
        "id": "13365",
        "name": "Malherbe-sur-Ajon"
      }
    },
    {
      "type": "Feature",
      "geometry": {
        "type": "Point",
        "coordinates": [
          -0.53903,
          49.05532
        ]
      },
      "properties": {
        "id": "13363",
        "name": "Maisoncelles-sur-Ajon"
      }
    },
    {
      "type": "Feature",
      "geometry": {
        "type": "Point",
        "coordinates": [
          1.4393,
          49.46327
        ]
      },
      "properties": {
        "id": "13332",
        "name": "La Haye (76)"
      }
    },
    {
      "type": "Feature",
      "geometry": {
        "type": "Point",
        "coordinates": [
          -0.28609,
          49.23621
        ]
      },
      "properties": {
        "id": "13260",
        "name": "Bénouville"
      }
    },
    {
      "type": "Feature",
      "geometry": {
        "type": "Point",
        "coordinates": [
          -1.0483,
          49.22636
        ]
      },
      "properties": {
        "id": "13197",
        "name": "Sainte-Marguerite-d'Elle"
      }
    },
    {
      "type": "Feature",
      "geometry": {
        "type": "Point",
        "coordinates": [
          -0.96772,
          49.21996
        ]
      },
      "properties": {
        "id": "13195",
        "name": "Sainte-Marguerite-d'Elle"
      }
    },
    {
      "type": "Feature",
      "geometry": {
        "type": "Point",
        "coordinates": [
          -1.029823,
          49.191501
        ]
      },
      "properties": {
        "id": "13193",
        "name": "Saint-Clair-sur-l'Elle"
      }
    },
    {
      "type": "Feature",
      "geometry": {
        "type": "Point",
        "coordinates": [
          -1.029178,
          49.191792
        ]
      },
      "properties": {
        "id": "13191",
        "name": "Saint-Clair-sur-l'Elle"
      }
    },
    {
      "type": "Feature",
      "geometry": {
        "type": "Point",
        "coordinates": [
          -0.87351,
          48.53791
        ]
      },
      "properties": {
        "id": "13189",
        "name": "Le Teilleul"
      }
    },
    {
      "type": "Feature",
      "geometry": {
        "type": "Point",
        "coordinates": [
          -0.83173,
          48.59945
        ]
      },
      "properties": {
        "id": "13187",
        "name": "Barenton"
      }
    },
    {
      "type": "Feature",
      "geometry": {
        "type": "Point",
        "coordinates": [
          -0.8065,
          48.58747
        ]
      },
      "properties": {
        "id": "13185",
        "name": "Barenton"
      }
    },
    {
      "type": "Feature",
      "geometry": {
        "type": "Point",
        "coordinates": [
          -0.47392,
          49.07893
        ]
      },
      "properties": {
        "id": "13179",
        "name": "Maizet"
      }
    },
    {
      "type": "Feature",
      "geometry": {
        "type": "Point",
        "coordinates": [
          -0.42782,
          49.14431
        ]
      },
      "properties": {
        "id": "13177",
        "name": "Éterville"
      }
    },
    {
      "type": "Feature",
      "geometry": {
        "type": "Point",
        "coordinates": [
          0.555,
          48.70116
        ]
      },
      "properties": {
        "id": "13175",
        "name": "Auguaise"
      }
    },
    {
      "type": "Feature",
      "geometry": {
        "type": "Point",
        "coordinates": [
          -1.125401,
          48.645739
        ]
      },
      "properties": {
        "id": "13019",
        "name": "Isigny-le-Buat"
      }
    },
    {
      "type": "Feature",
      "geometry": {
        "type": "Point",
        "coordinates": [
          -1.70993,
          49.45117
        ]
      },
      "properties": {
        "id": "13016",
        "name": "Bricquebec-en-Cotentin"
      }
    },
    {
      "type": "Feature",
      "geometry": {
        "type": "Point",
        "coordinates": [
          -1.39733,
          49.59207
        ]
      },
      "properties": {
        "id": "13014",
        "name": "Teurthéville-Bocage"
      }
    },
    {
      "type": "Feature",
      "geometry": {
        "type": "Point",
        "coordinates": [
          -1.72223,
          49.67905
        ]
      },
      "properties": {
        "id": "13012",
        "name": "Urville-Nacqueville"
      }
    },
    {
      "type": "Feature",
      "geometry": {
        "type": "Point",
        "coordinates": [
          0.065687,
          49.324216
        ]
      },
      "properties": {
        "id": "12853",
        "name": "Tourgéville"
      }
    },
    {
      "type": "Feature",
      "geometry": {
        "type": "Point",
        "coordinates": [
          -0.00363,
          49.27862
        ]
      },
      "properties": {
        "id": "12851",
        "name": "Heuland"
      }
    },
    {
      "type": "Feature",
      "geometry": {
        "type": "Point",
        "coordinates": [
          0.87694,
          49.48144
        ]
      },
      "properties": {
        "id": "12848",
        "name": "Duclair"
      }
    },
    {
      "type": "Feature",
      "geometry": {
        "type": "Point",
        "coordinates": [
          0.87543,
          49.48245
        ]
      },
      "properties": {
        "id": "12846",
        "name": "Duclair"
      }
    },
    {
      "type": "Feature",
      "geometry": {
        "type": "Point",
        "coordinates": [
          -0.057914,
          48.690121
        ]
      },