{
  "type": "FeatureCollection",
  "features": [
    {
      "type": "Feature",
      "geometry": {
        "type": "Point",
        "coordinates": [
          0.335102,
          46.593607
        ]
      },
      "properties": {
        "id": "25822",
        "name": "Poitiers"
      }
    },
    {
      "type": "Feature",
      "geometry": {
        "type": "Point",
        "coordinates": [
          -0.447199,
          46.316673
        ]
      },
      "properties": {
        "id": "25804",
        "name": "Niort"
      }
    },
    {
      "type": "Feature",
      "geometry": {
        "type": "Point",
        "coordinates": [
          -0.525922,
          46.369223
        ]
      },
      "properties": {
        "id": "25795",
        "name": "Saint-Rémy"
      }
    },
    {
      "type": "Feature",
      "geometry": {
        "type": "Point",
        "coordinates": [
          -0.548716,
          46.31508
        ]
      },
      "properties": {
        "id": "25793",
        "name": "Magné (79)"
      }
    },
    {
      "type": "Feature",
      "geometry": {
        "type": "Point",
        "coordinates": [
          -0.541616,
          46.312386
        ]
      },
      "properties": {
        "id": "25790",
        "name": "Magné (79)"
      }
    },
    {
      "type": "Feature",
      "geometry": {
        "type": "Point",
        "coordinates": [
          -0.480365,
          46.316553
        ]
      },
      "properties": {
        "id": "25783",
        "name": "Niort"
      }
    },
    {
      "type": "Feature",
      "geometry": {
        "type": "Point",
        "coordinates": [
          -0.459613,
          46.323458
        ]
      },
      "properties": {
        "id": "25781",
        "name": "Niort"
      }
    },
    {
      "type": "Feature",
      "geometry": {
        "type": "Point",
        "coordinates": [
          0.338151,
          46.58367
        ]
      },
      "properties": {
        "id": "25765",
        "name": "Poitiers"
      }
    },
    {
      "type": "Feature",
      "geometry": {
        "type": "Point",
        "coordinates": [
          0.703283,
          46.653312
        ]
      },
      "properties": {
        "id": "25763",
        "name": "Archigny"
      }
    },
    {
      "type": "Feature",
      "geometry": {
        "type": "Point",
        "coordinates": [
          0.649599,
          46.459553
        ]
      },
      "properties": {
        "id": "25761",
        "name": "Civaux"
      }
    },
    {
      "type": "Feature",
      "geometry": {
        "type": "Point",
        "coordinates": [
          -1.175626,
          46.164434
        ]
      },
      "properties": {
        "id": "25758",
        "name": "La Rochelle"
      }
    },
    {
      "type": "Feature",
      "geometry": {
        "type": "Point",
        "coordinates": [
          -1.160527,
          46.174344
        ]
      },
      "properties": {
        "id": "25756",
        "name": "Lagord"
      }
    },
    {
      "type": "Feature",
      "geometry": {
        "type": "Point",
        "coordinates": [
          -1.161439,
          46.182779
        ]
      },
      "properties": {
        "id": "25753",
        "name": "Lagord"
      }
    },
    {
      "type": "Feature",
      "geometry": {
        "type": "Point",
        "coordinates": [
          -1.164486,
          46.188473
        ]
      },
      "properties": {
        "id": "25750",
        "name": "Lagord"
      }
    },
    {
      "type": "Feature",
      "geometry": {
        "type": "Point",
        "coordinates": [
          -1.157802,
          46.190889
        ]
      },
      "properties": {
        "id": "25747",
        "name": "Lagord"
      }
    },
    {
      "type": "Feature",
      "geometry": {
        "type": "Point",
        "coordinates": [
          -1.151781,
          46.190194
        ]
      },
      "properties": {
        "id": "25744",
        "name": "Lagord"
      }
    },
    {
      "type": "Feature",
      "geometry": {
        "type": "Point",
        "coordinates": [
          -1.154361,
          46.186376
        ]
      },
      "properties": {
        "id": "25742",
        "name": "Lagord"
      }
    },
    {
      "type": "Feature",
      "geometry": {
        "type": "Point",
        "coordinates": [
          -1.14308,
          46.184419
        ]
      },
      "properties": {
        "id": "25740",
        "name": "Lagord"
      }
    },
    {
      "type": "Feature",
      "geometry": {
        "type": "Point",
        "coordinates": [
          -1.14503,
          46.178932
        ]
      },
      "properties": {
        "id": "25737",
        "name": "Lagord"
      }
    },
    {
      "type": "Feature",
      "geometry": {
        "type": "Point",
        "coordinates": [
          -1.132388,
          46.179262
        ]
      },
      "properties": {
        "id": "25735",
        "name": "Puilboreau"
      }
    },
    {
      "type": "Feature",
      "geometry": {
        "type": "Point",
        "coordinates": [
          -1.12543,
          46.18288
        ]
      },
      "properties": {
        "id": "25733",
        "name": "Puilboreau"
      }
    },
    {
      "type": "Feature",
      "geometry": {
        "type": "Point",
        "coordinates": [
          -1.114265,
          46.182601
        ]
      },
      "properties": {
        "id": "25731",
        "name": "Puilboreau"
      }
    },
    {
      "type": "Feature",
      "geometry": {
        "type": "Point",
        "coordinates": [
          -1.095583,
          46.155455
        ]
      },
      "properties": {
        "id": "25727",
        "name": "Périgny"
      }
    },
    {
      "type": "Feature",
      "geometry": {
        "type": "Point",
        "coordinates": [
          -1.093706,
          46.152605
        ]
      },
      "properties": {
        "id": "25725",
        "name": "Périgny"
      }
    },
    {
      "type": "Feature",
      "geometry": {
        "type": "Point",
        "coordinates": [
          0.079812,
          46.013954
        ]
      },
      "properties": {
        "id": "25719",
        "name": "Villefagnan"
      }
    },
    {
      "type": "Feature",
      "geometry": {
        "type": "Point",
        "coordinates": [
          0.079828,
          46.070406
        ]
      },
      "properties": {
        "id": "25717",
        "name": "La Forêt-de-Tessé"
      }
    },
    {
      "type": "Feature",
      "geometry": {
        "type": "Point",
        "coordinates": [
          0.062056,
          46.110136
        ]
      },
      "properties": {
        "id": "25713",
        "name": "Lorigné"
      }
    },
    {
      "type": "Feature",
      "geometry": {
        "type": "Point",
        "coordinates": [
          1.280819,
          45.825796
        ]
      },
      "properties": {
        "id": "25710",
        "name": "Limoges"
      }
    },
    {
      "type": "Feature",
      "geometry": {
        "type": "Point",
        "coordinates": [
          1.274897,
          45.824001
        ]
      },
      "properties": {
        "id": "25708",
        "name": "Limoges"
      }
    },
    {
      "type": "Feature",
      "geometry": {
        "type": "Point",
        "coordinates": [
          1.270072,
          45.823211
        ]
      },
      "properties": {
        "id": "25705",
        "name": "Limoges"
      }
    },
    {
      "type": "Feature",
      "geometry": {
        "type": "Point",
        "coordinates": [
          1.267746,
          45.822947
        ]
      },
      "properties": {
        "id": "25703",
        "name": "Limoges"
      }
    },
    {
      "type": "Feature",
      "geometry": {
        "type": "Point",
        "coordinates": [
          1.266837,
          45.822261
        ]
      },
      "properties": {
        "id": "25701",
        "name": "Limoges"
      }
    },
    {
      "type": "Feature",
      "geometry": {
        "type": "Point",
        "coordinates": [
          1.266528,
          45.822
        ]
      },
      "properties": {
        "id": "25698",
        "name": "Limoges"
      }
    },
    {
      "type": "Feature",
      "geometry": {
        "type": "Point",
        "coordinates": [
          1.243268,
          45.839468
        ]
      },
      "properties": {
        "id": "25696",
        "name": "Limoges"
      }
    },
    {
      "type": "Feature",
      "geometry": {
        "type": "Point",
        "coordinates": [
          1.258857,
          45.850716
        ]
      },
      "properties": {
        "id": "25694",
        "name": "Limoges"
      }
    },
    {
      "type": "Feature",
      "geometry": {
        "type": "Point",
        "coordinates": [
          0.266705,
          46.436334
        ]
      },
      "properties": {
        "id": "25692",
        "name": "Vivonne"
      }
    },
    {
      "type": "Feature",
      "geometry": {
        "type": "Point",
        "coordinates": [
          0.266716,
          46.433836
        ]
      },
      "properties": {
        "id": "25690",
        "name": "Vivonne"
      }
    },
    {
      "type": "Feature",
      "geometry": {
        "type": "Point",
        "coordinates": [
          0.237016,
          46.396625
        ]
      },
      "properties": {
        "id": "25687",
        "name": "Vivonne"
      }
    },
    {
      "type": "Feature",
      "geometry": {
        "type": "Point",
        "coordinates": [
          0.198907,
          46.317753
        ]
      },
      "properties": {
        "id": "25681",
        "name": "Châtillon"
      }
    },
    {
      "type": "Feature",
      "geometry": {
        "type": "Point",
        "coordinates": [
          0.231418,
          46.32085
        ]
      },
      "properties": {
        "id": "25678",
        "name": "Ceaux-en-Couhé"
      }
    },
    {
      "type": "Feature",
      "geometry": {
        "type": "Point",
        "coordinates": [
          0.221328,
          46.298306
        ]
      },
      "properties": {
        "id": "25676",
        "name": "Vaux"
      }
    },
    {
      "type": "Feature",
      "geometry": {
        "type": "Point",
        "coordinates": [
          -0.002878,
          46.661252
        ]
      },
      "properties": {
        "id": "25674",
        "name": "Chalandray"
      }
    },
    {
      "type": "Feature",
      "geometry": {
        "type": "Point",
        "coordinates": [
          -0.143986,
          46.923172
        ]
      },
      "properties": {
        "id": "25671",
        "name": "Taizé-Maulais"
      }
    },
    {
      "type": "Feature",
      "geometry": {
        "type": "Point",
        "coordinates": [
          -0.301746,
          46.907895
        ]
      },
      "properties": {
        "id": "25667",
        "name": "Luché-Thouarsais"
      }
    },
    {
      "type": "Feature",
      "geometry": {
        "type": "Point",
        "coordinates": [
          -0.249842,
          46.972211
        ]
      },
      "properties": {
        "id": "25665",
        "name": "Thouars"
      }
    },
    {
      "type": "Feature",
      "geometry": {
        "type": "Point",
        "coordinates": [
          -0.006429,
          46.494385
        ]
      },
      "properties": {
        "id": "25663",
        "name": "Sanxay"
      }
    },
    {
      "type": "Feature",
      "geometry": {
        "type": "Point",
        "coordinates": [
          0.04435,
          46.491003
        ]
      },
      "properties": {
        "id": "25661",
        "name": "Curzay-sur-Vonne"
      }
    },
    {
      "type": "Feature",
      "geometry": {
        "type": "Point",
        "coordinates": [
          0.392531,
          46.356999
        ]
      },
      "properties": {
        "id": "25655",
        "name": "Magné"
      }
    },
    {
      "type": "Feature",
      "geometry": {
        "type": "Point",
        "coordinates": [
          0.371489,
          46.078349
        ]
      },
      "properties": {
        "id": "25653",
        "name": "Surin"
      }
    },
    {
      "type": "Feature",
      "geometry": {
        "type": "Point",
        "coordinates": [
          0.36176,
          46.589403
        ]
      },
      "properties": {
        "id": "25651",
        "name": "Poitiers"
      }
    },
    {
      "type": "Feature",
      "geometry": {
        "type": "Point",
        "coordinates": [
          0.411392,
          45.99153
        ]
      },
      "properties": {
        "id": "25648",
        "name": "Champagne-Mouton"
      }
    },
    {
      "type": "Feature",
      "geometry": {
        "type": "Point",
        "coordinates": [
          0.444069,
          45.940526
        ]
      },
      "properties": {
        "id": "25646",
        "name": "Le Grand-Mandieu"
      }
    },
    {
      "type": "Feature",
      "geometry": {
        "type": "Point",
        "coordinates": [
          0.465489,
          45.894397
        ]
      },
      "properties": {
        "id": "25644",
        "name": "Saint-Claud"
      }
    },
    {
      "type": "Feature",
      "geometry": {
        "type": "Point",
        "coordinates": [
          0.451161,
          45.823693
        ]
      },
      "properties": {
        "id": "25640",
        "name": "Chasseneuil-sur-Bonnieure"
      }
    },
    {
      "type": "Feature",
      "geometry": {
        "type": "Point",
        "coordinates": [
          0.402923,
          45.585013
        ]
      },
      "properties": {
        "id": "25637",
        "name": "Grassac"
      }
    },
    {
      "type": "Feature",
      "geometry": {
        "type": "Point",
        "coordinates": [
          0.415531,
          45.543169
        ]
      },
      "properties": {
        "id": "25634",
        "name": "Charras"
      }
    },
    {
      "type": "Feature",
      "geometry": {
        "type": "Point",
        "coordinates": [
          0.451354,
          45.451374
        ]
      },
      "properties": {
        "id": "25632",
        "name": "Mareuil en Périgord"
      }
    },
    {
      "type": "Feature",
      "geometry": {
        "type": "Point",
        "coordinates": [
          0.539288,
          45.348096
        ]
      },
      "properties": {
        "id": "25630",
        "name": "Paussac-et-Saint-Vivien"
      }
    },
    {
      "type": "Feature",
      "geometry": {
        "type": "Point",
        "coordinates": [
          0.655065,
          45.357624
        ]
      },
      "properties": {
        "id": "25627",
        "name": "Brantôme en Périgord"
      }
    },
    {
      "type": "Feature",
      "geometry": {
        "type": "Point",
        "coordinates": [
          0.691854,
          45.565202
        ]
      },
      "properties": {
        "id": "25621",
        "name": "Augignac"
      }
    },
    {
      "type": "Feature",
      "geometry": {
        "type": "Point",
        "coordinates": [
          0.689113,
          45.622039
        ]
      },
      "properties": {
        "id": "25619",
        "name": "Piégut-Pluviers"
      }
    },
    {
      "type": "Feature",
      "geometry": {
        "type": "Point",
        "coordinates": [
          0.415471,
          46.541075
        ]
      },
      "properties": {
        "id": "25614",
        "name": "Mignaloux-Beauvoir"
      }
    },
    {
      "type": "Feature",
      "geometry": {
        "type": "Point",
        "coordinates": [
          0.378892,
          45.953704
        ]
      },
      "properties": {
        "id": "25611",
        "name": "Chassiecq"
      }
    },
    {
      "type": "Feature",
      "geometry": {
        "type": "Point",
        "coordinates": [
          0.382306,
          45.925069
        ]
      },
      "properties": {
        "id": "25608",
        "name": "Beaulieu-sur-Sonnette"
      }
    },
    {
      "type": "Feature",
      "geometry": {
        "type": "Point",
        "coordinates": [
          0.344443,
          46.587943
        ]
      },
      "properties": {
        "id": "25606",
        "name": "Poitiers"
      }
    },
    {
      "type": "Feature",
      "geometry": {
        "type": "Point",
        "coordinates": [
          0.105735,
          45.825276
        ]
      },
      "properties": {
        "id": "25604",
        "name": "Xambes"
      }
    },
    {
      "type": "Feature",
      "geometry": {
        "type": "Point",
        "coordinates": [
          0.109579,
          45.887424
        ]
      },
      "properties": {
        "id": "25600",
        "name": "Luxé"
      }
    },
    {
      "type": "Feature",
      "geometry": {
        "type": "Point",
        "coordinates": [
          0.21602,
          46.33206
        ]
      },
      "properties": {
        "id": "25568",
        "name": "Valence-en-Poitou"
      }
    },
    {
      "type": "Feature",
      "geometry": {
        "type": "Point",
        "coordinates": [
          0.372433,
          46.574675
        ]
      },
      "properties": {
        "id": "25548",
        "name": "Poitiers"
      }
    },
    {
      "type": "Feature",
      "geometry": {
        "type": "Point",
        "coordinates": [
          -1.319207,
          43.886266
        ]
      },
      "properties": {
        "id": "25520",
        "name": "Léon"
      }
    },
    {
      "type": "Feature",
      "geometry": {
        "type": "Point",
        "coordinates": [
          -0.492842,
          46.264611
        ]
      },
      "properties": {
        "id": "25515",
        "name": "Saint-Symphorien"
      }
    },
    {
      "type": "Feature",
      "geometry": {
        "type": "Point",
        "coordinates": [
          0.297175,
          44.179234
        ]
      },
      "properties": {
        "id": "25490",
        "name": "Lavardac"
      }
    },
    {
      "type": "Feature",
      "geometry": {
        "type": "Point",
        "coordinates": [
          0.4893,
          44.85713
        ]
      },
      "properties": {
        "id": "25463",
        "name": "Bergerac"
      }
    },
    {
      "type": "Feature",
      "geometry": {
        "type": "Point",
        "coordinates": [
          -0.237762,
          44.919444
        ]
      },
      "properties": {
        "id": "25446",
        "name": "Libourne"
      }
    },
    {
      "type": "Feature",
      "geometry": {
        "type": "Point",
        "coordinates": [
          -0.128228,
          45.015664
        ]
      },
      "properties": {
        "id": "25444",
        "name": "Abzac"
      }
    },
    {
      "type": "Feature",
      "geometry": {
        "type": "Point",
        "coordinates": [
          -0.164999,
          45.081483
        ]
      },
      "properties": {
        "id": "25442",
        "name": "Lagorce"
      }
    },
    {
      "type": "Feature",
      "geometry": {
        "type": "Point",
        "coordinates": [
          -0.227339,
          45.035348
        ]
      },
      "properties": {
        "id": "25439",
        "name": "Saint-Martin-de-Laye"
      }
    },
    {
      "type": "Feature",
      "geometry": {
        "type": "Point",
        "coordinates": [
          -0.040035,
          45.098211
        ]
      },
      "properties": {
        "id": "25437",
        "name": "Les Églisottes-et-Chalaures"
      }
    },
    {
      "type": "Feature",
      "geometry": {
        "type": "Point",
        "coordinates": [
          -1.369509,
          46.204922
        ]
      },
      "properties": {
        "id": "25296",
        "name": "Saint-Martin-de-Ré"
      }
    },
    {
      "type": "Feature",
      "geometry": {
        "type": "Point",
        "coordinates": [
          1.622044,
          46.388147
        ]
      },
      "properties": {
        "id": "25294",
        "name": "Crozant"
      }
    },
    {
      "type": "Feature",
      "geometry": {
        "type": "Point",
        "coordinates": [
          0.655154,
          46.121875
        ]
      },
      "properties": {
        "id": "25267",
        "name": ""
      }
    },
    {
      "type": "Feature",
      "geometry": {
        "type": "Point",
        "coordinates": [
          0.653335,
          46.122098
        ]
      },
      "properties": {
        "id": "25265",
        "name": "Availles-Limouzine"
      }
    },
    {
      "type": "Feature",
      "geometry": {
        "type": "Point",
        "coordinates": [
          0.40544,
          46.143193
        ]
      },
      "properties": {
        "id": "25263",
        "name": "Charroux"
      }
    },
    {
      "type": "Feature",
      "geometry": {
        "type": "Point",
        "coordinates": [
          0.336408,
          46.217221
        ]
      },
      "properties": {
        "id": "25261",
        "name": "Champniers"
      }
    },
    {
      "type": "Feature",
      "geometry": {
        "type": "Point",
        "coordinates": [
          1.537893,
          45.161615
        ]
      },
      "properties": {
        "id": "25258",
        "name": "Brive-la-Gaillarde"
      }
    },
    {
      "type": "Feature",
      "geometry": {
        "type": "Point",
        "coordinates": [
          1.559506,
          45.162031
        ]
      },
      "properties": {
        "id": "25245",
        "name": "Malemort-sur-Corrèze"
      }
    },
    {
      "type": "Feature",
      "geometry": {
        "type": "Point",
        "coordinates": [
          1.527872,
          45.155273
        ]
      },
      "properties": {
        "id": "25238",
        "name": "Brive-la-Gaillarde"
      }
    },
    {
      "type": "Feature",
      "geometry": {
        "type": "Point",
        "coordinates": [
          1.53296,
          45.168722
        ]
      },
      "properties": {
        "id": "25231",
        "name": "Brive-la-Gaillarde"
      }
    },
    {
      "type": "Feature",
      "geometry": {
        "type": "Point",
        "coordinates": [
          0.341343,
          46.395865
        ]
      },
      "properties": {
        "id": "25223",
        "name": "Marnay"
      }
    },
    {
      "type": "Feature",
      "geometry": {
        "type": "Point",
        "coordinates": [
          0.311606,
          46.41598
        ]
      },
      "properties": {
        "id": "25221",
        "name": "Château-Larcher"
      }
    },
    {
      "type": "Feature",
      "geometry": {
        "type": "Point",
        "coordinates": [
          2.074058,
          46.160174
        ]
      },
      "properties": {
        "id": "25123",
        "name": "Vigeville"
      }
    },
    {
      "type": "Feature",
      "geometry": {
        "type": "Point",
        "coordinates": [
          1.475947,
          46.299883
        ]
      },
      "properties": {
        "id": "25116",
        "name": "Vareilles"
      }
    },
    {
      "type": "Feature",
      "geometry": {
        "type": "Point",
        "coordinates": [
          0.875009,
          46.37775
        ]
      },
      "properties": {
        "id": "24597",
        "name": "Saulgé"
      }
    },
    {
      "type": "Feature",
      "geometry": {
        "type": "Point",
        "coordinates": [
          1.14169,
          45.797283
        ]
      },
      "properties": {
        "id": "24588",
        "name": "Aixe-sur-Vienne"
      }
    },
    {
      "type": "Feature",
      "geometry": {
        "type": "Point",
        "coordinates": [
          -0.376354,
          47.067608
        ]
      },
      "properties": {
        "id": "24519",
        "name": "Saint-Pierre-à-Champs"
      }
    },
    {
      "type": "Feature",
      "geometry": {
        "type": "Point",
        "coordinates": [
          -0.429915,
          44.909172
        ]
      },
      "properties": {
        "id": "24453",
        "name": "Saint-Loubès"
      }
    },
    {
      "type": "Feature",
      "geometry": {
        "type": "Point",
        "coordinates": [
          0.221017,
          45.808581
        ]
      },
      "properties": {
        "id": "24442",
        "name": "Aussac-Vadalle"
      }
    },
    {
      "type": "Feature",
      "geometry": {
        "type": "Point",
        "coordinates": [
          0.324016,
          46.549109
        ]
      },
      "properties": {
        "id": "24426",
        "name": "Saint-Benoît"
      }
    },
    {
      "type": "Feature",
      "geometry": {
        "type": "Point",
        "coordinates": [
          -1.771591,
          43.358954
        ]
      },
      "properties": {
        "id": "24391",
        "name": "Hendaye"
      }
    },
    {
      "type": "Feature",
      "geometry": {
        "type": "Point",
        "coordinates": [
          0.350296,
          45.794055
        ]
      },
      "properties": {
        "id": "24337",
        "name": "Agris"
      }
    },
    {
      "type": "Feature",
      "geometry": {
        "type": "Point",
        "coordinates": [
          0.339208,
          45.786133
        ]
      },
      "properties": {
        "id": "24334",
        "name": "Agris"
      }
    },
    {
      "type": "Feature",
      "geometry": {
        "type": "Point",
        "coordinates": [
          0.326221,
          45.793595
        ]
      },
      "properties": {
        "id": "24331",
        "name": "La Rochette"
      }
    },
    {
      "type": "Feature",
      "geometry": {
        "type": "Point",
        "coordinates": [
          0.211457,
          45.861312
        ]
      },
      "properties": {
        "id": "24328",
        "name": "Puyréaux"
      }
    },
    {
      "type": "Feature",
      "geometry": {
        "type": "Point",
        "coordinates": [
          0.387805,
          46.587021
        ]
      },
      "properties": {
        "id": "24232",
        "name": "Poitiers"
      }
    },
    {
      "type": "Feature",
      "geometry": {
        "type": "Point",
        "coordinates": [
          0.506117,
          46.558606
        ]
      },
      "properties": {
        "id": "24165",
        "name": "Saint-Julien-l'Ars"
      }
    },
    {
      "type": "Feature",
      "geometry": {
        "type": "Point",
        "coordinates": [
          0.38612,
          46.566763
        ]
      },
      "properties": {
        "id": "24163",
        "name": "Poitiers"
      }
    },
    {
      "type": "Feature",
      "geometry": {
        "type": "Point",
        "coordinates": [
          0.305648,
          46.578701
        ]
      },
      "properties": {
        "id": "24161",
        "name": "Biard"
      }
    },
    {
      "type": "Feature",
      "geometry": {
        "type": "Point",
        "coordinates": [
          0.28377,
          45.848364
        ]
      },
      "properties": {
        "id": "24159",
        "name": "Val-de-Bonnieure"
      }
    },
    {
      "type": "Feature",
      "geometry": {
        "type": "Point",
        "coordinates": [
          0.243445,
          45.859403
        ]
      },
      "properties": {
        "id": "24119",
        "name": "Saint-Ciers-sur-Bonnieure"
      }
    },
    {
      "type": "Feature",
      "geometry": {
        "type": "Point",
        "coordinates": [
          0.177313,
          45.924101
        ]
      },
      "properties": {
        "id": "24117",
        "name": "Fontenille"
      }
    },
    {
      "type": "Feature",
      "geometry": {
        "type": "Point",
        "coordinates": [
          0.136779,
          45.920296
        ]
      },
      "properties": {
        "id": "24114",
        "name": "Juillé"
      }
    },
    {
      "type": "Feature",
      "geometry": {
        "type": "Point",
        "coordinates": [
          0.067163,
          45.935636
        ]
      },
      "properties": {
        "id": "24112",
        "name": "Tusson"
      }
    },
    {
      "type": "Feature",
      "geometry": {
        "type": "Point",
        "coordinates": [
          1.904401,
          46.328017
        ]
      },
      "properties": {
        "id": "24028",
        "name": "Bonnat"
      }
    },
    {
      "type": "Feature",
      "geometry": {
        "type": "Point",
        "coordinates": [
          2.024495,
          46.170314
        ]
      },
      "properties": {
        "id": "23999",
        "name": "Pionnat"
      }
    },
    {
      "type": "Feature",
      "geometry": {
        "type": "Point",
        "coordinates": [
          1.848074,
          46.183017
        ]
      },
      "properties": {
        "id": "23994",
        "name": "Saint-Sulpice-le-Guérétois"
      }
    },
    {
      "type": "Feature",
      "geometry": {
        "type": "Point",
        "coordinates": [
          0.31752,
          46.547541
        ]
      },
      "properties": {
        "id": "23958",
        "name": "Saint Benoît"
      }
    },
    {
      "type": "Feature",
      "geometry": {
        "type": "Point",
        "coordinates": [
          0.322922,
          46.593648
        ]
      },
      "properties": {
        "id": "23951",
        "name": "Poitiers"
      }
    },
    {
      "type": "Feature",
      "geometry": {
        "type": "Point",
        "coordinates": [
          0.810116,
          44.38457
        ]
      },
      "properties": {
        "id": "23918",
        "name": "Penne-d'Agenais"
      }
    },
    {
      "type": "Feature",
      "geometry": {
        "type": "Point",
        "coordinates": [
          0.217688,
          46.978891
        ]
      },
      "properties": {
        "id": "23916",
        "name": "Maulay"
      }
    },
    {
      "type": "Feature",
      "geometry": {
        "type": "Point",
        "coordinates": [
          -0.639486,
          44.846346
        ]
      },
      "properties": {
        "id": "23910",
        "name": "Mérignac"
      }
    },
    {
      "type": "Feature",
      "geometry": {
        "type": "Point",
        "coordinates": [
          -0.628731,
          45.718559
        ]
      },
      "properties": {
        "id": "23899",
        "name": "Les Gonds"
      }
    },
    {
      "type": "Feature",
      "geometry": {
        "type": "Point",
        "coordinates": [
          -0.985014,
          45.96162
        ]
      },
      "properties": {
        "id": "23896",
        "name": "Vergeroux"
      }
    },
    {
      "type": "Feature",
      "geometry": {
        "type": "Point",
        "coordinates": [
          -0.000684,
          47.136158
        ]
      },
      "properties": {
        "id": "23852",
        "name": "Saix"
      }
    },
    {
      "type": "Feature",
      "geometry": {
        "type": "Point",
        "coordinates": [
          0.22894,
          46.139198
        ]
      },
      "properties": {
        "id": "23836",
        "name": "Saint-Saviol"
      }
    },
    {
      "type": "Feature",
      "geometry": {
        "type": "Point",
        "coordinates": [
          0.311278,
          45.939219
        ]
      },
      "properties": {
        "id": "23833",
        "name": "Saint-Sulpice-de-Ruffec"
      }
    },
    {
      "type": "Feature",
      "geometry": {
        "type": "Point",
        "coordinates": [
          0.218318,
          45.814694
        ]
      },
      "properties": {
        "id": "23830",
        "name": "Aussac-Vadalle"
      }
    },
    {
      "type": "Feature",
      "geometry": {
        "type": "Point",
        "coordinates": [
          0.200069,
          45.817794
        ]
      },
      "properties": {
        "id": "23828",
        "name": "Aussac-Vadalle"
      }
    },
    {
      "type": "Feature",
      "geometry": {
        "type": "Point",
        "coordinates": [
          0.191561,
          45.795974
        ]
      },
      "properties": {
        "id": "23825",
        "name": "Tourriers"
      }
    },
    {
      "type": "Feature",
      "geometry": {
        "type": "Point",
        "coordinates": [
          0.173791,
          45.802943
        ]
      },
      "properties": {
        "id": "23823",
        "name": "Villejoubert"
      }
    },
    {
      "type": "Feature",
      "geometry": {
        "type": "Point",
        "coordinates": [
          -0.058402,
          46.788423
        ]
      },
      "properties": {
        "id": "23820",
        "name": "Assais-les-Jumeaux"
      }
    },
    {
      "type": "Feature",
      "geometry": {
        "type": "Point",
        "coordinates": [
          -0.0923,
          46.747295
        ]
      },
      "properties": {
        "id": "23818",
        "name": "Pressigny"
      }
    },
    {
      "type": "Feature",
      "geometry": {
        "type": "Point",
        "coordinates": [
          -0.119289,
          46.740919
        ]
      },
      "properties": {
        "id": "23816",
        "name": "Aubigny"
      }
    },
    {
      "type": "Feature",
      "geometry": {
        "type": "Point",
        "coordinates": [
          0.536418,
          46.802724
        ]
      },
      "properties": {
        "id": "23814",
        "name": "Châtellerault"
      }
    },
    {
      "type": "Feature",
      "geometry": {
        "type": "Point",
        "coordinates": [
          0.539749,
          46.80558
        ]
      },
      "properties": {
        "id": "23812",
        "name": "Châtellerault"
      }
    },
    {
      "type": "Feature",
      "geometry": {
        "type": "Point",
        "coordinates": [
          0.471991,
          46.912945
        ]
      },
      "properties": {
        "id": "23810",
        "name": "Leigné-sur-Usseau"
      }
    },
    {
      "type": "Feature",
      "geometry": {
        "type": "Point",
        "coordinates": [
          0.457671,
          46.831818
        ]
      },
      "properties": {
        "id": "23804",
        "name": "Thuré"
      }
    },
    {
      "type": "Feature",
      "geometry": {
        "type": "Point",
        "coordinates": [
          -0.649534,
          44.884217
        ]
      },
      "properties": {
        "id": "23801",
        "name": "Eysines"
      }
    },
    {
      "type": "Feature",
      "geometry": {
        "type": "Point",
        "coordinates": [
          -0.625762,
          44.875318
        ]
      },
      "properties": {
        "id": "23795",
        "name": "Eysines"
      }
    },
    {
      "type": "Feature",
      "geometry": {
        "type": "Point",
        "coordinates": [
          -0.544277,
          44.830674
        ]
      },
      "properties": {
        "id": "23793",
        "name": "Bordeaux"
      }
    },
    {
      "type": "Feature",
      "geometry": {
        "type": "Point",
        "coordinates": [
          -0.580261,
          44.841409
        ]
      },
      "properties": {
        "id": "23791",
        "name": "Bordeaux"
      }
    },
    {
      "type": "Feature",
      "geometry": {
        "type": "Point",
        "coordinates": [
          0.40967,
          45.990358
        ]
      },
      "properties": {
        "id": "23652",
        "name": "Champagne-Mouton"
      }
    },
    {
      "type": "Feature",
      "geometry": {
        "type": "Point",
        "coordinates": [
          -0.565788,
          44.85877
        ]
      },
      "properties": {
        "id": "23638",
        "name": "Bordeaux"
      }
    },
    {
      "type": "Feature",
      "geometry": {
        "type": "Point",
        "coordinates": [
          0.172412,
          45.658088
        ]
      },
      "properties": {
        "id": "23636",
        "name": "Angoulême"
      }
    },
    {
      "type": "Feature",
      "geometry": {
        "type": "Point",
        "coordinates": [
          0.185783,
          45.64678
        ]
      },
      "properties": {
        "id": "23633",
        "name": "Soyaux"
      }
    },
    {
      "type": "Feature",
      "geometry": {
        "type": "Point",
        "coordinates": [
          0.166415,
          45.648089
        ]
      },
      "properties": {
        "id": "23631",
        "name": "Angoulême"
      }
    },
    {
      "type": "Feature",
      "geometry": {
        "type": "Point",
        "coordinates": [
          0.162362,
          45.648421
        ]
      },
      "properties": {
        "id": "23628",
        "name": "Angoulême"
      }
    },
    {
      "type": "Feature",
      "geometry": {
        "type": "Point",
        "coordinates": [
          0.15584,
          45.65109
        ]
      },
      "properties": {
        "id": "23625",
        "name": "Angoulême"
      }
    },
    {
      "type": "Feature",
      "geometry": {
        "type": "Point",
        "coordinates": [
          0.392791,
          44.065632
        ]
      },
      "properties": {
        "id": "23607",
        "name": "Lasserre (47)"
      }
    },
    {
      "type": "Feature",
      "geometry": {
        "type": "Point",
        "coordinates": [
          0.42794,
          44.06372
        ]
      },
      "properties": {
        "id": "23605",
        "name": "Francescas"
      }
    },
    {
      "type": "Feature",
      "geometry": {
        "type": "Point",
        "coordinates": [
          1.953633,
          45.039559
        ]
      },
      "properties": {
        "id": "23383",
        "name": "La Chapelle-Saint-Géraud"
      }
    },
    {
      "type": "Feature",
      "geometry": {
        "type": "Point",
        "coordinates": [
          0.01087,
          43.98526
        ]
      },
      "properties": {
        "id": "23321",
        "name": "Gabarret"
      }
    },
    {
      "type": "Feature",
      "geometry": {
        "type": "Point",
        "coordinates": [
          0.142348,
          44.042627
        ]
      },
      "properties": {
        "id": "23318",
        "name": "Sos"
      }
    },
    {
      "type": "Feature",
      "geometry": {
        "type": "Point",
        "coordinates": [
          0.260308,
          44.057425
        ]
      },
      "properties": {
        "id": "23314",
        "name": "Mézin"
      }
    },
    {
      "type": "Feature",
      "geometry": {
        "type": "Point",
        "coordinates": [
          0.188262,
          46.042752
        ]
      },
      "properties": {
        "id": "23245",
        "name": "Ruffec"
      }
    },
    {
      "type": "Feature",
      "geometry": {
        "type": "Point",
        "coordinates": [
          0.238719,
          45.90708
        ]
      },
      "properties": {
        "id": "23243",
        "name": "Moutonneau"
      }
    },
    {
      "type": "Feature",
      "geometry": {
        "type": "Point",
        "coordinates": [
          0.217565,
          45.904189
        ]
      },
      "properties": {
        "id": "23240",
        "name": "Lichères"
      }
    },
    {
      "type": "Feature",
      "geometry": {
        "type": "Point",
        "coordinates": [
          2.271442,
          46.319567
        ]
      },
      "properties": {
        "id": "23232",
        "name": "Lavaufranche"
      }
    },
    {
      "type": "Feature",
      "geometry": {
        "type": "Point",
        "coordinates": [
          -1.064276,
          45.186211
        ]
      },
      "properties": {
        "id": "23153",
        "name": "Hourtin"
      }
    },
    {
      "type": "Feature",
      "geometry": {
        "type": "Point",
        "coordinates": [
          -1.124264,
          46.166108
        ]
      },
      "properties": {
        "id": "23094",
        "name": "La Rochelle"
      }
    },
    {
      "type": "Feature",
      "geometry": {
        "type": "Point",
        "coordinates": [
          -0.235415,
          46.609258
        ]
      },
      "properties": {
        "id": "23091",
        "name": "Pompaire"
      }
    },
    {
      "type": "Feature",
      "geometry": {
        "type": "Point",
        "coordinates": [
          -0.196909,
          46.623225
        ]
      },
      "properties": {
        "id": "23088",
        "name": "La Chapelle-Bertrand"
      }
    },
    {
      "type": "Feature",
      "geometry": {
        "type": "Point",
        "coordinates": [
          -0.174024,
          46.620751
        ]
      },
      "properties": {
        "id": "23086",
        "name": "La Chapelle-Bertrand"
      }
    },
    {
      "type": "Feature",
      "geometry": {
        "type": "Point",
        "coordinates": [
          -0.120689,
          46.589764
        ]
      },
      "properties": {
        "id": "23084",
        "name": "Saint-Martin-du-Fouilloux"
      }
    },
    {
      "type": "Feature",
      "geometry": {
        "type": "Point",
        "coordinates": [
          -0.136825,
          46.550671
        ]
      },
      "properties": {
        "id": "23082",
        "name": "Vausseroux"
      }
    },
    {
      "type": "Feature",
      "geometry": {
        "type": "Point",
        "coordinates": [
          -0.139156,
          46.549433
        ]
      },
      "properties": {
        "id": "23079",
        "name": "Vausseroux"
      }
    },
    {
      "type": "Feature",
      "geometry": {
        "type": "Point",
        "coordinates": [
          -0.10889,
          46.475483
        ]
      },
      "properties": {
        "id": "23077",
        "name": "Fomperron"
      }
    },
    {
      "type": "Feature",
      "geometry": {
        "type": "Point",
        "coordinates": [
          -0.305458,
          46.362683
        ]
      },
      "properties": {
        "id": "23073",
        "name": "La Crèche"
      }
    },
    {
      "type": "Feature",
      "geometry": {
        "type": "Point",
        "coordinates": [
          -0.308341,
          46.380616
        ]
      },
      "properties": {
        "id": "23071",
        "name": "La Crèche"
      }
    },
    {
      "type": "Feature",
      "geometry": {
        "type": "Point",
        "coordinates": [
          0.62831,
          44.209944
        ]
      },
      "properties": {
        "id": "23065",
        "name": "Agen"
      }
    },
    {
      "type": "Feature",
      "geometry": {
        "type": "Point",
        "coordinates": [
          0.07931,
          46.15607
        ]
      },
      "properties": {
        "id": "23061",
        "name": "Mairé-Levescault"
      }
    },
    {
      "type": "Feature",
      "geometry": {
        "type": "Point",
        "coordinates": [
          -0.104459,
          46.326185
        ]
      },
      "properties": {
        "id": "23006",
        "name": "Exoudun"
      }
    },
    {
      "type": "Feature",
      "geometry": {
        "type": "Point",
        "coordinates": [
          -0.158226,
          46.356978
        ]
      },
      "properties": {
        "id": "23004",
        "name": "Souvigné"
      }
    },
    {
      "type": "Feature",
      "geometry": {
        "type": "Point",
        "coordinates": [
          -0.055296,
          46.395501
        ]
      },
      "properties": {
        "id": "23000",
        "name": "Pamproux"
      }
    },
    {
      "type": "Feature",
      "geometry": {
        "type": "Point",
        "coordinates": [
          0.268996,
          46.685843
        ]
      },
      "properties": {
        "id": "22998",
        "name": "Neuville-de-Poitou"
      }
    },
    {
      "type": "Feature",
      "geometry": {
        "type": "Point",
        "coordinates": [
          0.597382,
          46.604545
        ]
      },
      "properties": {
        "id": "22943",
        "name": "Bonnes"
      }
    },
    {
      "type": "Feature",
      "geometry": {
        "type": "Point",
        "coordinates": [
          0.591634,
          46.646691
        ]
      },
      "properties": {
        "id": "22941",
        "name": "Bellefonds"
      }
    },
    {
      "type": "Feature",
      "geometry": {
        "type": "Point",
        "coordinates": [
          0.53631,
          46.773463
        ]
      },
      "properties": {
        "id": "22934",
        "name": "Cenon-sur-Vienne"
      }
    },
    {
      "type": "Feature",
      "geometry": {
        "type": "Point",
        "coordinates": [
          0.124076,
          45.833449
        ]
      },
      "properties": {
        "id": "22932",
        "name": "Vervant"
      }
    },
    {
      "type": "Feature",
      "geometry": {
        "type": "Point",
        "coordinates": [
          0.13469,
          45.797928
        ]
      },
      "properties": {
        "id": "22929",
        "name": "Saint-Amant-de-Boixe"
      }
    },
    {
      "type": "Feature",
      "geometry": {
        "type": "Point",
        "coordinates": [
          0.128041,
          45.762731
        ]
      },
      "properties": {
        "id": "22925",
        "name": "Vars"
      }
    },
    {
      "type": "Feature",
      "geometry": {
        "type": "Point",
        "coordinates": [
          0.195434,
          45.752661
        ]
      },
      "properties": {
        "id": "22923",
        "name": "Anais"
      }
    },
    {
      "type": "Feature",
      "geometry": {
        "type": "Point",
        "coordinates": [
          0.257613,
          45.785095
        ]
      },
      "properties": {
        "id": "22921",
        "name": "Jauldes"
      }
    },
    {
      "type": "Feature",
      "geometry": {
        "type": "Point",
        "coordinates": [
          0.335373,
          45.775566
        ]
      },
      "properties": {
        "id": "22919",
        "name": "Agris"
      }
    },
    {
      "type": "Feature",
      "geometry": {
        "type": "Point",
        "coordinates": [
          0.330043,
          45.781616
        ]
      },
      "properties": {
        "id": "22915",
        "name": "Agris"
      }
    },
    {
      "type": "Feature",
      "geometry": {
        "type": "Point",
        "coordinates": [
          0.312941,
          45.800554
        ]
      },
      "properties": {
        "id": "22913",
        "name": "La Rochette"
      }
    },
    {
      "type": "Feature",
      "geometry": {
        "type": "Point",
        "coordinates": [
          0.180936,
          45.874815
        ]
      },
      "properties": {
        "id": "22911",
        "name": "Mansle-les-Fontaines"
      }
    },
    {
      "type": "Feature",
      "geometry": {
        "type": "Point",
        "coordinates": [
          0.17849,
          45.875153
        ]
      },
      "properties": {
        "id": "22909",
        "name": "Mansle-les-Fontaines"
      }
    },
    {
      "type": "Feature",
      "geometry": {
        "type": "Point",
        "coordinates": [
          0.176436,
          45.875816
        ]
      },
      "properties": {
        "id": "22905",
        "name": "Mansle-les-Fontaines"
      }
    },
    {
      "type": "Feature",
      "geometry": {
        "type": "Point",
        "coordinates": [
          0.140824,
          46.549053
        ]
      },
      "properties": {
        "id": "22896",
        "name": "Montreuil-Bonnin"
      }
    },
    {
      "type": "Feature",
      "geometry": {
        "type": "Point",
        "coordinates": [
          0.139067,
          46.554718
        ]
      },
      "properties": {
        "id": "22894",
        "name": "Boivre-la-Vallée"
      }
    },
    {
      "type": "Feature",
      "geometry": {
        "type": "Point",
        "coordinates": [
          0.353858,
          46.59266
        ]
      },
      "properties": {
        "id": "22891",
        "name": "Poitiers"
      }
    },
    {
      "type": "Feature",
      "geometry": {
        "type": "Point",
        "coordinates": [
          0.563894,
          46.517203
        ]
      },
      "properties": {
        "id": "22889",
        "name": "Tercé"
      }
    },
    {
      "type": "Feature",
      "geometry": {
        "type": "Point",
        "coordinates": [
          0.576849,
          46.536648
        ]
      },
      "properties": {
        "id": "22887",
        "name": "Pouillé"
      }
    },
    {
      "type": "Feature",
      "geometry": {
        "type": "Point",
        "coordinates": [
          0.348505,
          46.58365
        ]
      },
      "properties": {
        "id": "22885",
        "name": "Poitiers"
      }
    },
    {
      "type": "Feature",
      "geometry": {
        "type": "Point",
        "coordinates": [
          -1.149805,
          46.159989
        ]
      },
      "properties": {
        "id": "22879",
        "name": "La Rochelle"
      }
    },
    {
      "type": "Feature",
      "geometry": {
        "type": "Point",
        "coordinates": [
          -1.153755,
          46.158154
        ]
      },
      "properties": {
        "id": "22877",
        "name": "La Rochelle"
      }
    },
    {
      "type": "Feature",
      "geometry": {
        "type": "Point",
        "coordinates": [
          -1.180287,
          46.166372
        ]
      },
      "properties": {
        "id": "22874",
        "name": "La Rochelle"
      }
    },
    {
      "type": "Feature",
      "geometry": {
        "type": "Point",
        "coordinates": [
          -1.262135,
          46.159478
        ]
      },
      "properties": {
        "id": "22871",
        "name": "Rivedoux-Plage"
      }
    },
    {
      "type": "Feature",
      "geometry": {
        "type": "Point",
        "coordinates": [
          -1.321811,
          46.156977
        ]
      },
      "properties": {
        "id": "22869",
        "name": "Sainte-Marie-de-Ré"
      }
    },
    {
      "type": "Feature",
      "geometry": {
        "type": "Point",
        "coordinates": [
          -1.393746,
          46.181457
        ]
      },
      "properties": {
        "id": "22867",
        "name": "Le-Bois-Plage-en-Ré"
      }
    },
    {
      "type": "Feature",
      "geometry": {
        "type": "Point",
        "coordinates": [
          -1.326841,
          46.179617
        ]
      },
      "properties": {
        "id": "22863",
        "name": "La Flotte"
      }
    },
    {
      "type": "Feature",
      "geometry": {
        "type": "Point",
        "coordinates": [
          1.705094,
          45.822706
        ]
      },
      "properties": {
        "id": "22474",
        "name": "Saint-Julien-le-Petit"
      }
    },
    {
      "type": "Feature",
      "geometry": {
        "type": "Point",
        "coordinates": [
          -0.20932,
          43.2674
        ]
      },
      "properties": {
        "id": "22455",
        "name": "Nousty"
      }
    },
    {
      "type": "Feature",
      "geometry": {
        "type": "Point",
        "coordinates": [
          -1.142876,
          44.636927
        ]
      },
      "properties": {
        "id": "22452",
        "name": "La Teste-de-Buch"
      }
    },
    {
      "type": "Feature",
      "geometry": {
        "type": "Point",
        "coordinates": [
          -0.477169,
          46.399078
        ]
      },
      "properties": {
        "id": "22450",
        "name": "Saint-Maxire"
      }
    },
    {
      "type": "Feature",
      "geometry": {
        "type": "Point",
        "coordinates": [
          -0.476159,
          46.92354
        ]
      },
      "properties": {
        "id": "22374",
        "name": "Saint-Aubin-du-Plain"
      }
    },
    {
      "type": "Feature",
      "geometry": {
        "type": "Point",
        "coordinates": [
          2.143498,
          46.39999
        ]
      },
      "properties": {
        "id": "22296",
        "name": "Bussière-Saint-Georges"
      }
    },
    {
      "type": "Feature",
      "geometry": {
        "type": "Point",
        "coordinates": [
          0.553479,
          46.399189
        ]
      },
      "properties": {
        "id": "22294",
        "name": "Saint-Laurent-de-Jourdes"
      }
    },
    {
      "type": "Feature",
      "geometry": {
        "type": "Point",
        "coordinates": [
          0.549265,
          46.400077
        ]
      },
      "properties": {
        "id": "22291",
        "name": "Saint-Laurent-de-Jourdes"
      }
    },
    {
      "type": "Feature",
      "geometry": {
        "type": "Point",
        "coordinates": [
          0.54529,
          46.391077
        ]
      },
      "properties": {
        "id": "22289",
        "name": "Saint-Laurent-de-Jourdes"
      }
    },
    {
      "type": "Feature",
      "geometry": {
        "type": "Point",
        "coordinates": [
          0.557535,
          46.382587
        ]
      },
      "properties": {
        "id": "22287",
        "name": "Saint-Laurent-de-Jourdes"
      }
    },
    {
      "type": "Feature",
      "geometry": {
        "type": "Point",
        "coordinates": [
          -0.221795,
          46.96743
        ]
      },
      "properties": {
        "id": "22280",
        "name": "Saint-Jean-de-Thouars"
      }
    },
    {
      "type": "Feature",
      "geometry": {
        "type": "Point",
        "coordinates": [
          -0.219949,
          46.962596
        ]
      },
      "properties": {
        "id": "22278",
        "name": "Saint-Jean-de-Thouars"
      }
    },
    {
      "type": "Feature",
      "geometry": {
        "type": "Point",
        "coordinates": [
          0.337993,
          46.575761
        ]
      },
      "properties": {
        "id": "22275",
        "name": "Poitiers"
      }
    },
    {
      "type": "Feature",
      "geometry": {
        "type": "Point",
        "coordinates": [
          0.606021,
          44.201564
        ]
      },
      "properties": {
        "id": "22260",
        "name": "Le Passage"
      }
    },
    {
      "type": "Feature",
      "geometry": {
        "type": "Point",
        "coordinates": [
          0.616098,
          44.195407
        ]
      },
      "properties": {
        "id": "22257",
        "name": "Agen"
      }
    },
    {
      "type": "Feature",
      "geometry": {
        "type": "Point",
        "coordinates": [
          0.630161,
          44.209963
        ]
      },
      "properties": {
        "id": "22255",
        "name": "Agen"
      }
    },
    {
      "type": "Feature",
      "geometry": {
        "type": "Point",
        "coordinates": [
          0.609371,
          44.208848
        ]
      },
      "properties": {
        "id": "22248",
        "name": "Agen"
      }
    },
    {
      "type": "Feature",
      "geometry": {
        "type": "Point",
        "coordinates": [
          0.622771,
          44.205447
        ]
      },
      "properties": {
        "id": "22246",
        "name": "Agen"
      }
    },
    {
      "type": "Feature",
      "geometry": {
        "type": "Point",
        "coordinates": [
          0.705807,
          44.40916
        ]
      },
      "properties": {
        "id": "22242",
        "name": "Villeneuve-sur-Lot"
      }
    },
    {
      "type": "Feature",
      "geometry": {
        "type": "Point",
        "coordinates": [
          0.725698,
          45.176081
        ]
      },
      "properties": {
        "id": "22240",
        "name": "Sanilhac"
      }
    },
    {
      "type": "Feature",
      "geometry": {
        "type": "Point",
        "coordinates": [
          0.715302,
          45.185237
        ]
      },
      "properties": {
        "id": "22238",
        "name": "Périgueux"
      }
    },
    {
      "type": "Feature",
      "geometry": {
        "type": "Point",
        "coordinates": [
          -0.473657,
          44.83868
        ]
      },
      "properties": {
        "id": "22206",
        "name": "Tresses"
      }
    },
    {
      "type": "Feature",
      "geometry": {
        "type": "Point",
        "coordinates": [
          -0.438289,
          44.932793
        ]
      },
      "properties": {
        "id": "22200",
        "name": "Saint-Loubès"
      }
    },
    {
      "type": "Feature",
      "geometry": {
        "type": "Point",
        "coordinates": [
          -1.144252,
          43.135404
        ]
      },
      "properties": {
        "id": "22169",
        "name": "Lecumberry"
      }
    },
    {
      "type": "Feature",
      "geometry": {
        "type": "Point",
        "coordinates": [
          -1.125399,
          44.751977
        ]
      },
      "properties": {
        "id": "22116",
        "name": "Arès"
      }
    },
    {
      "type": "Feature",
      "geometry": {
        "type": "Point",
        "coordinates": [
          -0.428668,
          44.916943
        ]
      },
      "properties": {
        "id": "22072",
        "name": "Saint-Loubès"
      }
    },
    {
      "type": "Feature",
      "geometry": {
        "type": "Point",
        "coordinates": [
          -0.882566,
          45.528171
        ]
      },
      "properties": {
        "id": "22070",
        "name": "Barzan Plage"
      }
    },
    {
      "type": "Feature",
      "geometry": {
        "type": "Point",
        "coordinates": [
          -0.687238,
          45.388384
        ]
      },
      "properties": {
        "id": "22068",
        "name": "Saint-Thomas-de-Conac"
      }
    },
    {
      "type": "Feature",
      "geometry": {
        "type": "Point",
        "coordinates": [
          0.118902,
          47.037351
        ]
      },
      "properties": {
        "id": "22039",
        "name": "Basses"
      }
    },
    {
      "type": "Feature",
      "geometry": {
        "type": "Point",
        "coordinates": [
          -1.172276,
          44.658578
        ]
      },
      "properties": {
        "id": "22035",
        "name": "Arcachon"
      }
    },
    {
      "type": "Feature",
      "geometry": {
        "type": "Point",
        "coordinates": [
          0.318303,
          46.566545
        ]
      },
      "properties": {
        "id": "22029",
        "name": "Poitiers"
      }
    },
    {
      "type": "Feature",
      "geometry": {
        "type": "Point",
        "coordinates": [
          0.29525,
          46.56257
        ]
      },
      "properties": {
        "id": "22026",
        "name": "Vouneuil-sous-Biard"
      }
    },
    {
      "type": "Feature",
      "geometry": {
        "type": "Point",
        "coordinates": [
          0.288681,
          46.558595
        ]
      },
      "properties": {
        "id": "22023",
        "name": "Vouneuil-sous-Biard"
      }
    },
    {
      "type": "Feature",
      "geometry": {
        "type": "Point",
        "coordinates": [
          -1.765138,
          43.343856
        ]
      },
      "properties": {
        "id": "21869",
        "name": "Hendaye"
      }
    },
    {
      "type": "Feature",
      "geometry": {
        "type": "Point",
        "coordinates": [
          -1.765309,
          43.343957
        ]
      },
      "properties": {
        "id": "21867",
        "name": "Hendaye"
      }
    },
    {
      "type": "Feature",
      "geometry": {
        "type": "Point",
        "coordinates": [
          -0.435006,
          44.750454
        ]
      },
      "properties": {
        "id": "21709",
        "name": "Saint-Caprais-de-Bordeaux"
      }
    },
    {
      "type": "Feature",
      "geometry": {
        "type": "Point",
        "coordinates": [
          -0.669785,
          44.79429
        ]
      },
      "properties": {
        "id": "21681",
        "name": "Pessac"
      }
    },
    {
      "type": "Feature",
      "geometry": {
        "type": "Point",
        "coordinates": [
          -1.097348,
          46.185039
        ]
      },
      "properties": {
        "id": "21537",
        "name": "Puilboreau"
      }
    },
    {
      "type": "Feature",
      "geometry": {
        "type": "Point",
        "coordinates": [
          -0.515491,
          45.944648
        ]
      },
      "properties": {
        "id": "21533",
        "name": "Saint-Jean-d'Angély"
      }
    },
    {
      "type": "Feature",
      "geometry": {
        "type": "Point",
        "coordinates": [
          -0.52247,
          45.94393
        ]
      },
      "properties": {
        "id": "21531",
        "name": "Saint-Jean-d'Angély"
      }
    },
    {
      "type": "Feature",
      "geometry": {
        "type": "Point",
        "coordinates": [
          -0.517379,
          45.939885
        ]
      },
      "properties": {
        "id": "21529",
        "name": "Saint-Jean-d'Angély"
      }
    },
    {
      "type": "Feature",
      "geometry": {
        "type": "Point",
        "coordinates": [
          -0.522186,
          45.941555
        ]
      },
      "properties": {
        "id": "21527",
        "name": "Saint-Jean-d'Angély"
      }
    },
    {
      "type": "Feature",
      "geometry": {
        "type": "Point",
        "coordinates": [
          -0.482709,
          44.927855
        ]
      },
      "properties": {
        "id": "21445",
        "name": "Ambarès-et-Lagrave"
      }
    },
    {
      "type": "Feature",
      "geometry": {
        "type": "Point",
        "coordinates": [
          0.24513,
          46.015962
        ]
      },
      "properties": {
        "id": "21441",
        "name": "Barro"
      }
    },
    {
      "type": "Feature",
      "geometry": {
        "type": "Point",
        "coordinates": [
          0.242976,
          46.011358
        ]
      },
      "properties": {
        "id": "21438",
        "name": "Barro"
      }
    },
    {
      "type": "Feature",
      "geometry": {
        "type": "Point",
        "coordinates": [
          0.33158,
          46.59173
        ]
      },
      "properties": {
        "id": "21200",
        "name": "Poitiers"
      }
    },
    {
      "type": "Feature",
      "geometry": {
        "type": "Point",
        "coordinates": [
          0.920185,
          45.41453
        ]
      },
      "properties": {
        "id": "21062",
        "name": "Thiviers"
      }
    },
    {
      "type": "Feature",
      "geometry": {
        "type": "Point",
        "coordinates": [
          1.60761,
          45.71359
        ]
      },
      "properties": {
        "id": "21027",
        "name": "Châteauneuf-la-Forêt"
      }
    },
    {
      "type": "Feature",
      "geometry": {
        "type": "Point",
        "coordinates": [
          0.753671,
          45.42085
        ]
      },
      "properties": {
        "id": "21025",
        "name": "Villars"
      }
    },
    {
      "type": "Feature",
      "geometry": {
        "type": "Point",
        "coordinates": [
          -1.20175,
          45.00375
        ]
      },
      "properties": {
        "id": "21021",
        "name": "Lacanau"
      }
    },
    {
      "type": "Feature",
      "geometry": {
        "type": "Point",
        "coordinates": [
          0.54566,
          44.84102
        ]
      },
      "properties": {
        "id": "21002",
        "name": "Cours-de-Pile"
      }
    },
    {
      "type": "Feature",
      "geometry": {
        "type": "Point",
        "coordinates": [
          0.56478,
          44.85446
        ]
      },
      "properties": {
        "id": "21000",
        "name": "Creysse"
      }
    },
    {
      "type": "Feature",
      "geometry": {
        "type": "Point",
        "coordinates": [
          1.72463,
          45.12434
        ]
      },
      "properties": {
        "id": "20982",
        "name": "Beynat"
      }
    },
    {
      "type": "Feature",
      "geometry": {
        "type": "Point",
        "coordinates": [
          0.490107,
          44.852574
        ]
      },
      "properties": {
        "id": "20978",
        "name": "Bergerac"
      }
    },
    {
      "type": "Feature",
      "geometry": {
        "type": "Point",
        "coordinates": [
          0.34494,
          46.58926
        ]
      },
      "properties": {
        "id": "20798",
        "name": "Poitiers"
      }
    },
    {
      "type": "Feature",
      "geometry": {
        "type": "Point",
        "coordinates": [
          0.34254,
          46.58931
        ]
      },
      "properties": {
        "id": "20780",
        "name": "Poitiers"
      }
    },
    {
      "type": "Feature",
      "geometry": {
        "type": "Point",
        "coordinates": [
          -1.52417,
          43.34652
        ]
      },
      "properties": {
        "id": "20689",
        "name": "Saint-Pée-sur-Nivelle"
      }
    },
    {
      "type": "Feature",
      "geometry": {
        "type": "Point",
        "coordinates": [
          -0.47713,
          44.87267
        ]
      },
      "properties": {
        "id": "20677",
        "name": "Yvrac"
      }
    },
    {
      "type": "Feature",
      "geometry": {
        "type": "Point",
        "coordinates": [
          1.49231,
          45.83786
        ]
      },
      "properties": {
        "id": "20635",
        "name": "Saint-Léonard-de-Noblat"
      }
    },
    {
      "type": "Feature",
      "geometry": {
        "type": "Point",
        "coordinates": [
          1.8128,
          46.11891
        ]
      },
      "properties": {
        "id": "20629",
        "name": "Saint-Victor-en-Marche"
      }
    },
    {
      "type": "Feature",
      "geometry": {
        "type": "Point",
        "coordinates": [
          -0.24434,
          46.64476
        ]
      },
      "properties": {
        "id": "20539",
        "name": "Parthenay"
      }
    },
    {
      "type": "Feature",
      "geometry": {
        "type": "Point",
        "coordinates": [
          0.32713,
          46.81232
        ]
      },
      "properties": {
        "id": "20536",
        "name": "Lencloître"
      }
    },
    {
      "type": "Feature",
      "geometry": {
        "type": "Point",
        "coordinates": [
          0.37195,
          46.67002
        ]
      },
      "properties": {
        "id": "20534",
        "name": "Jaunay-Marigny"
      }
    },
    {
      "type": "Feature",
      "geometry": {
        "type": "Point",
        "coordinates": [
          -0.24786,
          46.9952
        ]
      },
      "properties": {
        "id": "20524",
        "name": "Thouars"
      }
    },
    {
      "type": "Feature",
      "geometry": {
        "type": "Point",
        "coordinates": [
          -0.23313,
          46.98902
        ]
      },
      "properties": {
        "id": "20522",
        "name": "Thouars"
      }
    },
    {
      "type": "Feature",
      "geometry": {
        "type": "Point",
        "coordinates": [
          0.19888,
          46.02377
        ]
      },
      "properties": {
        "id": "20520",
        "name": "Ruffec"
      }
    },
    {
      "type": "Feature",
      "geometry": {
        "type": "Point",
        "coordinates": [
          1.2677,
          45.83601
        ]
      },
      "properties": {
        "id": "20504",
        "name": "Limoges"
      }
    },
    {
      "type": "Feature",
      "geometry": {
        "type": "Point",
        "coordinates": [
          1.31165,
          45.81589
        ]
      },
      "properties": {
        "id": "20498",
        "name": "Feytiat"
      }
    },
    {
      "type": "Feature",
      "geometry": {
        "type": "Point",
        "coordinates": [
          0.31824,
          46.56799
        ]
      },
      "properties": {
        "id": "20496",
        "name": "Poitiers"
      }
    },
    {
      "type": "Feature",
      "geometry": {
        "type": "Point",
        "coordinates": [
          0.33813,
          46.57426
        ]
      },
      "properties": {
        "id": "20491",
        "name": "Poitiers"
      }
    },
    {
      "type": "Feature",
      "geometry": {
        "type": "Point",
        "coordinates": [
          -0.35634,
          44.54585
        ]
      },
      "properties": {
        "id": "20454",
        "name": "Bommes"
      }
    },
    {
      "type": "Feature",
      "geometry": {
        "type": "Point",
        "coordinates": [
          -0.88543,
          44.96288
        ]
      },
      "properties": {
        "id": "20452",
        "name": "Sainte-Hélène"
      }
    },
    {
      "type": "Feature",
      "geometry": {
        "type": "Point",
        "coordinates": [
          -0.8355,
          45.20303
        ]
      },
      "properties": {
        "id": "20450",
        "name": "Saint-Sauveur"
      }
    },
    {
      "type": "Feature",
      "geometry": {
        "type": "Point",
        "coordinates": [
          1.50658,
          45.9062
        ]
      },
      "properties": {
        "id": "20272",
        "name": "Le Châtenet-en-Dognon"
      }
    },
    {
      "type": "Feature",
      "geometry": {
        "type": "Point",
        "coordinates": [
          1.57047,
          45.83074
        ]
      },
      "properties": {
        "id": "20270",
        "name": "Champnétery"
      }
    },
    {
      "type": "Feature",
      "geometry": {
        "type": "Point",
        "coordinates": [
          1.73485,
          46.12132
        ]
      },
      "properties": {
        "id": "20268",
        "name": "Montaigut-le-Blanc (23)"
      }
    },
    {
      "type": "Feature",
      "geometry": {
        "type": "Point",
        "coordinates": [
          2.20863,
          45.99405
        ]
      },
      "properties": {
        "id": "20266",
        "name": "Saint-Maixant"
      }
    },
    {
      "type": "Feature",
      "geometry": {
        "type": "Point",
        "coordinates": [
          2.55076,
          46.17615
        ]
      },
      "properties": {
        "id": "20264",
        "name": "Chambonchard"
      }
    },
    {
      "type": "Feature",
      "geometry": {
        "type": "Point",
        "coordinates": [
          2.06442,
          45.84627
        ]
      },
      "properties": {
        "id": "20262",
        "name": "La Nouaille"
      }
    },
    {
      "type": "Feature",
      "geometry": {
        "type": "Point",
        "coordinates": [
          2.01993,
          45.88399
        ]
      },
      "properties": {
        "id": "20260",
        "name": "Saint-Yrieix-la-Montagne"
      }
    },
    {
      "type": "Feature",
      "geometry": {
        "type": "Point",
        "coordinates": [
          1.89534,
          46.21204
        ]
      },
      "properties": {
        "id": "20258",
        "name": "Saint-Fiel"
      }
    },
    {
      "type": "Feature",
      "geometry": {
        "type": "Point",
        "coordinates": [
          1.96368,
          46.16609
        ]
      },
      "properties": {
        "id": "20256",
        "name": "Saint-Laurent (23)"
      }
    },
    {
      "type": "Feature",
      "geometry": {
        "type": "Point",
        "coordinates": [
          1.92698,
          45.5981
        ]
      },
      "properties": {
        "id": "20254",
        "name": "Bugeat"
      }
    },
    {
      "type": "Feature",
      "geometry": {
        "type": "Point",
        "coordinates": [
          -0.11524,
          43.18447
        ]
      },
      "properties": {
        "id": "20252",
        "name": "Pontacq"
      }
    },
    {
      "type": "Feature",
      "geometry": {
        "type": "Point",
        "coordinates": [
          2.50017,
          46.10747
        ]
      },
      "properties": {
        "id": "20242",
        "name": "Fontanières"
      }
    },
    {
      "type": "Feature",
      "geometry": {
        "type": "Point",
        "coordinates": [
          0.65329,
          46.72798
        ]
      },
      "properties": {
        "id": "20114",
        "name": "Chenevelles"
      }
    },
    {
      "type": "Feature",
      "geometry": {
        "type": "Point",
        "coordinates": [
          0.74245,
          46.80709
        ]
      },
      "properties": {
        "id": "20110",
        "name": "Coussay-les-Bois"
      }
    },
    {
      "type": "Feature",
      "geometry": {
        "type": "Point",
        "coordinates": [
          0.74259,
          46.80806
        ]
      },
      "properties": {
        "id": "20108",
        "name": "Coussay-les-Bois"
      }
    },
    {
      "type": "Feature",
      "geometry": {
        "type": "Point",
        "coordinates": [
          0.76646,
          46.84959
        ]
      },
      "properties": {
        "id": "20106",
        "name": "Lésigny"
      }
    },
    {
      "type": "Feature",
      "geometry": {
        "type": "Point",
        "coordinates": [
          0.749597,
          46.858439
        ]
      },
      "properties": {
        "id": "20104",
        "name": "Mairé"
      }
    },
    {
      "type": "Feature",
      "geometry": {
        "type": "Point",
        "coordinates": [
          0.6927,
          46.97174
        ]
      },
      "properties": {
        "id": "20100",
        "name": "Buxeuil"
      }
    },
    {
      "type": "Feature",
      "geometry": {
        "type": "Point",
        "coordinates": [
          -1.07194,
          46.12777
        ]
      },
      "properties": {
        "id": "20094",
        "name": "La Jarne"
      }
    },
    {
      "type": "Feature",
      "geometry": {
        "type": "Point",
        "coordinates": [
          -1.05307,
          46.10482
        ]
      },
      "properties": {
        "id": "20092",
        "name": "Salles-sur-mer"
      }
    },
    {
      "type": "Feature",
      "geometry": {
        "type": "Point",
        "coordinates": [
          -1.16251,
          44.39469
        ]
      },
      "properties": {
        "id": "20073",
        "name": "Biscarrosse"
      }
    },
    {
      "type": "Feature",
      "geometry": {
        "type": "Point",
        "coordinates": [
          -1.25119,
          44.44456
        ]
      },
      "properties": {
        "id": "20071",
        "name": "Biscarrosse"
      }
    },
    {
      "type": "Feature",
      "geometry": {
        "type": "Point",
        "coordinates": [
          0.61372,
          46.77827
        ]
      },
      "properties": {
        "id": "20050",
        "name": "Senillé-Saint-Sauveur"
      }
    },
    {
      "type": "Feature",
      "geometry": {
        "type": "Point",
        "coordinates": [
          0.341157,
          46.587184
        ]
      },
      "properties": {
        "id": "20048",
        "name": "Poitiers"
      }
    },
    {
      "type": "Feature",
      "geometry": {
        "type": "Point",
        "coordinates": [
          0.21087,
          46.34062
        ]
      },
      "properties": {
        "id": "20045",
        "name": "Valence-en-Poitou"
      }
    },
    {
      "type": "Feature",
      "geometry": {
        "type": "Point",
        "coordinates": [
          0.05564,
          46.35702
        ]
      },
      "properties": {
        "id": "20043",
        "name": "Saint-Sauvant"
      }
    },
    {
      "type": "Feature",
      "geometry": {
        "type": "Point",
        "coordinates": [
          0.33282,
          46.58958
        ]
      },
      "properties": {
        "id": "20041",
        "name": "Poitiers"
      }
    },
    {
      "type": "Feature",
      "geometry": {
        "type": "Point",
        "coordinates": [
          0.22714,
          46.00012
        ]
      },
      "properties": {
        "id": "20038",
        "name": "Barro"
      }
    },
    {
      "type": "Feature",
      "geometry": {
        "type": "Point",
        "coordinates": [
          -0.39393,
          46.38101
        ]
      },
      "properties": {
        "id": "19894",
        "name": "Saint-Gelais"
      }
    },
    {
      "type": "Feature",
      "geometry": {
        "type": "Point",
        "coordinates": [
          -0.27897,
          45.03128
        ]
      },
      "properties": {
        "id": "19837",
        "name": "Saint-Ciers-d'Abzac"
      }
    },
    {
      "type": "Feature",
      "geometry": {
        "type": "Point",
        "coordinates": [
          -0.48825,
          44.75493
        ]
      },
      "properties": {
        "id": "19785",
        "name": "Quinsac"
      }
    },
    {
      "type": "Feature",
      "geometry": {
        "type": "Point",
        "coordinates": [
          -1.1205,
          46.13268
        ]
      },
      "properties": {
        "id": "19710",
        "name": "Aytré"
      }
    },
    {
      "type": "Feature",
      "geometry": {
        "type": "Point",
        "coordinates": [
          -1.10125,
          46.20529
        ]
      },
      "properties": {
        "id": "19708",
        "name": "Saint-Xandre"
      }
    },
    {
      "type": "Feature",
      "geometry": {
        "type": "Point",
        "coordinates": [
          -1.10266,
          46.20227
        ]
      },
      "properties": {
        "id": "19706",
        "name": "Saint-Xandre"
      }
    },
    {
      "type": "Feature",
      "geometry": {
        "type": "Point",
        "coordinates": [
          -1.03506,
          46.22479
        ]
      },
      "properties": {
        "id": "19704",
        "name": "Saint-Ouen-d'Aunis"
      }
    },
    {
      "type": "Feature",
      "geometry": {
        "type": "Point",
        "coordinates": [
          -0.9934,
          46.22602
        ]
      },
      "properties": {
        "id": "19702",
        "name": "Longèves"
      }
    },
    {
      "type": "Feature",
      "geometry": {
        "type": "Point",
        "coordinates": [
          -0.96456,
          46.19271
        ]
      },
      "properties": {
        "id": "19700",
        "name": "Vérines"
      }
    },
    {
      "type": "Feature",
      "geometry": {
        "type": "Point",
        "coordinates": [
          -0.96809,
          46.19401
        ]
      },
      "properties": {
        "id": "19698",
        "name": "Vérines"
      }
    },
    {
      "type": "Feature",
      "geometry": {
        "type": "Point",
        "coordinates": [
          -1.0133,
          46.15652
        ]
      },
      "properties": {
        "id": "19696",
        "name": "Montroy"
      }
    },
    {
      "type": "Feature",
      "geometry": {
        "type": "Point",
        "coordinates": [
          -1.02391,
          46.11749
        ]
      },
      "properties": {
        "id": "19694",
        "name": "La Jarrie"
      }
    },
    {
      "type": "Feature",
      "geometry": {
        "type": "Point",
        "coordinates": [
          -0.14803,
          44.69706
        ]
      },
      "properties": {
        "id": "19688",
        "name": "Saint-Brice"
      }
    },
    {
      "type": "Feature",
      "geometry": {
        "type": "Point",
        "coordinates": [
          -0.55649,
          44.82535
        ]
      },
      "properties": {
        "id": "19686",
        "name": "Bordeaux"
      }
    },
    {
      "type": "Feature",
      "geometry": {
        "type": "Point",
        "coordinates": [
          -0.55031,
          44.87003
        ]
      },
      "properties": {
        "id": "19683",
        "name": "Bordeaux"
      }
    },
    {
      "type": "Feature",
      "geometry": {
        "type": "Point",
        "coordinates": [
          -0.545202,
          44.821345
        ]
      },
      "properties": {
        "id": "19679",
        "name": "Bordeaux"
      }
    },
    {
      "type": "Feature",
      "geometry": {
        "type": "Point",
        "coordinates": [
          -0.5448,
          44.81656
        ]
      },
      "properties": {
        "id": "19677",
        "name": "Bègles"
      }
    },
    {
      "type": "Feature",
      "geometry": {
        "type": "Point",
        "coordinates": [
          -0.54067,
          44.80764
        ]
      },
      "properties": {
        "id": "19675",
        "name": "Bègles"
      }
    },
    {
      "type": "Feature",
      "geometry": {
        "type": "Point",
        "coordinates": [
          -0.55011,
          44.81467
        ]
      },
      "properties": {
        "id": "19673",
        "name": "Bègles"
      }
    },
    {
      "type": "Feature",
      "geometry": {
        "type": "Point",
        "coordinates": [
          0.14511,
          45.64876
        ]
      },
      "properties": {
        "id": "19671",
        "name": "Angoulême"
      }
    },
    {
      "type": "Feature",
      "geometry": {
        "type": "Point",
        "coordinates": [
          0.05232,
          45.86817
        ]
      },
      "properties": {
        "id": "19657",
        "name": "Ambérac"
      }
    },
    {
      "type": "Feature",
      "geometry": {
        "type": "Point",
        "coordinates": [
          0.60101,
          46.43714
        ]
      },
      "properties": {
        "id": "19645",
        "name": "Lhommaizé"
      }
    },
    {
      "type": "Feature",
      "geometry": {
        "type": "Point",
        "coordinates": [
          -0.9757,
          46.18442
        ]
      },
      "properties": {
        "id": "19636",
        "name": "Sainte-Soulle"
      }
    },
    {
      "type": "Feature",
      "geometry": {
        "type": "Point",
        "coordinates": [
          0.27595,
          46.57831
        ]
      },
      "properties": {
        "id": "19443",
        "name": "Vouneuil-sous-Biard"
      }
    },
    {
      "type": "Feature",
      "geometry": {
        "type": "Point",
        "coordinates": [
          0.272807,
          46.572955
        ]
      },
      "properties": {
        "id": "19441",
        "name": "Vouneuil-sous-Biard"
      }
    },
    {
      "type": "Feature",
      "geometry": {
        "type": "Point",
        "coordinates": [
          -0.51151,
          46.8427
        ]
      },
      "properties": {
        "id": "19439",
        "name": "Bressuire"
      }
    },
    {
      "type": "Feature",
      "geometry": {
        "type": "Point",
        "coordinates": [
          0.27194,
          46.60702
        ]
      },
      "properties": {
        "id": "19437",
        "name": "Vouneuil-sous-Biard"
      }
    },
    {
      "type": "Feature",
      "geometry": {
        "type": "Point",
        "coordinates": [
          0.27706,
          46.60578
        ]
      },
      "properties": {
        "id": "19432",
        "name": "Vouneuil-sous-Biard"
      }
    },
    {
      "type": "Feature",
      "geometry": {
        "type": "Point",
        "coordinates": [
          0.02784,
          45.8941
        ]
      },
      "properties": {
        "id": "19413",
        "name": "Aigre"
      }
    },
    {
      "type": "Feature",
      "geometry": {
        "type": "Point",
        "coordinates": [
          1.14321,
          45.01866
        ]
      },
      "properties": {
        "id": "19354",
        "name": "Valojoulx"
      }
    },
    {
      "type": "Feature",
      "geometry": {
        "type": "Point",
        "coordinates": [
          0.05712,
          46.72306
        ]
      },
      "properties": {
        "id": "19339",
        "name": "Maisonneuve"
      }
    },
    {
      "type": "Feature",
      "geometry": {
        "type": "Point",
        "coordinates": [
          -0.02555,
          46.71931
        ]
      },
      "properties": {
        "id": "19337",
        "name": "Thénezay"
      }
    },
    {
      "type": "Feature",
      "geometry": {
        "type": "Point",
        "coordinates": [
          -0.11921,
          46.70442
        ]
      },
      "properties": {
        "id": "19335",
        "name": "Lhoumois"
      }
    },
    {
      "type": "Feature",
      "geometry": {
        "type": "Point",
        "coordinates": [
          -0.14809,
          46.67468
        ]
      },
      "properties": {
        "id": "19332",
        "name": "La Peyratte"
      }
    },
    {
      "type": "Feature",
      "geometry": {
        "type": "Point",
        "coordinates": [
          0.38197,
          46.5705
        ]
      },
      "properties": {
        "id": "19327",
        "name": "Poitiers"
      }
    },
    {
      "type": "Feature",
      "geometry": {
        "type": "Point",
        "coordinates": [
          -1.00818,
          46.12652
        ]
      },
      "properties": {
        "id": "19301",
        "name": "La Jarrie"
      }
    },
    {
      "type": "Feature",
      "geometry": {
        "type": "Point",
        "coordinates": [
          -0.74939,
          46.92375
        ]
      },
      "properties": {
        "id": "19291",
        "name": "Mauléon"
      }
    },
    {
      "type": "Feature",
      "geometry": {
        "type": "Point",
        "coordinates": [
          0.20075,
          45.8947
        ]
      },
      "properties": {
        "id": "19289",
        "name": "Fontclaireau"
      }
    },
    {
      "type": "Feature",
      "geometry": {
        "type": "Point",
        "coordinates": [
          0.14585,
          46.02051
        ]
      },
      "properties": {
        "id": "19287",
        "name": "La Faye"
      }
    },
    {
      "type": "Feature",
      "geometry": {
        "type": "Point",
        "coordinates": [
          0.110161,
          45.921528
        ]
      },
      "properties": {
        "id": "19285",
        "name": "Ligné"
      }
    },
    {
      "type": "Feature",
      "geometry": {
        "type": "Point",
        "coordinates": [
          0.14316,
          45.93004
        ]
      },
      "properties": {
        "id": "19283",
        "name": "Juillé"
      }
    },
    {
      "type": "Feature",
      "geometry": {
        "type": "Point",
        "coordinates": [
          0.14775,
          45.93387
        ]
      },
      "properties": {
        "id": "19281",
        "name": "Juillé"
      }
    },
    {
      "type": "Feature",
      "geometry": {
        "type": "Point",
        "coordinates": [
          0.16569,
          45.91769
        ]
      },
      "properties": {
        "id": "19279",
        "name": "Fontenille"
      }
    },
    {
      "type": "Feature",
      "geometry": {
        "type": "Point",
        "coordinates": [
          0.29373,
          45.85205
        ]
      },
      "properties": {
        "id": "19276",
        "name": "Saint-Amant-de-Bonnieure"
      }
    },
    {
      "type": "Feature",
      "geometry": {
        "type": "Point",
        "coordinates": [
          -0.02228,
          46.35536
        ]
      },
      "properties": {
        "id": "19272",
        "name": "Exoudun"
      }
    },
    {
      "type": "Feature",
      "geometry": {
        "type": "Point",
        "coordinates": [
          1.0594,
          44.99383
        ]
      },
      "properties": {
        "id": "19258",
        "name": "Peyzac-le-Moustier"
      }
    },
    {
      "type": "Feature",
      "geometry": {
        "type": "Point",
        "coordinates": [
          -1.65926,
          43.38716
        ]
      },
      "properties": {
        "id": "19250",
        "name": "Saint-Jean-de-Luz"
      }
    },
    {
      "type": "Feature",
      "geometry": {
        "type": "Point",
        "coordinates": [
          -1.05181,
          43.72284
        ]
      },
      "properties": {
        "id": "19248",
        "name": "Saint-Paul-lès-Dax"
      }
    },
    {
      "type": "Feature",
      "geometry": {
        "type": "Point",
        "coordinates": [
          1.27555,
          44.84084
        ]
      },
      "properties": {
        "id": "19239",
        "name": "Carsac-Aillac"
      }
    },
    {
      "type": "Feature",
      "geometry": {
        "type": "Point",
        "coordinates": [
          1.29026,
          44.82069
        ]
      },
      "properties": {
        "id": "19237",
        "name": "Groléjac"
      }
    },
    {
      "type": "Feature",
      "geometry": {
        "type": "Point",
        "coordinates": [
          -0.113393,
          46.360525
        ]
      },
      "properties": {
        "id": "19229",
        "name": "La Mothe-Saint-Héray"
      }
    },
    {
      "type": "Feature",
      "geometry": {
        "type": "Point",
        "coordinates": [
          -0.24954,
          46.77771
        ]
      },
      "properties": {
        "id": "19227",
        "name": "Maisontiers"
      }
    },
    {
      "type": "Feature",
      "geometry": {
        "type": "Point",
        "coordinates": [
          0.97462,
          45.05027
        ]
      },
      "properties": {
        "id": "19218",
        "name": "Rouffignac-Saint-Cernin-de-Reilhac"
      }
    },
    {
      "type": "Feature",
      "geometry": {
        "type": "Point",
        "coordinates": [
          -0.4354,
          46.01275
        ]
      },
      "properties": {
        "id": "19213",
        "name": "Nuaillé-sur-Boutonne"
      }
    },
    {
      "type": "Feature",
      "geometry": {
        "type": "Point",
        "coordinates": [
          0.28818,
          45.8937
        ]
      },
      "properties": {
        "id": "19201",
        "name": "Saint-Front"
      }
    },
    {
      "type": "Feature",
      "geometry": {
        "type": "Point",
        "coordinates": [
          0.30831,
          45.88714
        ]
      },
      "properties": {
        "id": "19199",
        "name": "Valence"
      }
    },
    {
      "type": "Feature",
      "geometry": {
        "type": "Point",
        "coordinates": [
          0.317804,
          45.833845
        ]
      },
      "properties": {
        "id": "19197",
        "name": "Sainte-Colombe"
      }
    },
    {
      "type": "Feature",
      "geometry": {
        "type": "Point",
        "coordinates": [
          0.220577,
          45.843222
        ]
      },
      "properties": {
        "id": "19195",
        "name": "Nanclars"
      }
    },
    {
      "type": "Feature",
      "geometry": {
        "type": "Point",
        "coordinates": [
          0.17644,
          45.85008
        ]
      },
      "properties": {
        "id": "19193",
        "name": "Maine-de-Boixe"
      }
    },
    {
      "type": "Feature",
      "geometry": {
        "type": "Point",
        "coordinates": [
          0.35894,
          46.58898
        ]
      },
      "properties": {
        "id": "19145",
        "name": "Poitiers"
      }
    },
    {
      "type": "Feature",
      "geometry": {
        "type": "Point",
        "coordinates": [
          0.17959,
          45.876796
        ]
      },
      "properties": {
        "id": "19101",
        "name": "Mansle-les-Fontaines"
      }
    },
    {
      "type": "Feature",
      "geometry": {
        "type": "Point",
        "coordinates": [
          0.222626,
          45.827981
        ]
      },
      "properties": {
        "id": "19099",
        "name": "Aussac-Vadalle"
      }
    },
    {
      "type": "Feature",
      "geometry": {
        "type": "Point",
        "coordinates": [
          0.287852,
          45.847052
        ]
      },
      "properties": {
        "id": "19097",
        "name": "Saint-Angeau"
      }
    },
    {
      "type": "Feature",
      "geometry": {
        "type": "Point",
        "coordinates": [
          0.24224,
          45.89138
        ]
      },
      "properties": {
        "id": "19094",
        "name": "Mouton"
      }
    },
    {
      "type": "Feature",
      "geometry": {
        "type": "Point",
        "coordinates": [
          0.171661,
          46.130257
        ]
      },
      "properties": {
        "id": "19092",
        "name": "Limalonges"
      }
    },
    {
      "type": "Feature",
      "geometry": {
        "type": "Point",
        "coordinates": [
          0.113921,
          46.133664
        ]
      },
      "properties": {
        "id": "19090",
        "name": "Sauzé-Vaussais"
      }
    },
    {
      "type": "Feature",
      "geometry": {
        "type": "Point",
        "coordinates": [
          0.106811,
          46.132977
        ]
      },
      "properties": {
        "id": "19088",
        "name": "Sauzé-Vaussais"
      }
    },
    {
      "type": "Feature",
      "geometry": {
        "type": "Point",
        "coordinates": [
          0.062648,
          46.134759
        ]
      },
      "properties": {
        "id": "19086",
        "name": "La Chapelle-Pouilloux"
      }
    },
    {
      "type": "Feature",
      "geometry": {
        "type": "Point",
        "coordinates": [
          0.00387,
          46.13129
        ]
      },
      "properties": {
        "id": "19084",
        "name": "Melleran"
      }
    },
    {
      "type": "Feature",
      "geometry": {
        "type": "Point",
        "coordinates": [
          -0.00073,
          46.12912
        ]
      },
      "properties": {
        "id": "19082",
        "name": "Melleran"
      }
    },
    {
      "type": "Feature",
      "geometry": {
        "type": "Point",
        "coordinates": [
          -0.16169,
          46.22315
        ]
      },
      "properties": {
        "id": "19078",
        "name": "Melle"
      }
    },
    {
      "type": "Feature",
      "geometry": {
        "type": "Point",
        "coordinates": [
          -0.156311,
          46.223853
        ]
      },
      "properties": {
        "id": "19076",
        "name": "Melle"
      }
    },
    {
      "type": "Feature",
      "geometry": {
        "type": "Point",
        "coordinates": [
          -0.14239,
          46.22622
        ]
      },
      "properties": {
        "id": "19074",
        "name": "Melle"
      }
    },
    {
      "type": "Feature",
      "geometry": {
        "type": "Point",
        "coordinates": [
          -0.073801,
          46.110069
        ]
      },
      "properties": {
        "id": "19073",
        "name": "Chef-Boutonne"
      }
    },
    {
      "type": "Feature",
      "geometry": {
        "type": "Point",
        "coordinates": [
          -0.14311,
          46.22241
        ]
      },
      "properties": {
        "id": "19071",
        "name": "Melle"
      }
    },
    {
      "type": "Feature",
      "geometry": {
        "type": "Point",
        "coordinates": [
          -0.15701,
          46.31817
        ]
      },
      "properties": {
        "id": "19069",
        "name": "Prailles-La Couarde"
      }
    },
    {
      "type": "Feature",
      "geometry": {
        "type": "Point",
        "coordinates": [
          -0.45416,
          46.32857
        ]
      },
      "properties": {
        "id": "19067",
        "name": "Niort"
      }
    },
    {
      "type": "Feature",
      "geometry": {
        "type": "Point",
        "coordinates": [
          -0.4527,
          46.35601
        ]
      },
      "properties": {
        "id": "19064",
        "name": "Niort"
      }
    },
    {
      "type": "Feature",
      "geometry": {
        "type": "Point",
        "coordinates": [
          -0.53416,
          46.4074
        ]
      },
      "properties": {
        "id": "19062",
        "name": "Villiers-en-Plaine"
      }
    },
    {
      "type": "Feature",
      "geometry": {
        "type": "Point",
        "coordinates": [
          0.09204,
          46.84053
        ]
      },
      "properties": {
        "id": "19053",
        "name": "Saint-Jean-de-Sauves"
      }
    },
    {
      "type": "Feature",
      "geometry": {
        "type": "Point",
        "coordinates": [
          0.18004,
          46.78115
        ]
      },
      "properties": {
        "id": "19051",
        "name": "Mirebeau"
      }
    },
    {
      "type": "Feature",
      "geometry": {
        "type": "Point",
        "coordinates": [
          -0.570342,
          44.864518
        ]
      },
      "properties": {
        "id": "19047",
        "name": "Bordeaux"
      }
    },
    {
      "type": "Feature",
      "geometry": {
        "type": "Point",
        "coordinates": [
          -0.56154,
          44.85952
        ]
      },
      "properties": {
        "id": "19045",
        "name": "Bordeaux"
      }
    },
    {
      "type": "Feature",
      "geometry": {
        "type": "Point",
        "coordinates": [
          -0.57356,
          44.84429
        ]
      },
      "properties": {
        "id": "19043",
        "name": "Bordeaux"
      }
    },
    {
      "type": "Feature",
      "geometry": {
        "type": "Point",
        "coordinates": [
          -0.57088,
          44.85561
        ]
      },
      "properties": {
        "id": "19041",
        "name": "Bordeaux"
      }
    },
    {
      "type": "Feature",
      "geometry": {
        "type": "Point",
        "coordinates": [
          -0.56888,
          44.8343
        ]
      },
      "properties": {
        "id": "19039",
        "name": "Bordeaux"
      }
    },
    {
      "type": "Feature",
      "geometry": {
        "type": "Point",
        "coordinates": [
          -0.57026,
          44.82683
        ]
      },
      "properties": {
        "id": "19037",
        "name": "Bordeaux"
      }
    },
    {
      "type": "Feature",
      "geometry": {
        "type": "Point",
        "coordinates": [
          -0.56761,
          44.82265
        ]
      },
      "properties": {
        "id": "19035",
        "name": "Bordeaux"
      }
    },
    {
      "type": "Feature",
      "geometry": {
        "type": "Point",
        "coordinates": [
          -0.56463,
          44.82001
        ]
      },
      "properties": {
        "id": "19033",
        "name": "Bordeaux"
      }
    },
    {
      "type": "Feature",
      "geometry": {
        "type": "Point",
        "coordinates": [
          -0.566322,
          44.812897
        ]
      },
      "properties": {
        "id": "19031",
        "name": "Bordeaux"
      }
    },
    {
      "type": "Feature",
      "geometry": {
        "type": "Point",
        "coordinates": [
          -0.63293,
          44.80526
        ]
      },
      "properties": {
        "id": "19029",
        "name": "Pessac"
      }
    },
    {
      "type": "Feature",
      "geometry": {
        "type": "Point",
        "coordinates": [
          -0.56778,
          44.81405
        ]
      },
      "properties": {
        "id": "19027",
        "name": "Bordeaux"
      }
    },
    {
      "type": "Feature",
      "geometry": {
        "type": "Point",
        "coordinates": [
          0.32022,
          46.57888
        ]
      },
      "properties": {
        "id": "19021",
        "name": "Poitiers"
      }
    },
    {
      "type": "Feature",
      "geometry": {
        "type": "Point",
        "coordinates": [
          0.07723,
          44.74267
        ]
      },
      "properties": {
        "id": "18929",
        "name": "Pellegrue"
      }
    },
    {
      "type": "Feature",
      "geometry": {
        "type": "Point",
        "coordinates": [
          1.08052,
          46.21409
        ]
      },
      "properties": {
        "id": "18913",
        "name": "Le Dorat"
      }
    },
    {
      "type": "Feature",
      "geometry": {
        "type": "Point",
        "coordinates": [
          -0.089551,
          44.583997
        ]
      },
      "properties": {
        "id": "18911",
        "name": "Gironde-sur-Dropt"
      }
    },
    {
      "type": "Feature",
      "geometry": {
        "type": "Point",
        "coordinates": [
          0.17662,
          44.50075
        ]
      },
      "properties": {
        "id": "18909",
        "name": "Marmande"
      }
    },
    {
      "type": "Feature",
      "geometry": {
        "type": "Point",
        "coordinates": [
          -0.55624,
          44.8262
        ]
      },
      "properties": {
        "id": "18901",
        "name": "Bordeaux"
      }
    },