<?xml version='1.0' encoding='UTF-8' standalone='yes' ?>
<gpx version="1.1" creator="Binnette" xmlns="http://www.topografix.com/GPX/1/1" xmlns:osmand="https://osmand.net" xmlns:xsi="http://www.w3.org/2001/XMLSchema-instance" xsi:schemaLocation="http://www.topografix.com/GPX/1/1 http://www.topografix.com/GPX/1/1/gpx.xsd">
  <wpt lat="43.886266" lon="-1.319207">
    <name>Léon z25520</name>
    <type>ZoneLivre Nouvelle-Aquitaine</type>
    <extensions>
      <osmand:color>#10c0f0</osmand:color>
      <osmand:background>square</osmand:background>
      <osmand:icon>public_bookcase</osmand:icon>
    </extensions>
  </wpt>
  <wpt lat="46.264611" lon="-0.492842">
    <name>Saint-Symphorien z25515</name>
    <type>ZoneLivre Nouvelle-Aquitaine</type>
    <extensions>
      <osmand:color>#10c0f0</osmand:color>
      <osmand:background>square</osmand:background>
      <osmand:icon>public_bookcase</osmand:icon>
    </extensions>
  </wpt>
  <wpt lat="44.179234" lon="0.297175">
    <name>Lavardac z25490</name>
    <type>ZoneLivre Nouvelle-Aquitaine</type>
    <extensions>
      <osmand:color>#10c0f0</osmand:color>
      <osmand:background>square</osmand:background>
      <osmand:icon>public_bookcase</osmand:icon>
    </extensions>
  </wpt>
  <wpt lat="44.85713" lon="0.4893">
    <name>Bergerac z25463</name>
    <type>ZoneLivre Nouvelle-Aquitaine</type>
    <extensions>
      <osmand:color>#10c0f0</osmand:color>
      <osmand:background>square</osmand:background>
      <osmand:icon>public_bookcase</osmand:icon>
    </extensions>
  </wpt>
  <wpt lat="44.919444" lon="-0.237762">
    <name>Libourne z25446</name>
    <type>ZoneLivre Nouvelle-Aquitaine</type>
    <extensions>
      <osmand:color>#10c0f0</osmand:color>
      <osmand:background>square</osmand:background>
      <osmand:icon>public_bookcase</osmand:icon>
    </extensions>
  </wpt>
  <wpt lat="45.015664" lon="-0.128228">
    <name>Abzac z25444</name>
    <type>ZoneLivre Nouvelle-Aquitaine</type>
    <extensions>
      <osmand:color>#10c0f0</osmand:color>
      <osmand:background>square</osmand:background>
      <osmand:icon>public_bookcase</osmand:icon>
    </extensions>
  </wpt>
  <wpt lat="45.081483" lon="-0.164999">
    <name>Lagorce z25442</name>
    <type>ZoneLivre Nouvelle-Aquitaine</type>
    <extensions>
      <osmand:color>#10c0f0</osmand:color>
      <osmand:background>square</osmand:background>
      <osmand:icon>public_bookcase</osmand:icon>
    </extensions>
  </wpt>
  <wpt lat="45.035348" lon="-0.227339">
    <name>Saint-Martin-de-Laye z25439</name>
    <type>ZoneLivre Nouvelle-Aquitaine</type>
    <extensions>
      <osmand:color>#10c0f0</osmand:color>
      <osmand:background>square</osmand:background>
      <osmand:icon>public_bookcase</osmand:icon>
    </extensions>
  </wpt>
  <wpt lat="45.098211" lon="-0.040035">
    <name>Les Églisottes-et-Chalaures z25437</name>
    <type>ZoneLivre Nouvelle-Aquitaine</type>
    <extensions>
      <osmand:color>#10c0f0</osmand:color>
      <osmand:background>square</osmand:background>
      <osmand:icon>public_bookcase</osmand:icon>
    </extensions>
  </wpt>
  <wpt lat="46.204922" lon="-1.369509">
    <name>Saint-Martin-de-Ré z25296</name>
    <type>ZoneLivre Nouvelle-Aquitaine</type>
    <extensions>
      <osmand:color>#10c0f0</osmand:color>
      <osmand:background>square</osmand:background>
      <osmand:icon>public_bookcase</osmand:icon>
    </extensions>
  </wpt>
  <wpt lat="46.388147" lon="1.622044">
    <name>Crozant z25294</name>
    <type>ZoneLivre Nouvelle-Aquitaine</type>
    <extensions>
      <osmand:color>#10c0f0</osmand:color>
      <osmand:background>square</osmand:background>
      <osmand:icon>public_bookcase</osmand:icon>
    </extensions>
  </wpt>
  <wpt lat="46.121875" lon="0.655154">
    <name>z25267</name>
    <type>ZoneLivre Nouvelle-Aquitaine</type>
    <extensions>
      <osmand:color>#10c0f0</osmand:color>
      <osmand:background>square</osmand:background>
      <osmand:icon>public_bookcase</osmand:icon>
    </extensions>
  </wpt>
  <wpt lat="46.122098" lon="0.653335">
    <name>Availles-Limouzine z25265</name>
    <type>ZoneLivre Nouvelle-Aquitaine</type>
    <extensions>
      <osmand:color>#10c0f0</osmand:color>
      <osmand:background>square</osmand:background>
      <osmand:icon>public_bookcase</osmand:icon>
    </extensions>
  </wpt>
  <wpt lat="46.143193" lon="0.40544">
    <name>Charroux z25263</name>
    <type>ZoneLivre Nouvelle-Aquitaine</type>
    <extensions>
      <osmand:color>#10c0f0</osmand:color>
      <osmand:background>square</osmand:background>
      <osmand:icon>public_bookcase</osmand:icon>
    </extensions>
  </wpt>
  <wpt lat="46.217221" lon="0.336408">
    <name>Champniers z25261</name>
    <type>ZoneLivre Nouvelle-Aquitaine</type>
    <extensions>
      <osmand:color>#10c0f0</osmand:color>
      <osmand:background>square</osmand:background>
      <osmand:icon>public_bookcase</osmand:icon>
    </extensions>
  </wpt>
  <wpt lat="45.161615" lon="1.537893">
    <name>Brive-la-Gaillarde z25258</name>
    <type>ZoneLivre Nouvelle-Aquitaine</type>
    <extensions>
      <osmand:color>#10c0f0</osmand:color>
      <osmand:background>square</osmand:background>
      <osmand:icon>public_bookcase</osmand:icon>
    </extensions>
  </wpt>
  <wpt lat="45.162031" lon="1.559506">
    <name>Malemort-sur-Corrèze z25245</name>
    <type>ZoneLivre Nouvelle-Aquitaine</type>
    <extensions>
      <osmand:color>#10c0f0</osmand:color>
      <osmand:background>square</osmand:background>
      <osmand:icon>public_bookcase</osmand:icon>
    </extensions>
  </wpt>
  <wpt lat="45.155273" lon="1.527872">
    <name>Brive-la-Gaillarde z25238</name>
    <type>ZoneLivre Nouvelle-Aquitaine</type>
    <extensions>
      <osmand:color>#10c0f0</osmand:color>
      <osmand:background>square</osmand:background>
      <osmand:icon>public_bookcase</osmand:icon>
    </extensions>
  </wpt>
  <wpt lat="45.168722" lon="1.53296">
    <name>Brive-la-Gaillarde z25231</name>
    <type>ZoneLivre Nouvelle-Aquitaine</type>
    <extensions>
      <osmand:color>#10c0f0</osmand:color>
      <osmand:background>square</osmand:background>
      <osmand:icon>public_bookcase</osmand:icon>
    </extensions>
  </wpt>
  <wpt lat="46.395865" lon="0.341343">
    <name>Marnay z25223</name>
    <type>ZoneLivre Nouvelle-Aquitaine</type>
    <extensions>
      <osmand:color>#10c0f0</osmand:color>
      <osmand:background>square</osmand:background>
      <osmand:icon>public_bookcase</osmand:icon>
    </extensions>
  </wpt>
  <wpt lat="46.41598" lon="0.311606">
    <name>Château-Larcher z25221</name>
    <type>ZoneLivre Nouvelle-Aquitaine</type>
    <extensions>
      <osmand:color>#10c0f0</osmand:color>
      <osmand:background>square</osmand:background>
      <osmand:icon>public_bookcase</osmand:icon>
    </extensions>
  </wpt>
  <wpt lat="46.160174" lon="2.074058">
    <name>Vigeville z25123</name>
    <type>ZoneLivre Nouvelle-Aquitaine</type>
    <extensions>
      <osmand:color>#10c0f0</osmand:color>
      <osmand:background>square</osmand:background>
      <osmand:icon>public_bookcase</osmand:icon>
    </extensions>
  </wpt>
  <wpt lat="46.299883" lon="1.475947">
    <name>Vareilles z25116</name>
    <type>ZoneLivre Nouvelle-Aquitaine</type>
    <extensions>
      <osmand:color>#10c0f0</osmand:color>
      <osmand:background>square</osmand:background>
      <osmand:icon>public_bookcase</osmand:icon>
    </extensions>
  </wpt>
  <wpt lat="46.37775" lon="0.875009">
    <name>Saulgé z24597</name>
    <type>ZoneLivre Nouvelle-Aquitaine</type>
    <extensions>
      <osmand:color>#10c0f0</osmand:color>
      <osmand:background>square</osmand:background>
      <osmand:icon>public_bookcase</osmand:icon>
    </extensions>
  </wpt>
  <wpt lat="45.797283" lon="1.14169">
    <name>Aixe-sur-Vienne z24588</name>
    <type>ZoneLivre Nouvelle-Aquitaine</type>
    <extensions>
      <osmand:color>#10c0f0</osmand:color>
      <osmand:background>square</osmand:background>
      <osmand:icon>public_bookcase</osmand:icon>
    </extensions>
  </wpt>
  <wpt lat="47.067608" lon="-0.376354">
    <name>Saint-Pierre-à-Champs z24519</name>
    <type>ZoneLivre Nouvelle-Aquitaine</type>
    <extensions>
      <osmand:color>#10c0f0</osmand:color>
      <osmand:background>square</osmand:background>
      <osmand:icon>public_bookcase</osmand:icon>
    </extensions>
  </wpt>
  <wpt lat="44.909172" lon="-0.429915">
    <name>Saint-Loubès z24453</name>
    <type>ZoneLivre Nouvelle-Aquitaine</type>
    <extensions>
      <osmand:color>#10c0f0</osmand:color>
      <osmand:background>square</osmand:background>
      <osmand:icon>public_bookcase</osmand:icon>
    </extensions>
  </wpt>
  <wpt lat="45.808581" lon="0.221017">
    <name>Aussac-Vadalle z24442</name>
    <type>ZoneLivre Nouvelle-Aquitaine</type>
    <extensions>
      <osmand:color>#10c0f0</osmand:color>
      <osmand:background>square</osmand:background>
      <osmand:icon>public_bookcase</osmand:icon>
    </extensions>
  </wpt>
  <wpt lat="46.549109" lon="0.324016">
    <name>Saint-Benoît z24426</name>
    <type>ZoneLivre Nouvelle-Aquitaine</type>
    <extensions>
      <osmand:color>#10c0f0</osmand:color>
      <osmand:background>square</osmand:background>
      <osmand:icon>public_bookcase</osmand:icon>
    </extensions>
  </wpt>
  <wpt lat="43.358954" lon="-1.771591">
    <name>Hendaye z24391</name>
    <type>ZoneLivre Nouvelle-Aquitaine</type>
    <extensions>
      <osmand:color>#10c0f0</osmand:color>
      <osmand:background>square</osmand:background>
      <osmand:icon>public_bookcase</osmand:icon>
    </extensions>
  </wpt>
  <wpt lat="45.794055" lon="0.350296">
    <name>Agris z24337</name>
    <type>ZoneLivre Nouvelle-Aquitaine</type>
    <extensions>
      <osmand:color>#10c0f0</osmand:color>
      <osmand:background>square</osmand:background>
      <osmand:icon>public_bookcase</osmand:icon>
    </extensions>
  </wpt>
  <wpt lat="45.786133" lon="0.339208">
    <name>Agris z24334</name>
    <type>ZoneLivre Nouvelle-Aquitaine</type>
    <extensions>
      <osmand:color>#10c0f0</osmand:color>
      <osmand:background>square</osmand:background>
      <osmand:icon>public_bookcase</osmand:icon>
    </extensions>
  </wpt>
  <wpt lat="45.793595" lon="0.326221">
    <name>La Rochette z24331</name>
    <type>ZoneLivre Nouvelle-Aquitaine</type>
    <extensions>
      <osmand:color>#10c0f0</osmand:color>
      <osmand:background>square</osmand:background>
      <osmand:icon>public_bookcase</osmand:icon>
    </extensions>
  </wpt>
  <wpt lat="45.861312" lon="0.211457">
    <name>Puyréaux z24328</name>
    <type>ZoneLivre Nouvelle-Aquitaine</type>
    <extensions>
      <osmand:color>#10c0f0</osmand:color>
      <osmand:background>square</osmand:background>
      <osmand:icon>public_bookcase</osmand:icon>
    </extensions>
  </wpt>
  <wpt lat="46.587021" lon="0.387805">
    <name>Poitiers z24232</name>
    <type>ZoneLivre Nouvelle-Aquitaine</type>
    <extensions>
      <osmand:color>#10c0f0</osmand:color>
      <osmand:background>square</osmand:background>
      <osmand:icon>public_bookcase</osmand:icon>
    </extensions>
  </wpt>
  <wpt lat="46.558606" lon="0.506117">
    <name>Saint-Julien-l'Ars z24165</name>
    <type>ZoneLivre Nouvelle-Aquitaine</type>
    <extensions>
      <osmand:color>#10c0f0</osmand:color>
      <osmand:background>square</osmand:background>
      <osmand:icon>public_bookcase</osmand:icon>
    </extensions>
  </wpt>
  <wpt lat="46.566763" lon="0.38612">
    <name>Poitiers z24163</name>
    <type>ZoneLivre Nouvelle-Aquitaine</type>
    <extensions>
      <osmand:color>#10c0f0</osmand:color>
      <osmand:background>square</osmand:background>
      <osmand:icon>public_bookcase</osmand:icon>
    </extensions>
  </wpt>
  <wpt lat="46.578701" lon="0.305648">
    <name>Biard z24161</name>
    <type>ZoneLivre Nouvelle-Aquitaine</type>
    <extensions>
      <osmand:color>#10c0f0</osmand:color>
      <osmand:background>square</osmand:background>
      <osmand:icon>public_bookcase</osmand:icon>
    </extensions>
  </wpt>
  <wpt lat="45.848364" lon="0.28377">
    <name>Val-de-Bonnieure z24159</name>
    <type>ZoneLivre Nouvelle-Aquitaine</type>
    <extensions>
      <osmand:color>#10c0f0</osmand:color>
      <osmand:background>square</osmand:background>
      <osmand:icon>public_bookcase</osmand:icon>
    </extensions>
  </wpt>
  <wpt lat="45.859403" lon="0.243445">
    <name>Saint-Ciers-sur-Bonnieure z24119</name>
    <type>ZoneLivre Nouvelle-Aquitaine</type>
    <extensions>
      <osmand:color>#10c0f0</osmand:color>
      <osmand:background>square</osmand:background>
      <osmand:icon>public_bookcase</osmand:icon>
    </extensions>
  </wpt>
  <wpt lat="45.924101" lon="0.177313">
    <name>Fontenille z24117</name>
    <type>ZoneLivre Nouvelle-Aquitaine</type>
    <extensions>
      <osmand:color>#10c0f0</osmand:color>
      <osmand:background>square</osmand:background>
      <osmand:icon>public_bookcase</osmand:icon>
    </extensions>
  </wpt>
  <wpt lat="45.920296" lon="0.136779">
    <name>Juillé z24114</name>
    <type>ZoneLivre Nouvelle-Aquitaine</type>
    <extensions>
      <osmand:color>#10c0f0</osmand:color>
      <osmand:background>square</osmand:background>
      <osmand:icon>public_bookcase</osmand:icon>
    </extensions>
  </wpt>
  <wpt lat="45.935636" lon="0.067163">
    <name>Tusson z24112</name>
    <type>ZoneLivre Nouvelle-Aquitaine</type>
    <extensions>
      <osmand:color>#10c0f0</osmand:color>
      <osmand:background>square</osmand:background>
      <osmand:icon>public_bookcase</osmand:icon>
    </extensions>
  </wpt>
  <wpt lat="46.328017" lon="1.904401">
    <name>Bonnat z24028</name>
    <type>ZoneLivre Nouvelle-Aquitaine</type>
    <extensions>
      <osmand:color>#10c0f0</osmand:color>
      <osmand:background>square</osmand:background>
      <osmand:icon>public_bookcase</osmand:icon>
    </extensions>
  </wpt>
  <wpt lat="46.170314" lon="2.024495">
    <name>Pionnat z23999</name>
    <type>ZoneLivre Nouvelle-Aquitaine</type>
    <extensions>
      <osmand:color>#10c0f0</osmand:color>
      <osmand:background>square</osmand:background>
      <osmand:icon>public_bookcase</osmand:icon>
    </extensions>
  </wpt>
  <wpt lat="46.183017" lon="1.848074">
    <name>Saint-Sulpice-le-Guérétois z23994</name>
    <type>ZoneLivre Nouvelle-Aquitaine</type>
    <extensions>
      <osmand:color>#10c0f0</osmand:color>
      <osmand:background>square</osmand:background>
      <osmand:icon>public_bookcase</osmand:icon>
    </extensions>
  </wpt>
  <wpt lat="46.547541" lon="0.31752">
    <name>Saint Benoît z23958</name>
    <type>ZoneLivre Nouvelle-Aquitaine</type>
    <extensions>
      <osmand:color>#10c0f0</osmand:color>
      <osmand:background>square</osmand:background>
      <osmand:icon>public_bookcase</osmand:icon>
    </extensions>
  </wpt>
  <wpt lat="46.593648" lon="0.322922">
    <name>Poitiers z23951</name>
    <type>ZoneLivre Nouvelle-Aquitaine</type>
    <extensions>
      <osmand:color>#10c0f0</osmand:color>
      <osmand:background>square</osmand:background>
      <osmand:icon>public_bookcase</osmand:icon>
    </extensions>
  </wpt>
  <wpt lat="44.38457" lon="0.810116">
    <name>Penne-d'Agenais z23918</name>
    <type>ZoneLivre Nouvelle-Aquitaine</type>
    <extensions>
      <osmand:color>#10c0f0</osmand:color>
      <osmand:background>square</osmand:background>
      <osmand:icon>public_bookcase</osmand:icon>
    </extensions>
  </wpt>
  <wpt lat="46.978891" lon="0.217688">
    <name>Maulay z23916</name>
    <type>ZoneLivre Nouvelle-Aquitaine</type>
    <extensions>
      <osmand:color>#10c0f0</osmand:color>
      <osmand:background>square</osmand:background>
      <osmand:icon>public_bookcase</osmand:icon>
    </extensions>
  </wpt>
  <wpt lat="44.846346" lon="-0.639486">
    <name>Mérignac z23910</name>
    <type>ZoneLivre Nouvelle-Aquitaine</type>
    <extensions>
      <osmand:color>#10c0f0</osmand:color>
      <osmand:background>square</osmand:background>
      <osmand:icon>public_bookcase</osmand:icon>
    </extensions>
  </wpt>
  <wpt lat="45.718559" lon="-0.628731">
    <name>Les Gonds z23899</name>
    <type>ZoneLivre Nouvelle-Aquitaine</type>
    <extensions>
      <osmand:color>#10c0f0</osmand:color>
      <osmand:background>square</osmand:background>
      <osmand:icon>public_bookcase</osmand:icon>
    </extensions>
  </wpt>
  <wpt lat="45.96162" lon="-0.985014">
    <name>Vergeroux z23896</name>
    <type>ZoneLivre Nouvelle-Aquitaine</type>
    <extensions>
      <osmand:color>#10c0f0</osmand:color>
      <osmand:background>square</osmand:background>
      <osmand:icon>public_bookcase</osmand:icon>
    </extensions>
  </wpt>
  <wpt lat="47.136158" lon="-0.000684">
    <name>Saix z23852</name>
    <type>ZoneLivre Nouvelle-Aquitaine</type>
    <extensions>
      <osmand:color>#10c0f0</osmand:color>
      <osmand:background>square</osmand:background>
      <osmand:icon>public_bookcase</osmand:icon>
    </extensions>
  </wpt>
  <wpt lat="46.139198" lon="0.22894">
    <name>Saint-Saviol z23836</name>
    <type>ZoneLivre Nouvelle-Aquitaine</type>
    <extensions>
      <osmand:color>#10c0f0</osmand:color>
      <osmand:background>square</osmand:background>
      <osmand:icon>public_bookcase</osmand:icon>
    </extensions>
  </wpt>
  <wpt lat="45.939219" lon="0.311278">
    <name>Saint-Sulpice-de-Ruffec z23833</name>
    <type>ZoneLivre Nouvelle-Aquitaine</type>
    <extensions>
      <osmand:color>#10c0f0</osmand:color>
      <osmand:background>square</osmand:background>
      <osmand:icon>public_bookcase</osmand:icon>
    </extensions>
  </wpt>
  <wpt lat="45.814694" lon="0.218318">
    <name>Aussac-Vadalle z23830</name>
    <type>ZoneLivre Nouvelle-Aquitaine</type>
    <extensions>
      <osmand:color>#10c0f0</osmand:color>
      <osmand:background>square</osmand:background>
      <osmand:icon>public_bookcase</osmand:icon>
    </extensions>
  </wpt>
  <wpt lat="45.817794" lon="0.200069">
    <name>Aussac-Vadalle z23828</name>
    <type>ZoneLivre Nouvelle-Aquitaine</type>
    <extensions>
      <osmand:color>#10c0f0</osmand:color>
      <osmand:background>square</osmand:background>
      <osmand:icon>public_bookcase</osmand:icon>
    </extensions>
  </wpt>
  <wpt lat="45.795974" lon="0.191561">
    <name>Tourriers z23825</name>
    <type>ZoneLivre Nouvelle-Aquitaine</type>
    <extensions>
      <osmand:color>#10c0f0</osmand:color>
      <osmand:background>square</osmand:background>
      <osmand:icon>public_bookcase</osmand:icon>
    </extensions>
  </wpt>
  <wpt lat="45.802943" lon="0.173791">
    <name>Villejoubert z23823</name>
    <type>ZoneLivre Nouvelle-Aquitaine</type>
    <extensions>
      <osmand:color>#10c0f0</osmand:color>
      <osmand:background>square</osmand:background>
      <osmand:icon>public_bookcase</osmand:icon>
    </extensions>
  </wpt>
  <wpt lat="46.788423" lon="-0.058402">
    <name>Assais-les-Jumeaux z23820</name>
    <type>ZoneLivre Nouvelle-Aquitaine</type>
    <extensions>
      <osmand:color>#10c0f0</osmand:color>
      <osmand:background>square</osmand:background>
      <osmand:icon>public_bookcase</osmand:icon>
    </extensions>
  </wpt>
  <wpt lat="46.747295" lon="-0.0923">
    <name>Pressigny z23818</name>
    <type>ZoneLivre Nouvelle-Aquitaine</type>
    <extensions>
      <osmand:color>#10c0f0</osmand:color>
      <osmand:background>square</osmand:background>
      <osmand:icon>public_bookcase</osmand:icon>
    </extensions>
  </wpt>
  <wpt lat="46.740919" lon="-0.119289">
    <name>Aubigny z23816</name>
    <type>ZoneLivre Nouvelle-Aquitaine</type>
    <extensions>
      <osmand:color>#10c0f0</osmand:color>
      <osmand:background>square</osmand:background>
      <osmand:icon>public_bookcase</osmand:icon>
    </extensions>
  </wpt>
  <wpt lat="46.802724" lon="0.536418">
    <name>Châtellerault z23814</name>
    <type>ZoneLivre Nouvelle-Aquitaine</type>
    <extensions>
      <osmand:color>#10c0f0</osmand:color>
      <osmand:background>square</osmand:background>
      <osmand:icon>public_bookcase</osmand:icon>
    </extensions>
  </wpt>
  <wpt lat="46.80558" lon="0.539749">
    <name>Châtellerault z23812</name>
    <type>ZoneLivre Nouvelle-Aquitaine</type>
    <extensions>
      <osmand:color>#10c0f0</osmand:color>
      <osmand:background>square</osmand:background>
      <osmand:icon>public_bookcase</osmand:icon>
    </extensions>
  </wpt>
  <wpt lat="46.912945" lon="0.471991">
    <name>Leigné-sur-Usseau z23810</name>
    <type>ZoneLivre Nouvelle-Aquitaine</type>
    <extensions>
      <osmand:color>#10c0f0</osmand:color>
      <osmand:background>square</osmand:background>
      <osmand:icon>public_bookcase</osmand:icon>
    </extensions>
  </wpt>
  <wpt lat="46.831818" lon="0.457671">
    <name>Thuré z23804</name>
    <type>ZoneLivre Nouvelle-Aquitaine</type>
    <extensions>
      <osmand:color>#10c0f0</osmand:color>
      <osmand:background>square</osmand:background>
      <osmand:icon>public_bookcase</osmand:icon>
    </extensions>
  </wpt>
  <wpt lat="44.884217" lon="-0.649534">
    <name>Eysines z23801</name>
    <type>ZoneLivre Nouvelle-Aquitaine</type>
    <extensions>
      <osmand:color>#10c0f0</osmand:color>
      <osmand:background>square</osmand:background>
      <osmand:icon>public_bookcase</osmand:icon>
    </extensions>
  </wpt>
  <wpt lat="44.875318" lon="-0.625762">
    <name>Eysines z23795</name>
    <type>ZoneLivre Nouvelle-Aquitaine</type>
    <extensions>
      <osmand:color>#10c0f0</osmand:color>
      <osmand:background>square</osmand:background>
      <osmand:icon>public_bookcase</osmand:icon>
    </extensions>
  </wpt>
  <wpt lat="44.830674" lon="-0.544277">
    <name>Bordeaux z23793</name>
    <type>ZoneLivre Nouvelle-Aquitaine</type>
    <extensions>
      <osmand:color>#10c0f0</osmand:color>
      <osmand:background>square</osmand:background>
      <osmand:icon>public_bookcase</osmand:icon>
    </extensions>
  </wpt>
  <wpt lat="44.841409" lon="-0.580261">
    <name>Bordeaux z23791</name>
    <type>ZoneLivre Nouvelle-Aquitaine</type>
    <extensions>
      <osmand:color>#10c0f0</osmand:color>
      <osmand:background>square</osmand:background>
      <osmand:icon>public_bookcase</osmand:icon>
    </extensions>
  </wpt>
  <wpt lat="45.98998" lon="0.41008">
    <name>Champagne-Mouton z23652</name>
    <type>ZoneLivre Nouvelle-Aquitaine</type>
    <extensions>
      <osmand:color>#10c0f0</osmand:color>
      <osmand:background>square</osmand:background>
      <osmand:icon>public_bookcase</osmand:icon>
    </extensions>
  </wpt>
  <wpt lat="44.85877" lon="-0.565788">
    <name>Bordeaux z23638</name>
    <type>ZoneLivre Nouvelle-Aquitaine</type>
    <extensions>
      <osmand:color>#10c0f0</osmand:color>
      <osmand:background>square</osmand:background>
      <osmand:icon>public_bookcase</osmand:icon>
    </extensions>
  </wpt>
  <wpt lat="45.658088" lon="0.172412">
    <name>Angoulême z23636</name>
    <type>ZoneLivre Nouvelle-Aquitaine</type>
    <extensions>
      <osmand:color>#10c0f0</osmand:color>
      <osmand:background>square</osmand:background>
      <osmand:icon>public_bookcase</osmand:icon>
    </extensions>
  </wpt>
  <wpt lat="45.64678" lon="0.185783">
    <name>Soyaux z23633</name>
    <type>ZoneLivre Nouvelle-Aquitaine</type>
    <extensions>
      <osmand:color>#10c0f0</osmand:color>
      <osmand:background>square</osmand:background>
      <osmand:icon>public_bookcase</osmand:icon>
    </extensions>
  </wpt>
  <wpt lat="45.648089" lon="0.166415">
    <name>Angoulême z23631</name>
    <type>ZoneLivre Nouvelle-Aquitaine</type>
    <extensions>
      <osmand:color>#10c0f0</osmand:color>
      <osmand:background>square</osmand:background>
      <osmand:icon>public_bookcase</osmand:icon>
    </extensions>
  </wpt>
  <wpt lat="45.648421" lon="0.162362">
    <name>Angoulême z23628</name>
    <type>ZoneLivre Nouvelle-Aquitaine</type>
    <extensions>
      <osmand:color>#10c0f0</osmand:color>
      <osmand:background>square</osmand:background>
      <osmand:icon>public_bookcase</osmand:icon>
    </extensions>
  </wpt>
  <wpt lat="45.65109" lon="0.15584">
    <name>Angoulême z23625</name>
    <type>ZoneLivre Nouvelle-Aquitaine</type>
    <extensions>
      <osmand:color>#10c0f0</osmand:color>
      <osmand:background>square</osmand:background>
      <osmand:icon>public_bookcase</osmand:icon>
    </extensions>
  </wpt>
  <wpt lat="44.065632" lon="0.392791">
    <name>Lasserre (47) z23607</name>
    <type>ZoneLivre Nouvelle-Aquitaine</type>
    <extensions>
      <osmand:color>#10c0f0</osmand:color>
      <osmand:background>square</osmand:background>
      <osmand:icon>public_bookcase</osmand:icon>
    </extensions>
  </wpt>
  <wpt lat="44.06372" lon="0.42794">
    <name>Francescas z23605</name>
    <type>ZoneLivre Nouvelle-Aquitaine</type>
    <extensions>
      <osmand:color>#10c0f0</osmand:color>
      <osmand:background>square</osmand:background>
      <osmand:icon>public_bookcase</osmand:icon>
    </extensions>
  </wpt>
  <wpt lat="45.039559" lon="1.953633">
    <name>La Chapelle-Saint-Géraud z23383</name>
    <type>ZoneLivre Nouvelle-Aquitaine</type>
    <extensions>
      <osmand:color>#10c0f0</osmand:color>
      <osmand:background>square</osmand:background>
      <osmand:icon>public_bookcase</osmand:icon>
    </extensions>
  </wpt>
  <wpt lat="43.98526" lon="0.01087">
    <name>Gabarret z23321</name>
    <type>ZoneLivre Nouvelle-Aquitaine</type>
    <extensions>
      <osmand:color>#10c0f0</osmand:color>
      <osmand:background>square</osmand:background>
      <osmand:icon>public_bookcase</osmand:icon>
    </extensions>
  </wpt>
  <wpt lat="44.042627" lon="0.142348">
    <name>Sos z23318</name>
    <type>ZoneLivre Nouvelle-Aquitaine</type>
    <extensions>
      <osmand:color>#10c0f0</osmand:color>
      <osmand:background>square</osmand:background>
      <osmand:icon>public_bookcase</osmand:icon>
    </extensions>
  </wpt>
  <wpt lat="44.057425" lon="0.260308">
    <name>Mézin z23314</name>
    <type>ZoneLivre Nouvelle-Aquitaine</type>
    <extensions>
      <osmand:color>#10c0f0</osmand:color>
      <osmand:background>square</osmand:background>
      <osmand:icon>public_bookcase</osmand:icon>
    </extensions>
  </wpt>
  <wpt lat="46.042752" lon="0.188262">
    <name>Ruffec z23245</name>
    <type>ZoneLivre Nouvelle-Aquitaine</type>
    <extensions>
      <osmand:color>#10c0f0</osmand:color>
      <osmand:background>square</osmand:background>
      <osmand:icon>public_bookcase</osmand:icon>
    </extensions>
  </wpt>
  <wpt lat="45.90708" lon="0.238719">
    <name>Moutonneau z23243</name>
    <type>ZoneLivre Nouvelle-Aquitaine</type>
    <extensions>
      <osmand:color>#10c0f0</osmand:color>
      <osmand:background>square</osmand:background>
      <osmand:icon>public_bookcase</osmand:icon>
    </extensions>
  </wpt>
  <wpt lat="45.904189" lon="0.217565">
    <name>Lichères z23240</name>
    <type>ZoneLivre Nouvelle-Aquitaine</type>
    <extensions>
      <osmand:color>#10c0f0</osmand:color>
      <osmand:background>square</osmand:background>
      <osmand:icon>public_bookcase</osmand:icon>
    </extensions>
  </wpt>
  <wpt lat="46.319567" lon="2.271442">
    <name>Lavaufranche z23232</name>
    <type>ZoneLivre Nouvelle-Aquitaine</type>
    <extensions>
      <osmand:color>#10c0f0</osmand:color>
      <osmand:background>square</osmand:background>
      <osmand:icon>public_bookcase</osmand:icon>
    </extensions>
  </wpt>
  <wpt lat="45.186211" lon="-1.064276">
    <name>Hourtin z23153</name>
    <type>ZoneLivre Nouvelle-Aquitaine</type>
    <extensions>
      <osmand:color>#10c0f0</osmand:color>
      <osmand:background>square</osmand:background>
      <osmand:icon>public_bookcase</osmand:icon>
    </extensions>
  </wpt>
  <wpt lat="46.166108" lon="-1.124264">
    <name>La Rochelle z23094</name>
    <type>ZoneLivre Nouvelle-Aquitaine</type>
    <extensions>
      <osmand:color>#10c0f0</osmand:color>
      <osmand:background>square</osmand:background>
      <osmand:icon>public_bookcase</osmand:icon>
    </extensions>
  </wpt>
  <wpt lat="46.609258" lon="-0.235415">
    <name>Pompaire z23091</name>
    <type>ZoneLivre Nouvelle-Aquitaine</type>
    <extensions>
      <osmand:color>#10c0f0</osmand:color>
      <osmand:background>square</osmand:background>
      <osmand:icon>public_bookcase</osmand:icon>
    </extensions>
  </wpt>
  <wpt lat="46.623225" lon="-0.196909">
    <name>La Chapelle-Bertrand z23088</name>
    <type>ZoneLivre Nouvelle-Aquitaine</type>
    <extensions>
      <osmand:color>#10c0f0</osmand:color>
      <osmand:background>square</osmand:background>
      <osmand:icon>public_bookcase</osmand:icon>
    </extensions>
  </wpt>
  <wpt lat="46.620751" lon="-0.174024">
    <name>La Chapelle-Bertrand z23086</name>
    <type>ZoneLivre Nouvelle-Aquitaine</type>
    <extensions>
      <osmand:color>#10c0f0</osmand:color>
      <osmand:background>square</osmand:background>
      <osmand:icon>public_bookcase</osmand:icon>
    </extensions>
  </wpt>
  <wpt lat="46.589764" lon="-0.120689">
    <name>Saint-Martin-du-Fouilloux z23084</name>
    <type>ZoneLivre Nouvelle-Aquitaine</type>
    <extensions>
      <osmand:color>#10c0f0</osmand:color>
      <osmand:background>square</osmand:background>
      <osmand:icon>public_bookcase</osmand:icon>
    </extensions>
  </wpt>
  <wpt lat="46.550671" lon="-0.136825">
    <name>Vausseroux z23082</name>
    <type>ZoneLivre Nouvelle-Aquitaine</type>
    <extensions>
      <osmand:color>#10c0f0</osmand:color>
      <osmand:background>square</osmand:background>
      <osmand:icon>public_bookcase</osmand:icon>
    </extensions>
  </wpt>
  <wpt lat="46.549433" lon="-0.139156">
    <name>Vausseroux z23079</name>
    <type>ZoneLivre Nouvelle-Aquitaine</type>
    <extensions>
      <osmand:color>#10c0f0</osmand:color>
      <osmand:background>square</osmand:background>
      <osmand:icon>public_bookcase</osmand:icon>
    </extensions>
  </wpt>
  <wpt lat="46.475483" lon="-0.10889">
    <name>Fomperron z23077</name>
    <type>ZoneLivre Nouvelle-Aquitaine</type>
    <extensions>
      <osmand:color>#10c0f0</osmand:color>
      <osmand:background>square</osmand:background>
      <osmand:icon>public_bookcase</osmand:icon>
    </extensions>
  </wpt>
  <wpt lat="46.362683" lon="-0.305458">
    <name>La Crèche z23073</name>
    <type>ZoneLivre Nouvelle-Aquitaine</type>
    <extensions>
      <osmand:color>#10c0f0</osmand:color>
      <osmand:background>square</osmand:background>
      <osmand:icon>public_bookcase</osmand:icon>
    </extensions>
  </wpt>
  <wpt lat="46.380616" lon="-0.308341">
    <name>La Crèche z23071</name>
    <type>ZoneLivre Nouvelle-Aquitaine</type>
    <extensions>
      <osmand:color>#10c0f0</osmand:color>
      <osmand:background>square</osmand:background>
      <osmand:icon>public_bookcase</osmand:icon>
    </extensions>
  </wpt>
  <wpt lat="44.209944" lon="0.62831">
    <name>Agen z23065</name>
    <type>ZoneLivre Nouvelle-Aquitaine</type>
    <extensions>
      <osmand:color>#10c0f0</osmand:color>
      <osmand:background>square</osmand:background>
      <osmand:icon>public_bookcase</osmand:icon>
    </extensions>
  </wpt>
  <wpt lat="46.15607" lon="0.07931">
    <name>Mairé-Levescault z23061</name>
    <type>ZoneLivre Nouvelle-Aquitaine</type>
    <extensions>
      <osmand:color>#10c0f0</osmand:color>
      <osmand:background>square</osmand:background>
      <osmand:icon>public_bookcase</osmand:icon>
    </extensions>
  </wpt>
  <wpt lat="46.326185" lon="-0.104459">
    <name>Exoudun z23006</name>
    <type>ZoneLivre Nouvelle-Aquitaine</type>
    <extensions>
      <osmand:color>#10c0f0</osmand:color>
      <osmand:background>square</osmand:background>
      <osmand:icon>public_bookcase</osmand:icon>
    </extensions>
  </wpt>
  <wpt lat="46.356978" lon="-0.158226">
    <name>Souvigné z23004</name>
    <type>ZoneLivre Nouvelle-Aquitaine</type>
    <extensions>
      <osmand:color>#10c0f0</osmand:color>
      <osmand:background>square</osmand:background>
      <osmand:icon>public_bookcase</osmand:icon>
    </extensions>
  </wpt>
  <wpt lat="46.395501" lon="-0.055296">
    <name>Pamproux z23000</name>
    <type>ZoneLivre Nouvelle-Aquitaine</type>
    <extensions>
      <osmand:color>#10c0f0</osmand:color>
      <osmand:background>square</osmand:background>
      <osmand:icon>public_bookcase</osmand:icon>
    </extensions>
  </wpt>
  <wpt lat="46.685843" lon="0.268996">
    <name>Neuville-de-Poitou z22998</name>
    <type>ZoneLivre Nouvelle-Aquitaine</type>
    <extensions>
      <osmand:color>#10c0f0</osmand:color>
      <osmand:background>square</osmand:background>
      <osmand:icon>public_bookcase</osmand:icon>
    </extensions>
  </wpt>
  <wpt lat="46.604545" lon="0.597382">
    <name>Bonnes z22943</name>
    <type>ZoneLivre Nouvelle-Aquitaine</type>
    <extensions>
      <osmand:color>#10c0f0</osmand:color>
      <osmand:background>square</osmand:background>
      <osmand:icon>public_bookcase</osmand:icon>
    </extensions>
  </wpt>
  <wpt lat="46.646691" lon="0.591634">
    <name>Bellefonds z22941</name>
    <type>ZoneLivre Nouvelle-Aquitaine</type>
    <extensions>
      <osmand:color>#10c0f0</osmand:color>
      <osmand:background>square</osmand:background>
      <osmand:icon>public_bookcase</osmand:icon>
    </extensions>
  </wpt>
  <wpt lat="46.773463" lon="0.53631">
    <name>Cenon-sur-Vienne z22934</name>
    <type>ZoneLivre Nouvelle-Aquitaine</type>
    <extensions>
      <osmand:color>#10c0f0</osmand:color>
      <osmand:background>square</osmand:background>
      <osmand:icon>public_bookcase</osmand:icon>
    </extensions>
  </wpt>
  <wpt lat="45.833449" lon="0.124076">
    <name>Vervant z22932</name>
    <type>ZoneLivre Nouvelle-Aquitaine</type>
    <extensions>
      <osmand:color>#10c0f0</osmand:color>
      <osmand:background>square</osmand:background>
      <osmand:icon>public_bookcase</osmand:icon>
    </extensions>
  </wpt>
  <wpt lat="45.797928" lon="0.13469">
    <name>Saint-Amant-de-Boixe z22929</name>
    <type>ZoneLivre Nouvelle-Aquitaine</type>
    <extensions>
      <osmand:color>#10c0f0</osmand:color>
      <osmand:background>square</osmand:background>
      <osmand:icon>public_bookcase</osmand:icon>
    </extensions>
  </wpt>
  <wpt lat="45.762731" lon="0.128041">
    <name>Vars z22925</name>
    <type>ZoneLivre Nouvelle-Aquitaine</type>
    <extensions>
      <osmand:color>#10c0f0</osmand:color>
      <osmand:background>square</osmand:background>
      <osmand:icon>public_bookcase</osmand:icon>
    </extensions>
  </wpt>
  <wpt lat="45.752661" lon="0.195434">
    <name>Anais z22923</name>
    <type>ZoneLivre Nouvelle-Aquitaine</type>
    <extensions>
      <osmand:color>#10c0f0</osmand:color>
      <osmand:background>square</osmand:background>
      <osmand:icon>public_bookcase</osmand:icon>
    </extensions>
  </wpt>
  <wpt lat="45.785095" lon="0.257613">
    <name>Jauldes z22921</name>
    <type>ZoneLivre Nouvelle-Aquitaine</type>
    <extensions>
      <osmand:color>#10c0f0</osmand:color>
      <osmand:background>square</osmand:background>
      <osmand:icon>public_bookcase</osmand:icon>
    </extensions>
  </wpt>
  <wpt lat="45.775566" lon="0.335373">
    <name>Agris z22919</name>
    <type>ZoneLivre Nouvelle-Aquitaine</type>
    <extensions>
      <osmand:color>#10c0f0</osmand:color>
      <osmand:background>square</osmand:background>
      <osmand:icon>public_bookcase</osmand:icon>
    </extensions>
  </wpt>
  <wpt lat="45.781616" lon="0.330043">
    <name>Agris z22915</name>
    <type>ZoneLivre Nouvelle-Aquitaine</type>
    <extensions>
      <osmand:color>#10c0f0</osmand:color>
      <osmand:background>square</osmand:background>
      <osmand:icon>public_bookcase</osmand:icon>
    </extensions>
  </wpt>
  <wpt lat="45.800554" lon="0.312941">
    <name>La Rochette z22913</name>
    <type>ZoneLivre Nouvelle-Aquitaine</type>
    <extensions>
      <osmand:color>#10c0f0</osmand:color>
      <osmand:background>square</osmand:background>
      <osmand:icon>public_bookcase</osmand:icon>
    </extensions>
  </wpt>
  <wpt lat="45.874815" lon="0.180936">
    <name>Mansle-les-Fontaines z22911</name>
    <type>ZoneLivre Nouvelle-Aquitaine</type>
    <extensions>
      <osmand:color>#10c0f0</osmand:color>
      <osmand:background>square</osmand:background>
      <osmand:icon>public_bookcase</osmand:icon>
    </extensions>
  </wpt>
  <wpt lat="45.875153" lon="0.17849">
    <name>Mansle-les-Fontaines z22909</name>
    <type>ZoneLivre Nouvelle-Aquitaine</type>
    <extensions>
      <osmand:color>#10c0f0</osmand:color>
      <osmand:background>square</osmand:background>
      <osmand:icon>public_bookcase</osmand:icon>
    </extensions>
  </wpt>
  <wpt lat="45.875816" lon="0.176436">
    <name>Mansle-les-Fontaines z22905</name>
    <type>ZoneLivre Nouvelle-Aquitaine</type>
    <extensions>
      <osmand:color>#10c0f0</osmand:color>
      <osmand:background>square</osmand:background>
      <osmand:icon>public_bookcase</osmand:icon>
    </extensions>
  </wpt>
  <wpt lat="46.549053" lon="0.140824">
    <name>Montreuil-Bonnin z22896</name>
    <type>ZoneLivre Nouvelle-Aquitaine</type>
    <extensions>
      <osmand:color>#10c0f0</osmand:color>
      <osmand:background>square</osmand:background>
      <osmand:icon>public_bookcase</osmand:icon>
    </extensions>
  </wpt>
  <wpt lat="46.554718" lon="0.139067">
    <name>Boivre-la-Vallée z22894</name>
    <type>ZoneLivre Nouvelle-Aquitaine</type>
    <extensions>
      <osmand:color>#10c0f0</osmand:color>
      <osmand:background>square</osmand:background>
      <osmand:icon>public_bookcase</osmand:icon>
    </extensions>
  </wpt>
  <wpt lat="46.59266" lon="0.353858">
    <name>Poitiers z22891</name>
    <type>ZoneLivre Nouvelle-Aquitaine</type>
    <extensions>
      <osmand:color>#10c0f0</osmand:color>
      <osmand:background>square</osmand:background>
      <osmand:icon>public_bookcase</osmand:icon>
    </extensions>
  </wpt>
  <wpt lat="46.517203" lon="0.563894">
    <name>Tercé z22889</name>
    <type>ZoneLivre Nouvelle-Aquitaine</type>
    <extensions>
      <osmand:color>#10c0f0</osmand:color>
      <osmand:background>square</osmand:background>
      <osmand:icon>public_bookcase</osmand:icon>
    </extensions>
  </wpt>
  <wpt lat="46.536648" lon="0.576849">
    <name>Pouillé z22887</name>
    <type>ZoneLivre Nouvelle-Aquitaine</type>
    <extensions>
      <osmand:color>#10c0f0</osmand:color>
      <osmand:background>square</osmand:background>
      <osmand:icon>public_bookcase</osmand:icon>
    </extensions>
  </wpt>
  <wpt lat="46.58365" lon="0.348505">
    <name>Poitiers z22885</name>
    <type>ZoneLivre Nouvelle-Aquitaine</type>
    <extensions>
      <osmand:color>#10c0f0</osmand:color>
      <osmand:background>square</osmand:background>
      <osmand:icon>public_bookcase</osmand:icon>
    </extensions>
  </wpt>
  <wpt lat="46.159989" lon="-1.149805">
    <name>La Rochelle z22879</name>
    <type>ZoneLivre Nouvelle-Aquitaine</type>
    <extensions>
      <osmand:color>#10c0f0</osmand:color>
      <osmand:background>square</osmand:background>
      <osmand:icon>public_bookcase</osmand:icon>
    </extensions>
  </wpt>
  <wpt lat="46.158154" lon="-1.153755">
    <name>La Rochelle z22877</name>
    <type>ZoneLivre Nouvelle-Aquitaine</type>
    <extensions>
      <osmand:color>#10c0f0</osmand:color>
      <osmand:background>square</osmand:background>
      <osmand:icon>public_bookcase</osmand:icon>
    </extensions>
  </wpt>
  <wpt lat="46.166372" lon="-1.180287">
    <name>La Rochelle z22874</name>
    <type>ZoneLivre Nouvelle-Aquitaine</type>
    <extensions>
      <osmand:color>#10c0f0</osmand:color>
      <osmand:background>square</osmand:background>
      <osmand:icon>public_bookcase</osmand:icon>
    </extensions>
  </wpt>
  <wpt lat="46.159478" lon="-1.262135">
    <name>Rivedoux-Plage z22871</name>
    <type>ZoneLivre Nouvelle-Aquitaine</type>
    <extensions>
      <osmand:color>#10c0f0</osmand:color>
      <osmand:background>square</osmand:background>
      <osmand:icon>public_bookcase</osmand:icon>
    </extensions>
  </wpt>
  <wpt lat="46.156977" lon="-1.321811">
    <name>Sainte-Marie-de-Ré z22869</name>
    <type>ZoneLivre Nouvelle-Aquitaine</type>
    <extensions>
      <osmand:color>#10c0f0</osmand:color>
      <osmand:background>square</osmand:background>
      <osmand:icon>public_bookcase</osmand:icon>
    </extensions>
  </wpt>
  <wpt lat="46.181457" lon="-1.393746">
    <name>Le-Bois-Plage-en-Ré z22867</name>
    <type>ZoneLivre Nouvelle-Aquitaine</type>
    <extensions>
      <osmand:color>#10c0f0</osmand:color>
      <osmand:background>square</osmand:background>
      <osmand:icon>public_bookcase</osmand:icon>
    </extensions>
  </wpt>
  <wpt lat="46.179617" lon="-1.326841">
    <name>La Flotte z22863</name>
    <type>ZoneLivre Nouvelle-Aquitaine</type>
    <extensions>
      <osmand:color>#10c0f0</osmand:color>
      <osmand:background>square</osmand:background>
      <osmand:icon>public_bookcase</osmand:icon>
    </extensions>
  </wpt>
  <wpt lat="45.822706" lon="1.705094">
    <name>Saint-Julien-le-Petit z22474</name>
    <type>ZoneLivre Nouvelle-Aquitaine</type>
    <extensions>
      <osmand:color>#10c0f0</osmand:color>
      <osmand:background>square</osmand:background>
      <osmand:icon>public_bookcase</osmand:icon>
    </extensions>
  </wpt>
  <wpt lat="43.2674" lon="-0.20932">
    <name>Nousty z22455</name>
    <type>ZoneLivre Nouvelle-Aquitaine</type>
    <extensions>
      <osmand:color>#10c0f0</osmand:color>
      <osmand:background>square</osmand:background>
      <osmand:icon>public_bookcase</osmand:icon>
    </extensions>
  </wpt>
  <wpt lat="44.636927" lon="-1.142876">
    <name>La Teste-de-Buch z22452</name>
    <type>ZoneLivre Nouvelle-Aquitaine</type>
    <extensions>
      <osmand:color>#10c0f0</osmand:color>
      <osmand:background>square</osmand:background>
      <osmand:icon>public_bookcase</osmand:icon>
    </extensions>
  </wpt>
  <wpt lat="46.399078" lon="-0.477169">
    <name>Saint-Maxire z22450</name>
    <type>ZoneLivre Nouvelle-Aquitaine</type>
    <extensions>
      <osmand:color>#10c0f0</osmand:color>
      <osmand:background>square</osmand:background>
      <osmand:icon>public_bookcase</osmand:icon>
    </extensions>
  </wpt>
  <wpt lat="46.92354" lon="-0.476159">
    <name>Saint-Aubin-du-Plain z22374</name>
    <type>ZoneLivre Nouvelle-Aquitaine</type>
    <extensions>
      <osmand:color>#10c0f0</osmand:color>
      <osmand:background>square</osmand:background>
      <osmand:icon>public_bookcase</osmand:icon>
    </extensions>
  </wpt>
  <wpt lat="46.39999" lon="2.143498">
    <name>Bussière-Saint-Georges z22296</name>
    <type>ZoneLivre Nouvelle-Aquitaine</type>
    <extensions>
      <osmand:color>#10c0f0</osmand:color>
      <osmand:background>square</osmand:background>
      <osmand:icon>public_bookcase</osmand:icon>
    </extensions>
  </wpt>
  <wpt lat="46.399189" lon="0.553479">
    <name>Saint-Laurent-de-Jourdes z22294</name>
    <type>ZoneLivre Nouvelle-Aquitaine</type>
    <extensions>
      <osmand:color>#10c0f0</osmand:color>
      <osmand:background>square</osmand:background>
      <osmand:icon>public_bookcase</osmand:icon>
    </extensions>
  </wpt>
  <wpt lat="46.400077" lon="0.549265">
    <name>Saint-Laurent-de-Jourdes z22291</name>
    <type>ZoneLivre Nouvelle-Aquitaine</type>
    <extensions>
      <osmand:color>#10c0f0</osmand:color>
      <osmand:background>square</osmand:background>
      <osmand:icon>public_bookcase</osmand:icon>
    </extensions>
  </wpt>
  <wpt lat="46.391077" lon="0.54529">
    <name>Saint-Laurent-de-Jourdes z22289</name>
    <type>ZoneLivre Nouvelle-Aquitaine</type>
    <extensions>
      <osmand:color>#10c0f0</osmand:color>
      <osmand:background>square</osmand:background>
      <osmand:icon>public_bookcase</osmand:icon>
    </extensions>
  </wpt>
  <wpt lat="46.382587" lon="0.557535">
    <name>Saint-Laurent-de-Jourdes z22287</name>
    <type>ZoneLivre Nouvelle-Aquitaine</type>
    <extensions>
      <osmand:color>#10c0f0</osmand:color>
      <osmand:background>square</osmand:background>
      <osmand:icon>public_bookcase</osmand:icon>
    </extensions>
  </wpt>
  <wpt lat="46.96743" lon="-0.221795">
    <name>Saint-Jean-de-Thouars z22280</name>
    <type>ZoneLivre Nouvelle-Aquitaine</type>
    <extensions>
      <osmand:color>#10c0f0</osmand:color>
      <osmand:background>square</osmand:background>
      <osmand:icon>public_bookcase</osmand:icon>
    </extensions>
  </wpt>
  <wpt lat="46.962596" lon="-0.219949">
    <name>Saint-Jean-de-Thouars z22278</name>
    <type>ZoneLivre Nouvelle-Aquitaine</type>
    <extensions>
      <osmand:color>#10c0f0</osmand:color>
      <osmand:background>square</osmand:background>
      <osmand:icon>public_bookcase</osmand:icon>
    </extensions>
  </wpt>
  <wpt lat="46.575761" lon="0.337993">
    <name>Poitiers z22275</name>
    <type>ZoneLivre Nouvelle-Aquitaine</type>
    <extensions>
      <osmand:color>#10c0f0</osmand:color>
      <osmand:background>square</osmand:background>
      <osmand:icon>public_bookcase</osmand:icon>
    </extensions>
  </wpt>
  <wpt lat="44.201564" lon="0.606021">
    <name>Le Passage z22260</name>
    <type>ZoneLivre Nouvelle-Aquitaine</type>
    <extensions>
      <osmand:color>#10c0f0</osmand:color>
      <osmand:background>square</osmand:background>
      <osmand:icon>public_bookcase</osmand:icon>
    </extensions>
  </wpt>
  <wpt lat="44.195407" lon="0.616098">
    <name>Agen z22257</name>
    <type>ZoneLivre Nouvelle-Aquitaine</type>
    <extensions>
      <osmand:color>#10c0f0</osmand:color>
      <osmand:background>square</osmand:background>
      <osmand:icon>public_bookcase</osmand:icon>
    </extensions>
  </wpt>
  <wpt lat="44.209963" lon="0.630161">
    <name>Agen z22255</name>
    <type>ZoneLivre Nouvelle-Aquitaine</type>
    <extensions>
      <osmand:color>#10c0f0</osmand:color>
      <osmand:background>square</osmand:background>
      <osmand:icon>public_bookcase</osmand:icon>
    </extensions>
  </wpt>
  <wpt lat="44.208848" lon="0.609371">
    <name>Agen z22248</name>
    <type>ZoneLivre Nouvelle-Aquitaine</type>
    <extensions>
      <osmand:color>#10c0f0</osmand:color>
      <osmand:background>square</osmand:background>
      <osmand:icon>public_bookcase</osmand:icon>
    </extensions>
  </wpt>
  <wpt lat="44.205447" lon="0.622771">
    <name>Agen z22246</name>
    <type>ZoneLivre Nouvelle-Aquitaine</type>
    <extensions>
      <osmand:color>#10c0f0</osmand:color>
      <osmand:background>square</osmand:background>
      <osmand:icon>public_bookcase</osmand:icon>
    </extensions>
  </wpt>
  <wpt lat="44.40916" lon="0.705807">
    <name>Villeneuve-sur-Lot z22242</name>
    <type>ZoneLivre Nouvelle-Aquitaine</type>
    <extensions>
      <osmand:color>#10c0f0</osmand:color>
      <osmand:background>square</osmand:background>
      <osmand:icon>public_bookcase</osmand:icon>
    </extensions>
  </wpt>
  <wpt lat="45.176081" lon="0.725698">
    <name>Sanilhac z22240</name>
    <type>ZoneLivre Nouvelle-Aquitaine</type>
    <extensions>
      <osmand:color>#10c0f0</osmand:color>
      <osmand:background>square</osmand:background>
      <osmand:icon>public_bookcase</osmand:icon>
    </extensions>
  </wpt>
  <wpt lat="45.185237" lon="0.715302">
    <name>Périgueux z22238</name>
    <type>ZoneLivre Nouvelle-Aquitaine</type>
    <extensions>
      <osmand:color>#10c0f0</osmand:color>
      <osmand:background>square</osmand:background>
      <osmand:icon>public_bookcase</osmand:icon>
    </extensions>
  </wpt>
  <wpt lat="44.83868" lon="-0.473657">
    <name>Tresses z22206</name>
    <type>ZoneLivre Nouvelle-Aquitaine</type>
    <extensions>
      <osmand:color>#10c0f0</osmand:color>
      <osmand:background>square</osmand:background>
      <osmand:icon>public_bookcase</osmand:icon>
    </extensions>
  </wpt>
  <wpt lat="44.932793" lon="-0.438289">
    <name>Saint-Loubès z22200</name>
    <type>ZoneLivre Nouvelle-Aquitaine</type>
    <extensions>
      <osmand:color>#10c0f0</osmand:color>
      <osmand:background>square</osmand:background>
      <osmand:icon>public_bookcase</osmand:icon>
    </extensions>
  </wpt>
  <wpt lat="43.135404" lon="-1.144252">
    <name>Lecumberry z22169</name>
    <type>ZoneLivre Nouvelle-Aquitaine</type>
    <extensions>
      <osmand:color>#10c0f0</osmand:color>
      <osmand:background>square</osmand:background>
      <osmand:icon>public_bookcase</osmand:icon>
    </extensions>
  </wpt>
  <wpt lat="44.751977" lon="-1.125399">
    <name>Arès z22116</name>
    <type>ZoneLivre Nouvelle-Aquitaine</type>
    <extensions>
      <osmand:color>#10c0f0</osmand:color>
      <osmand:background>square</osmand:background>
      <osmand:icon>public_bookcase</osmand:icon>
    </extensions>
  </wpt>
  <wpt lat="44.916943" lon="-0.428668">
    <name>Saint-Loubès z22072</name>
    <type>ZoneLivre Nouvelle-Aquitaine</type>
    <extensions>
      <osmand:color>#10c0f0</osmand:color>
      <osmand:background>square</osmand:background>
      <osmand:icon>public_bookcase</osmand:icon>
    </extensions>
  </wpt>
  <wpt lat="45.528171" lon="-0.882566">
    <name>Barzan Plage z22070</name>
    <type>ZoneLivre Nouvelle-Aquitaine</type>
    <extensions>
      <osmand:color>#10c0f0</osmand:color>
      <osmand:background>square</osmand:background>
      <osmand:icon>public_bookcase</osmand:icon>
    </extensions>
  </wpt>
  <wpt lat="45.388384" lon="-0.687238">
    <name>Saint-Thomas-de-Conac z22068</name>
    <type>ZoneLivre Nouvelle-Aquitaine</type>
    <extensions>
      <osmand:color>#10c0f0</osmand:color>
      <osmand:background>square</osmand:background>
      <osmand:icon>public_bookcase</osmand:icon>
    </extensions>
  </wpt>
  <wpt lat="47.037351" lon="0.118902">
    <name>Basses z22039</name>
    <type>ZoneLivre Nouvelle-Aquitaine</type>
    <extensions>
      <osmand:color>#10c0f0</osmand:color>
      <osmand:background>square</osmand:background>
      <osmand:icon>public_bookcase</osmand:icon>
    </extensions>
  </wpt>
  <wpt lat="44.658578" lon="-1.172276">
    <name>Arcachon z22035</name>
    <type>ZoneLivre Nouvelle-Aquitaine</type>
    <extensions>
      <osmand:color>#10c0f0</osmand:color>
      <osmand:background>square</osmand:background>
      <osmand:icon>public_bookcase</osmand:icon>
    </extensions>
  </wpt>
  <wpt lat="46.566545" lon="0.318303">
    <name>Poitiers z22029</name>
    <type>ZoneLivre Nouvelle-Aquitaine</type>
    <extensions>
      <osmand:color>#10c0f0</osmand:color>
      <osmand:background>square</osmand:background>
      <osmand:icon>public_bookcase</osmand:icon>
    </extensions>
  </wpt>
  <wpt lat="46.56257" lon="0.29525">
    <name>Vouneuil-sous-Biard z22026</name>
    <type>ZoneLivre Nouvelle-Aquitaine</type>
    <extensions>
      <osmand:color>#10c0f0</osmand:color>
      <osmand:background>square</osmand:background>
      <osmand:icon>public_bookcase</osmand:icon>
    </extensions>
  </wpt>
  <wpt lat="46.558595" lon="0.288681">
    <name>Vouneuil-sous-Biard z22023</name>
    <type>ZoneLivre Nouvelle-Aquitaine</type>
    <extensions>
      <osmand:color>#10c0f0</osmand:color>
      <osmand:background>square</osmand:background>
      <osmand:icon>public_bookcase</osmand:icon>
    </extensions>
  </wpt>
  <wpt lat="43.343856" lon="-1.765138">
    <name>Hendaye z21869</name>
    <type>ZoneLivre Nouvelle-Aquitaine</type>
    <extensions>
      <osmand:color>#10c0f0</osmand:color>
      <osmand:background>square</osmand:background>
      <osmand:icon>public_bookcase</osmand:icon>
    </extensions>
  </wpt>
  <wpt lat="43.343957" lon="-1.765309">
    <name>Hendaye z21867</name>
    <type>ZoneLivre Nouvelle-Aquitaine</type>
    <extensions>
      <osmand:color>#10c0f0</osmand:color>
      <osmand:background>square</osmand:background>
      <osmand:icon>public_bookcase</osmand:icon>
    </extensions>
  </wpt>
  <wpt lat="44.750454" lon="-0.435006">
    <name>Saint-Caprais-de-Bordeaux z21709</name>
    <type>ZoneLivre Nouvelle-Aquitaine</type>
    <extensions>
      <osmand:color>#10c0f0</osmand:color>
      <osmand:background>square</osmand:background>
      <osmand:icon>public_bookcase</osmand:icon>
    </extensions>
  </wpt>
  <wpt lat="44.79429" lon="-0.669785">
    <name>Pessac z21681</name>
    <type>ZoneLivre Nouvelle-Aquitaine</type>
    <extensions>
      <osmand:color>#10c0f0</osmand:color>
      <osmand:background>square</osmand:background>
      <osmand:icon>public_bookcase</osmand:icon>
    </extensions>
  </wpt>
  <wpt lat="46.185039" lon="-1.097348">
    <name>Puilboreau z21537</name>
    <type>ZoneLivre Nouvelle-Aquitaine</type>
    <extensions>
      <osmand:color>#10c0f0</osmand:color>
      <osmand:background>square</osmand:background>
      <osmand:icon>public_bookcase</osmand:icon>
    </extensions>
  </wpt>
  <wpt lat="45.944648" lon="-0.515491">
    <name>Saint-Jean-d'Angély z21533</name>
    <type>ZoneLivre Nouvelle-Aquitaine</type>
    <extensions>
      <osmand:color>#10c0f0</osmand:color>
      <osmand:background>square</osmand:background>
      <osmand:icon>public_bookcase</osmand:icon>
    </extensions>
  </wpt>
  <wpt lat="45.94393" lon="-0.52247">
    <name>Saint-Jean-d'Angély z21531</name>
    <type>ZoneLivre Nouvelle-Aquitaine</type>
    <extensions>
      <osmand:color>#10c0f0</osmand:color>
      <osmand:background>square</osmand:background>
      <osmand:icon>public_bookcase</osmand:icon>
    </extensions>
  </wpt>
  <wpt lat="45.939885" lon="-0.517379">
    <name>Saint-Jean-d'Angély z21529</name>
    <type>ZoneLivre Nouvelle-Aquitaine</type>
    <extensions>
      <osmand:color>#10c0f0</osmand:color>
      <osmand:background>square</osmand:background>
      <osmand:icon>public_bookcase</osmand:icon>
    </extensions>
  </wpt>
  <wpt lat="45.941555" lon="-0.522186">
    <name>Saint-Jean-d'Angély z21527</name>
    <type>ZoneLivre Nouvelle-Aquitaine</type>
    <extensions>
      <osmand:color>#10c0f0</osmand:color>
      <osmand:background>square</osmand:background>
      <osmand:icon>public_bookcase</osmand:icon>
    </extensions>
  </wpt>
  <wpt lat="44.927855" lon="-0.482709">
    <name>Ambarès-et-Lagrave z21445</name>
    <type>ZoneLivre Nouvelle-Aquitaine</type>
    <extensions>
      <osmand:color>#10c0f0</osmand:color>
      <osmand:background>square</osmand:background>
      <osmand:icon>public_bookcase</osmand:icon>
    </extensions>
  </wpt>
  <wpt lat="46.015962" lon="0.24513">
    <name>Barro z21441</name>
    <type>ZoneLivre Nouvelle-Aquitaine</type>
    <extensions>
      <osmand:color>#10c0f0</osmand:color>
      <osmand:background>square</osmand:background>
      <osmand:icon>public_bookcase</osmand:icon>
    </extensions>
  </wpt>
  <wpt lat="46.011358" lon="0.242976">
    <name>Barro z21438</name>
    <type>ZoneLivre Nouvelle-Aquitaine</type>
    <extensions>
      <osmand:color>#10c0f0</osmand:color>
      <osmand:background>square</osmand:background>
      <osmand:icon>public_bookcase</osmand:icon>
    </extensions>
  </wpt>
  <wpt lat="46.59173" lon="0.33158">
    <name>Poitiers z21200</name>
    <type>ZoneLivre Nouvelle-Aquitaine</type>
    <extensions>
      <osmand:color>#10c0f0</osmand:color>
      <osmand:background>square</osmand:background>
      <osmand:icon>public_bookcase</osmand:icon>
    </extensions>
  </wpt>
  <wpt lat="45.41453" lon="0.920185">
    <name>Thiviers z21062</name>
    <type>ZoneLivre Nouvelle-Aquitaine</type>
    <extensions>
      <osmand:color>#10c0f0</osmand:color>
      <osmand:background>square</osmand:background>
      <osmand:icon>public_bookcase</osmand:icon>
    </extensions>
  </wpt>
  <wpt lat="45.71359" lon="1.60761">
    <name>Châteauneuf-la-Forêt z21027</name>
    <type>ZoneLivre Nouvelle-Aquitaine</type>
    <extensions>
      <osmand:color>#10c0f0</osmand:color>
      <osmand:background>square</osmand:background>
      <osmand:icon>public_bookcase</osmand:icon>
    </extensions>
  </wpt>
  <wpt lat="45.42085" lon="0.753671">
    <name>Villars z21025</name>
    <type>ZoneLivre Nouvelle-Aquitaine</type>
    <extensions>
      <osmand:color>#10c0f0</osmand:color>
      <osmand:background>square</osmand:background>
      <osmand:icon>public_bookcase</osmand:icon>
    </extensions>
  </wpt>
  <wpt lat="45.00375" lon="-1.20175">
    <name>Lacanau z21021</name>
    <type>ZoneLivre Nouvelle-Aquitaine</type>
    <extensions>
      <osmand:color>#10c0f0</osmand:color>
      <osmand:background>square</osmand:background>
      <osmand:icon>public_bookcase</osmand:icon>
    </extensions>
  </wpt>
  <wpt lat="44.84102" lon="0.54566">
    <name>Cours-de-Pile z21002</name>
    <type>ZoneLivre Nouvelle-Aquitaine</type>
    <extensions>
      <osmand:color>#10c0f0</osmand:color>
      <osmand:background>square</osmand:background>
      <osmand:icon>public_bookcase</osmand:icon>
    </extensions>
  </wpt>
  <wpt lat="44.85446" lon="0.56478">
    <name>Creysse z21000</name>
    <type>ZoneLivre Nouvelle-Aquitaine</type>
    <extensions>
      <osmand:color>#10c0f0</osmand:color>
      <osmand:background>square</osmand:background>
      <osmand:icon>public_bookcase</osmand:icon>
    </extensions>
  </wpt>
  <wpt lat="45.12434" lon="1.72463">
    <name>Beynat z20982</name>
    <type>ZoneLivre Nouvelle-Aquitaine</type>
    <extensions>
      <osmand:color>#10c0f0</osmand:color>
      <osmand:background>square</osmand:background>
      <osmand:icon>public_bookcase</osmand:icon>
    </extensions>
  </wpt>
  <wpt lat="44.852574" lon="0.490107">
    <name>Bergerac z20978</name>
    <type>ZoneLivre Nouvelle-Aquitaine</type>
    <extensions>
      <osmand:color>#10c0f0</osmand:color>
      <osmand:background>square</osmand:background>
      <osmand:icon>public_bookcase</osmand:icon>
    </extensions>
  </wpt>
  <wpt lat="46.58926" lon="0.34494">
    <name>Poitiers z20798</name>
    <type>ZoneLivre Nouvelle-Aquitaine</type>
    <extensions>
      <osmand:color>#10c0f0</osmand:color>
      <osmand:background>square</osmand:background>
      <osmand:icon>public_bookcase</osmand:icon>
    </extensions>
  </wpt>
  <wpt lat="46.58931" lon="0.34254">
    <name>Poitiers z20780</name>
    <type>ZoneLivre Nouvelle-Aquitaine</type>
    <extensions>
      <osmand:color>#10c0f0</osmand:color>
      <osmand:background>square</osmand:background>
      <osmand:icon>public_bookcase</osmand:icon>
    </extensions>
  </wpt>
  <wpt lat="46.55321" lon="0.36487">
    <name>Saint-Benoît z20778</name>
    <type>ZoneLivre Nouvelle-Aquitaine</type>
    <extensions>
      <osmand:color>#10c0f0</osmand:color>
      <osmand:background>square</osmand:background>
      <osmand:icon>public_bookcase</osmand:icon>
    </extensions>
  </wpt>
  <wpt lat="43.34652" lon="-1.52417">
    <name>Saint-Pée-sur-Nivelle z20689</name>
    <type>ZoneLivre Nouvelle-Aquitaine</type>
    <extensions>
      <osmand:color>#10c0f0</osmand:color>
      <osmand:background>square</osmand:background>
      <osmand:icon>public_bookcase</osmand:icon>
    </extensions>
  </wpt>
  <wpt lat="44.87267" lon="-0.47713">
    <name>Yvrac z20677</name>
    <type>ZoneLivre Nouvelle-Aquitaine</type>
    <extensions>
      <osmand:color>#10c0f0</osmand:color>
      <osmand:background>square</osmand:background>
      <osmand:icon>public_bookcase</osmand:icon>
    </extensions>
  </wpt>
  <wpt lat="45.83786" lon="1.49231">
    <name>Saint-Léonard-de-Noblat z20635</name>
    <type>ZoneLivre Nouvelle-Aquitaine</type>
    <extensions>
      <osmand:color>#10c0f0</osmand:color>
      <osmand:background>square</osmand:background>
      <osmand:icon>public_bookcase</osmand:icon>
    </extensions>
  </wpt>
  <wpt lat="46.11891" lon="1.8128">
    <name>Saint-Victor-en-Marche z20629</name>
    <type>ZoneLivre Nouvelle-Aquitaine</type>
    <extensions>
      <osmand:color>#10c0f0</osmand:color>
      <osmand:background>square</osmand:background>
      <osmand:icon>public_bookcase</osmand:icon>
    </extensions>
  </wpt>
  <wpt lat="46.64476" lon="-0.24434">
    <name>Parthenay z20539</name>
    <type>ZoneLivre Nouvelle-Aquitaine</type>
    <extensions>
      <osmand:color>#10c0f0</osmand:color>
      <osmand:background>square</osmand:background>
      <osmand:icon>public_bookcase</osmand:icon>
    </extensions>
  </wpt>
  <wpt lat="46.81232" lon="0.32713">
    <name>Lencloître z20536</name>
    <type>ZoneLivre Nouvelle-Aquitaine</type>
    <extensions>
      <osmand:color>#10c0f0</osmand:color>
      <osmand:background>square</osmand:background>
      <osmand:icon>public_bookcase</osmand:icon>
    </extensions>
  </wpt>
  <wpt lat="46.67002" lon="0.37195">
    <name>Jaunay-Marigny z20534</name>
    <type>ZoneLivre Nouvelle-Aquitaine</type>
    <extensions>
      <osmand:color>#10c0f0</osmand:color>
      <osmand:background>square</osmand:background>
      <osmand:icon>public_bookcase</osmand:icon>
    </extensions>
  </wpt>
  <wpt lat="46.9952" lon="-0.24786">
    <name>Thouars z20524</name>
    <type>ZoneLivre Nouvelle-Aquitaine</type>
    <extensions>
      <osmand:color>#10c0f0</osmand:color>
      <osmand:background>square</osmand:background>
      <osmand:icon>public_bookcase</osmand:icon>
    </extensions>
  </wpt>
  <wpt lat="46.98902" lon="-0.23313">
    <name>Thouars z20522</name>
    <type>ZoneLivre Nouvelle-Aquitaine</type>
    <extensions>
      <osmand:color>#10c0f0</osmand:color>
      <osmand:background>square</osmand:background>
      <osmand:icon>public_bookcase</osmand:icon>
    </extensions>
  </wpt>
  <wpt lat="46.02377" lon="0.19888">
    <name>Ruffec z20520</name>
    <type>ZoneLivre Nouvelle-Aquitaine</type>
    <extensions>
      <osmand:color>#10c0f0</osmand:color>
      <osmand:background>square</osmand:background>
      <osmand:icon>public_bookcase</osmand:icon>
    </extensions>
  </wpt>
  <wpt lat="45.83601" lon="1.2677">
    <name>Limoges z20504</name>
    <type>ZoneLivre Nouvelle-Aquitaine</type>
    <extensions>
      <osmand:color>#10c0f0</osmand:color>
      <osmand:background>square</osmand:background>
      <osmand:icon>public_bookcase</osmand:icon>
    </extensions>
  </wpt>
  <wpt lat="45.81589" lon="1.31165">
    <name>Feytiat z20498</name>
    <type>ZoneLivre Nouvelle-Aquitaine</type>
    <extensions>
      <osmand:color>#10c0f0</osmand:color>
      <osmand:background>square</osmand:background>
      <osmand:icon>public_bookcase</osmand:icon>
    </extensions>
  </wpt>
  <wpt lat="46.56799" lon="0.31824">
    <name>Poitiers z20496</name>
    <type>ZoneLivre Nouvelle-Aquitaine</type>
    <extensions>
      <osmand:color>#10c0f0</osmand:color>
      <osmand:background>square</osmand:background>
      <osmand:icon>public_bookcase</osmand:icon>
    </extensions>
  </wpt>
  <wpt lat="46.57426" lon="0.33813">
    <name>Poitiers z20491</name>
    <type>ZoneLivre Nouvelle-Aquitaine</type>
    <extensions>
      <osmand:color>#10c0f0</osmand:color>
      <osmand:background>square</osmand:background>
      <osmand:icon>public_bookcase</osmand:icon>
    </extensions>
  </wpt>
  <wpt lat="44.54585" lon="-0.35634">
    <name>Bommes z20454</name>
    <type>ZoneLivre Nouvelle-Aquitaine</type>
    <extensions>
      <osmand:color>#10c0f0</osmand:color>
      <osmand:background>square</osmand:background>
      <osmand:icon>public_bookcase</osmand:icon>
    </extensions>
  </wpt>
  <wpt lat="44.96288" lon="-0.88543">
    <name>Sainte-Hélène z20452</name>
    <type>ZoneLivre Nouvelle-Aquitaine</type>
    <extensions>
      <osmand:color>#10c0f0</osmand:color>
      <osmand:background>square</osmand:background>
      <osmand:icon>public_bookcase</osmand:icon>
    </extensions>
  </wpt>
  <wpt lat="45.20303" lon="-0.8355">
    <name>Saint-Sauveur z20450</name>
    <type>ZoneLivre Nouvelle-Aquitaine</type>
    <extensions>
      <osmand:color>#10c0f0</osmand:color>
      <osmand:background>square</osmand:background>
      <osmand:icon>public_bookcase</osmand:icon>
    </extensions>
  </wpt>
  <wpt lat="45.9062" lon="1.50658">
    <name>Le Châtenet-en-Dognon z20272</name>
    <type>ZoneLivre Nouvelle-Aquitaine</type>
    <extensions>
      <osmand:color>#10c0f0</osmand:color>
      <osmand:background>square</osmand:background>
      <osmand:icon>public_bookcase</osmand:icon>
    </extensions>
  </wpt>
  <wpt lat="45.83074" lon="1.57047">
    <name>Champnétery z20270</name>
    <type>ZoneLivre Nouvelle-Aquitaine</type>
    <extensions>
      <osmand:color>#10c0f0</osmand:color>
      <osmand:background>square</osmand:background>
      <osmand:icon>public_bookcase</osmand:icon>
    </extensions>
  </wpt>
  <wpt lat="46.12132" lon="1.73485">
    <name>Montaigut-le-Blanc (23) z20268</name>
    <type>ZoneLivre Nouvelle-Aquitaine</type>
    <extensions>
      <osmand:color>#10c0f0</osmand:color>
      <osmand:background>square</osmand:background>
      <osmand:icon>public_bookcase</osmand:icon>
    </extensions>
  </wpt>
  <wpt lat="45.99405" lon="2.20863">
    <name>Saint-Maixant z20266</name>
    <type>ZoneLivre Nouvelle-Aquitaine</type>
    <extensions>
      <osmand:color>#10c0f0</osmand:color>
      <osmand:background>square</osmand:background>
      <osmand:icon>public_bookcase</osmand:icon>
    </extensions>
  </wpt>
  <wpt lat="46.17615" lon="2.55076">
    <name>Chambonchard z20264</name>
    <type>ZoneLivre Nouvelle-Aquitaine</type>
    <extensions>
      <osmand:color>#10c0f0</osmand:color>
      <osmand:background>square</osmand:background>
      <osmand:icon>public_bookcase</osmand:icon>
    </extensions>
  </wpt>
  <wpt lat="45.84627" lon="2.06442">
    <name>La Nouaille z20262</name>
    <type>ZoneLivre Nouvelle-Aquitaine</type>
    <extensions>
      <osmand:color>#10c0f0</osmand:color>
      <osmand:background>square</osmand:background>
      <osmand:icon>public_bookcase</osmand:icon>
    </extensions>
  </wpt>
  <wpt lat="45.88399" lon="2.01993">
    <name>Saint-Yrieix-la-Montagne z20260</name>
    <type>ZoneLivre Nouvelle-Aquitaine</type>
    <extensions>
      <osmand:color>#10c0f0</osmand:color>
      <osmand:background>square</osmand:background>
      <osmand:icon>public_bookcase</osmand:icon>
    </extensions>
  </wpt>
  <wpt lat="46.21204" lon="1.89534">
    <name>Saint-Fiel z20258</name>
    <type>ZoneLivre Nouvelle-Aquitaine</type>
    <extensions>
      <osmand:color>#10c0f0</osmand:color>
      <osmand:background>square</osmand:background>
      <osmand:icon>public_bookcase</osmand:icon>
    </extensions>
  </wpt>
  <wpt lat="46.16609" lon="1.96368">
    <name>Saint-Laurent (23) z20256</name>
    <type>ZoneLivre Nouvelle-Aquitaine</type>
    <extensions>
      <osmand:color>#10c0f0</osmand:color>
      <osmand:background>square</osmand:background>
      <osmand:icon>public_bookcase</osmand:icon>
    </extensions>
  </wpt>
  <wpt lat="45.5981" lon="1.92698">
    <name>Bugeat z20254</name>
    <type>ZoneLivre Nouvelle-Aquitaine</type>
    <extensions>
      <osmand:color>#10c0f0</osmand:color>
      <osmand:background>square</osmand:background>
      <osmand:icon>public_bookcase</osmand:icon>
    </extensions>
  </wpt>
  <wpt lat="43.18447" lon="-0.11524">
    <name>Pontacq z20252</name>
    <type>ZoneLivre Nouvelle-Aquitaine</type>
    <extensions>
      <osmand:color>#10c0f0</osmand:color>
      <osmand:background>square</osmand:background>
      <osmand:icon>public_bookcase</osmand:icon>
    </extensions>
  </wpt>
  <wpt lat="46.10747" lon="2.50017">
    <name>Fontanières z20242</name>
    <type>ZoneLivre Nouvelle-Aquitaine</type>
    <extensions>
      <osmand:color>#10c0f0</osmand:color>
      <osmand:background>square</osmand:background>
      <osmand:icon>public_bookcase</osmand:icon>
    </extensions>
  </wpt>
  <wpt lat="46.72798" lon="0.65329">
    <name>Chenevelles z20114</name>
    <type>ZoneLivre Nouvelle-Aquitaine</type>
    <extensions>
      <osmand:color>#10c0f0</osmand:color>
      <osmand:background>square</osmand:background>
      <osmand:icon>public_bookcase</osmand:icon>
    </extensions>
  </wpt>
  <wpt lat="46.80709" lon="0.74245">
    <name>Coussay-les-Bois z20110</name>
    <type>ZoneLivre Nouvelle-Aquitaine</type>
    <extensions>
      <osmand:color>#10c0f0</osmand:color>
      <osmand:background>square</osmand:background>
      <osmand:icon>public_bookcase</osmand:icon>
    </extensions>
  </wpt>
  <wpt lat="46.80806" lon="0.74259">
    <name>Coussay-les-Bois z20108</name>
    <type>ZoneLivre Nouvelle-Aquitaine</type>
    <extensions>
      <osmand:color>#10c0f0</osmand:color>
      <osmand:background>square</osmand:background>
      <osmand:icon>public_bookcase</osmand:icon>
    </extensions>
  </wpt>
  <wpt lat="46.84959" lon="0.76646">
    <name>Lésigny z20106</name>
    <type>ZoneLivre Nouvelle-Aquitaine</type>
    <extensions>
      <osmand:color>#10c0f0</osmand:color>
      <osmand:background>square</osmand:background>
      <osmand:icon>public_bookcase</osmand:icon>
    </extensions>
  </wpt>
  <wpt lat="46.858439" lon="0.749597">
    <name>Mairé z20104</name>
    <type>ZoneLivre Nouvelle-Aquitaine</type>
    <extensions>
      <osmand:color>#10c0f0</osmand:color>
      <osmand:background>square</osmand:background>
      <osmand:icon>public_bookcase</osmand:icon>
    </extensions>
  </wpt>
  <wpt lat="46.97174" lon="0.6927">
    <name>Buxeuil z20100</name>
    <type>ZoneLivre Nouvelle-Aquitaine</type>
    <extensions>
      <osmand:color>#10c0f0</osmand:color>
      <osmand:background>square</osmand:background>
      <osmand:icon>public_bookcase</osmand:icon>
    </extensions>
  </wpt>
  <wpt lat="46.12777" lon="-1.07194">
    <name>La Jarne z20094</name>
    <type>ZoneLivre Nouvelle-Aquitaine</type>
    <extensions>
      <osmand:color>#10c0f0</osmand:color>
      <osmand:background>square</osmand:background>
      <osmand:icon>public_bookcase</osmand:icon>
    </extensions>
  </wpt>
  <wpt lat="46.10482" lon="-1.05307">
    <name>Salles-sur-mer z20092</name>
    <type>ZoneLivre Nouvelle-Aquitaine</type>
    <extensions>
      <osmand:color>#10c0f0</osmand:color>
      <osmand:background>square</osmand:background>
      <osmand:icon>public_bookcase</osmand:icon>
    </extensions>
  </wpt>
  <wpt lat="44.39469" lon="-1.16251">
    <name>Biscarrosse z20073</name>
    <type>ZoneLivre Nouvelle-Aquitaine</type>
    <extensions>
      <osmand:color>#10c0f0</osmand:color>
      <osmand:background>square</osmand:background>
      <osmand:icon>public_bookcase</osmand:icon>
    </extensions>
  </wpt>
  <wpt lat="44.44456" lon="-1.25119">
    <name>Biscarrosse z20071</name>
    <type>ZoneLivre Nouvelle-Aquitaine</type>
    <extensions>
      <osmand:color>#10c0f0</osmand:color>
      <osmand:background>square</osmand:background>
      <osmand:icon>public_bookcase</osmand:icon>
    </extensions>
  </wpt>
  <wpt lat="46.77827" lon="0.61372">
    <name>Senillé-Saint-Sauveur z20050</name>
    <type>ZoneLivre Nouvelle-Aquitaine</type>
    <extensions>
      <osmand:color>#10c0f0</osmand:color>
      <osmand:background>square</osmand:background>
      <osmand:icon>public_bookcase</osmand:icon>
    </extensions>
  </wpt>
  <wpt lat="46.587184" lon="0.341157">
    <name>Poitiers z20048</name>
    <type>ZoneLivre Nouvelle-Aquitaine</type>
    <extensions>
      <osmand:color>#10c0f0</osmand:color>
      <osmand:background>square</osmand:background>
      <osmand:icon>public_bookcase</osmand:icon>
    </extensions>
  </wpt>
  <wpt lat="46.34062" lon="0.21087">
    <name>Valence-en-Poitou z20045</name>
    <type>ZoneLivre Nouvelle-Aquitaine</type>
    <extensions>
      <osmand:color>#10c0f0</osmand:color>
      <osmand:background>square</osmand:background>
      <osmand:icon>public_bookcase</osmand:icon>
    </extensions>
  </wpt>
  <wpt lat="46.35702" lon="0.05564">
    <name>Saint-Sauvant z20043</name>
    <type>ZoneLivre Nouvelle-Aquitaine</type>
    <extensions>
      <osmand:color>#10c0f0</osmand:color>
      <osmand:background>square</osmand:background>
      <osmand:icon>public_bookcase</osmand:icon>
    </extensions>
  </wpt>
  <wpt lat="46.58958" lon="0.33282">
    <name>Poitiers z20041</name>
    <type>ZoneLivre Nouvelle-Aquitaine</type>
    <extensions>
      <osmand:color>#10c0f0</osmand:color>
      <osmand:background>square</osmand:background>
      <osmand:icon>public_bookcase</osmand:icon>
    </extensions>
  </wpt>
  <wpt lat="46.00012" lon="0.22714">
    <name>Barro z20038</name>
    <type>ZoneLivre Nouvelle-Aquitaine</type>
    <extensions>
      <osmand:color>#10c0f0</osmand:color>
      <osmand:background>square</osmand:background>
      <osmand:icon>public_bookcase</osmand:icon>
    </extensions>
  </wpt>
  <wpt lat="46.38101" lon="-0.39393">
    <name>Saint-Gelais z19894</name>
    <type>ZoneLivre Nouvelle-Aquitaine</type>
    <extensions>
      <osmand:color>#10c0f0</osmand:color>
      <osmand:background>square</osmand:background>
      <osmand:icon>public_bookcase</osmand:icon>
    </extensions>
  </wpt>
  <wpt lat="45.03128" lon="-0.27897">
    <name>Saint-Ciers-d'Abzac z19837</name>
    <type>ZoneLivre Nouvelle-Aquitaine</type>
    <extensions>
      <osmand:color>#10c0f0</osmand:color>
      <osmand:background>square</osmand:background>
      <osmand:icon>public_bookcase</osmand:icon>
    </extensions>
  </wpt>
  <wpt lat="44.75493" lon="-0.48825">
    <name>Quinsac z19785</name>
    <type>ZoneLivre Nouvelle-Aquitaine</type>
    <extensions>
      <osmand:color>#10c0f0</osmand:color>
      <osmand:background>square</osmand:background>
      <osmand:icon>public_bookcase</osmand:icon>
    </extensions>
  </wpt>
  <wpt lat="46.13268" lon="-1.1205">
    <name>Aytré z19710</name>
    <type>ZoneLivre Nouvelle-Aquitaine</type>
    <extensions>
      <osmand:color>#10c0f0</osmand:color>
      <osmand:background>square</osmand:background>
      <osmand:icon>public_bookcase</osmand:icon>
    </extensions>
  </wpt>
  <wpt lat="46.20529" lon="-1.10125">
    <name>Saint-Xandre z19708</name>
    <type>ZoneLivre Nouvelle-Aquitaine</type>
    <extensions>
      <osmand:color>#10c0f0</osmand:color>
      <osmand:background>square</osmand:background>
      <osmand:icon>public_bookcase</osmand:icon>
    </extensions>
  </wpt>
  <wpt lat="46.20227" lon="-1.10266">
    <name>Saint-Xandre z19706</name>
    <type>ZoneLivre Nouvelle-Aquitaine</type>
    <extensions>
      <osmand:color>#10c0f0</osmand:color>
      <osmand:background>square</osmand:background>
      <osmand:icon>public_bookcase</osmand:icon>
    </extensions>
  </wpt>
  <wpt lat="46.22479" lon="-1.03506">
    <name>Saint-Ouen-d'Aunis z19704</name>
    <type>ZoneLivre Nouvelle-Aquitaine</type>
    <extensions>
      <osmand:color>#10c0f0</osmand:color>
      <osmand:background>square</osmand:background>
      <osmand:icon>public_bookcase</osmand:icon>
    </extensions>
  </wpt>
  <wpt lat="46.22602" lon="-0.9934">
    <name>Longèves z19702</name>
    <type>ZoneLivre Nouvelle-Aquitaine</type>
    <extensions>
      <osmand:color>#10c0f0</osmand:color>
      <osmand:background>square</osmand:background>
      <osmand:icon>public_bookcase</osmand:icon>
    </extensions>
  </wpt>
  <wpt lat="46.19271" lon="-0.96456">
    <name>Vérines z19700</name>
    <type>ZoneLivre Nouvelle-Aquitaine</type>
    <extensions>
      <osmand:color>#10c0f0</osmand:color>
      <osmand:background>square</osmand:background>
      <osmand:icon>public_bookcase</osmand:icon>
    </extensions>
  </wpt>
  <wpt lat="46.19401" lon="-0.96809">
    <name>Vérines z19698</name>
    <type>ZoneLivre Nouvelle-Aquitaine</type>
    <extensions>
      <osmand:color>#10c0f0</osmand:color>
      <osmand:background>square</osmand:background>
      <osmand:icon>public_bookcase</osmand:icon>
    </extensions>
  </wpt>
  <wpt lat="46.15652" lon="-1.0133">
    <name>Montroy z19696</name>
    <type>ZoneLivre Nouvelle-Aquitaine</type>
    <extensions>
      <osmand:color>#10c0f0</osmand:color>
      <osmand:background>square</osmand:background>
      <osmand:icon>public_bookcase</osmand:icon>
    </extensions>
  </wpt>
  <wpt lat="46.11749" lon="-1.02391">
    <name>La Jarrie z19694</name>
    <type>ZoneLivre Nouvelle-Aquitaine</type>
    <extensions>
      <osmand:color>#10c0f0</osmand:color>
      <osmand:background>square</osmand:background>
      <osmand:icon>public_bookcase</osmand:icon>
    </extensions>
  </wpt>
  <wpt lat="44.69706" lon="-0.14803">
    <name>Saint-Brice z19688</name>
    <type>ZoneLivre Nouvelle-Aquitaine</type>
    <extensions>
      <osmand:color>#10c0f0</osmand:color>
      <osmand:background>square</osmand:background>
      <osmand:icon>public_bookcase</osmand:icon>
    </extensions>
  </wpt>
  <wpt lat="44.82535" lon="-0.55649">
    <name>Bordeaux z19686</name>
    <type>ZoneLivre Nouvelle-Aquitaine</type>
    <extensions>
      <osmand:color>#10c0f0</osmand:color>
      <osmand:background>square</osmand:background>
      <osmand:icon>public_bookcase</osmand:icon>
    </extensions>
  </wpt>
  <wpt lat="44.87003" lon="-0.55031">
    <name>Bordeaux z19683</name>
    <type>ZoneLivre Nouvelle-Aquitaine</type>
    <extensions>
      <osmand:color>#10c0f0</osmand:color>
      <osmand:background>square</osmand:background>
      <osmand:icon>public_bookcase</osmand:icon>
    </extensions>
  </wpt>
  <wpt lat="44.821345" lon="-0.545202">
    <name>Bordeaux z19679</name>
    <type>ZoneLivre Nouvelle-Aquitaine</type>
    <extensions>
      <osmand:color>#10c0f0</osmand:color>
      <osmand:background>square</osmand:background>
      <osmand:icon>public_bookcase</osmand:icon>
    </extensions>
  </wpt>
  <wpt lat="44.81656" lon="-0.5448">
    <name>Bègles z19677</name>
    <type>ZoneLivre Nouvelle-Aquitaine</type>
    <extensions>
      <osmand:color>#10c0f0</osmand:color>
      <osmand:background>square</osmand:background>
      <osmand:icon>public_bookcase</osmand:icon>
    </extensions>
  </wpt>
  <wpt lat="44.80764" lon="-0.54067">
    <name>Bègles z19675</name>
    <type>ZoneLivre Nouvelle-Aquitaine</type>
    <extensions>
      <osmand:color>#10c0f0</osmand:color>
      <osmand:background>square</osmand:background>
      <osmand:icon>public_bookcase</osmand:icon>
    </extensions>
  </wpt>
  <wpt lat="44.81467" lon="-0.55011">
    <name>Bègles z19673</name>
    <type>ZoneLivre Nouvelle-Aquitaine</type>
    <extensions>
      <osmand:color>#10c0f0</osmand:color>
      <osmand:background>square</osmand:background>
      <osmand:icon>public_bookcase</osmand:icon>
    </extensions>
  </wpt>
  <wpt lat="45.64876" lon="0.14511">
    <name>Angoulême z19671</name>
    <type>ZoneLivre Nouvelle-Aquitaine</type>
    <extensions>
      <osmand:color>#10c0f0</osmand:color>
      <osmand:background>square</osmand:background>
      <osmand:icon>public_bookcase</osmand:icon>
    </extensions>
  </wpt>
  <wpt lat="45.86817" lon="0.05232">
    <name>Ambérac z19657</name>
    <type>ZoneLivre Nouvelle-Aquitaine</type>
    <extensions>
      <osmand:color>#10c0f0</osmand:color>
      <osmand:background>square</osmand:background>
      <osmand:icon>public_bookcase</osmand:icon>
    </extensions>
  </wpt>
  <wpt lat="46.43714" lon="0.60101">
    <name>Lhommaizé z19645</name>
    <type>ZoneLivre Nouvelle-Aquitaine</type>
    <extensions>
      <osmand:color>#10c0f0</osmand:color>
      <osmand:background>square</osmand:background>
      <osmand:icon>public_bookcase</osmand:icon>
    </extensions>
  </wpt>
  <wpt lat="46.18442" lon="-0.9757">
    <name>Sainte-Soulle z19636</name>
    <type>ZoneLivre Nouvelle-Aquitaine</type>
    <extensions>
      <osmand:color>#10c0f0</osmand:color>
      <osmand:background>square</osmand:background>
      <osmand:icon>public_bookcase</osmand:icon>
    </extensions>
  </wpt>
  <wpt lat="46.57831" lon="0.27595">
    <name>Vouneuil-sous-Biard z19443</name>
    <type>ZoneLivre Nouvelle-Aquitaine</type>
    <extensions>
      <osmand:color>#10c0f0</osmand:color>
      <osmand:background>square</osmand:background>
      <osmand:icon>public_bookcase</osmand:icon>
    </extensions>
  </wpt>
  <wpt lat="46.572955" lon="0.272807">
    <name>Vouneuil-sous-Biard z19441</name>
    <type>ZoneLivre Nouvelle-Aquitaine</type>
    <extensions>
      <osmand:color>#10c0f0</osmand:color>
      <osmand:background>square</osmand:background>
      <osmand:icon>public_bookcase</osmand:icon>
    </extensions>
  </wpt>
  <wpt lat="46.8427" lon="-0.51151">
    <name>Bressuire z19439</name>
    <type>ZoneLivre Nouvelle-Aquitaine</type>
    <extensions>
      <osmand:color>#10c0f0</osmand:color>
      <osmand:background>square</osmand:background>
      <osmand:icon>public_bookcase</osmand:icon>
    </extensions>
  </wpt>
  <wpt lat="46.60702" lon="0.27194">
    <name>Vouneuil-sous-Biard z19437</name>
    <type>ZoneLivre Nouvelle-Aquitaine</type>
    <extensions>
      <osmand:color>#10c0f0</osmand:color>
      <osmand:background>square</osmand:background>
      <osmand:icon>public_bookcase</osmand:icon>
    </extensions>
  </wpt>
  <wpt lat="46.60578" lon="0.27706">
    <name>Vouneuil-sous-Biard z19432</name>
    <type>ZoneLivre Nouvelle-Aquitaine</type>
    <extensions>
      <osmand:color>#10c0f0</osmand:color>
      <osmand:background>square</osmand:background>
      <osmand:icon>public_bookcase</osmand:icon>
    </extensions>
  </wpt>
  <wpt lat="45.8941" lon="0.02784">
    <name>Aigre z19413</name>
    <type>ZoneLivre Nouvelle-Aquitaine</type>
    <extensions>
      <osmand:color>#10c0f0</osmand:color>
      <osmand:background>square</osmand:background>
      <osmand:icon>public_bookcase</osmand:icon>
    </extensions>
  </wpt>
  <wpt lat="45.01866" lon="1.14321">
    <name>Valojoulx z19354</name>
    <type>ZoneLivre Nouvelle-Aquitaine</type>
    <extensions>
      <osmand:color>#10c0f0</osmand:color>
      <osmand:background>square</osmand:background>
      <osmand:icon>public_bookcase</osmand:icon>
    </extensions>
  </wpt>
  <wpt lat="46.72306" lon="0.05712">
    <name>Maisonneuve z19339</name>
    <type>ZoneLivre Nouvelle-Aquitaine</type>
    <extensions>
      <osmand:color>#10c0f0</osmand:color>
      <osmand:background>square</osmand:background>
      <osmand:icon>public_bookcase</osmand:icon>
    </extensions>
  </wpt>
  <wpt lat="46.71931" lon="-0.02555">
    <name>Thénezay z19337</name>
    <type>ZoneLivre Nouvelle-Aquitaine</type>
    <extensions>
      <osmand:color>#10c0f0</osmand:color>
      <osmand:background>square</osmand:background>
      <osmand:icon>public_bookcase</osmand:icon>
    </extensions>
  </wpt>
  <wpt lat="46.70442" lon="-0.11921">
    <name>Lhoumois z19335</name>
    <type>ZoneLivre Nouvelle-Aquitaine</type>
    <extensions>
      <osmand:color>#10c0f0</osmand:color>
      <osmand:background>square</osmand:background>
      <osmand:icon>public_bookcase</osmand:icon>
    </extensions>
  </wpt>
  <wpt lat="46.67468" lon="-0.14809">
    <name>La Peyratte z19332</name>
    <type>ZoneLivre Nouvelle-Aquitaine</type>
    <extensions>
      <osmand:color>#10c0f0</osmand:color>
      <osmand:background>square</osmand:background>
      <osmand:icon>public_bookcase</osmand:icon>
    </extensions>
  </wpt>
  <wpt lat="46.5705" lon="0.38197">
    <name>Poitiers z19327</name>
    <type>ZoneLivre Nouvelle-Aquitaine</type>
    <extensions>
      <osmand:color>#10c0f0</osmand:color>
      <osmand:background>square</osmand:background>
      <osmand:icon>public_bookcase</osmand:icon>
    </extensions>
  </wpt>
  <wpt lat="46.12652" lon="-1.00818">
    <name>La Jarrie z19301</name>
    <type>ZoneLivre Nouvelle-Aquitaine</type>
    <extensions>
      <osmand:color>#10c0f0</osmand:color>
      <osmand:background>square</osmand:background>
      <osmand:icon>public_bookcase</osmand:icon>
    </extensions>
  </wpt>
  <wpt lat="46.92375" lon="-0.74939">
    <name>Mauléon z19291</name>
    <type>ZoneLivre Nouvelle-Aquitaine</type>
    <extensions>
      <osmand:color>#10c0f0</osmand:color>
      <osmand:background>square</osmand:background>
      <osmand:icon>public_bookcase</osmand:icon>
    </extensions>
  </wpt>
  <wpt lat="45.8947" lon="0.20075">
    <name>Fontclaireau z19289</name>
    <type>ZoneLivre Nouvelle-Aquitaine</type>
    <extensions>
      <osmand:color>#10c0f0</osmand:color>
      <osmand:background>square</osmand:background>
      <osmand:icon>public_bookcase</osmand:icon>
    </extensions>
  </wpt>
  <wpt lat="46.02051" lon="0.14585">
    <name>La Faye z19287</name>
    <type>ZoneLivre Nouvelle-Aquitaine</type>
    <extensions>
      <osmand:color>#10c0f0</osmand:color>
      <osmand:background>square</osmand:background>
      <osmand:icon>public_bookcase</osmand:icon>
    </extensions>
  </wpt>
  <wpt lat="45.921528" lon="0.110161">
    <name>Ligné z19285</name>
    <type>ZoneLivre Nouvelle-Aquitaine</type>
    <extensions>
      <osmand:color>#10c0f0</osmand:color>
      <osmand:background>square</osmand:background>
      <osmand:icon>public_bookcase</osmand:icon>
    </extensions>
  </wpt>
  <wpt lat="45.93004" lon="0.14316">
    <name>Juillé z19283</name>
    <type>ZoneLivre Nouvelle-Aquitaine</type>
    <extensions>
      <osmand:color>#10c0f0</osmand:color>
      <osmand:background>square</osmand:background>
      <osmand:icon>public_bookcase</osmand:icon>
    </extensions>
  </wpt>
  <wpt lat="45.93387" lon="0.14775">
    <name>Juillé z19281</name>
    <type>ZoneLivre Nouvelle-Aquitaine</type>
    <extensions>
      <osmand:color>#10c0f0</osmand:color>
      <osmand:background>square</osmand:background>
      <osmand:icon>public_bookcase</osmand:icon>
    </extensions>
  </wpt>
  <wpt lat="45.91769" lon="0.16569">
    <name>Fontenille z19279</name>
    <type>ZoneLivre Nouvelle-Aquitaine</type>
    <extensions>
      <osmand:color>#10c0f0</osmand:color>
      <osmand:background>square</osmand:background>
      <osmand:icon>public_bookcase</osmand:icon>
    </extensions>
  </wpt>
  <wpt lat="45.85205" lon="0.29373">
    <name>Saint-Amant-de-Bonnieure z19276</name>
    <type>ZoneLivre Nouvelle-Aquitaine</type>
    <extensions>
      <osmand:color>#10c0f0</osmand:color>
      <osmand:background>square</osmand:background>
      <osmand:icon>public_bookcase</osmand:icon>
    </extensions>
  </wpt>
  <wpt lat="46.35536" lon="-0.02228">
    <name>Exoudun z19272</name>
    <type>ZoneLivre Nouvelle-Aquitaine</type>
    <extensions>
      <osmand:color>#10c0f0</osmand:color>
      <osmand:background>square</osmand:background>
      <osmand:icon>public_bookcase</osmand:icon>
    </extensions>
  </wpt>
  <wpt lat="44.99383" lon="1.0594">
    <name>Peyzac-le-Moustier z19258</name>
    <type>ZoneLivre Nouvelle-Aquitaine</type>
    <extensions>
      <osmand:color>#10c0f0</osmand:color>
      <osmand:background>square</osmand:background>
      <osmand:icon>public_bookcase</osmand:icon>
    </extensions>
  </wpt>
  <wpt lat="43.38716" lon="-1.65926">
    <name>Saint-Jean-de-Luz z19250</name>
    <type>ZoneLivre Nouvelle-Aquitaine</type>
    <extensions>
      <osmand:color>#10c0f0</osmand:color>
      <osmand:background>square</osmand:background>
      <osmand:icon>public_bookcase</osmand:icon>
    </extensions>
  </wpt>
  <wpt lat="43.72284" lon="-1.05181">
    <name>Saint-Paul-lès-Dax z19248</name>
    <type>ZoneLivre Nouvelle-Aquitaine</type>
    <extensions>
      <osmand:color>#10c0f0</osmand:color>
      <osmand:background>square</osmand:background>
      <osmand:icon>public_bookcase</osmand:icon>
    </extensions>
  </wpt>
  <wpt lat="44.84084" lon="1.27555">
    <name>Carsac-Aillac z19239</name>
    <type>ZoneLivre Nouvelle-Aquitaine</type>
    <extensions>
      <osmand:color>#10c0f0</osmand:color>
      <osmand:background>square</osmand:background>
      <osmand:icon>public_bookcase</osmand:icon>
    </extensions>
  </wpt>
  <wpt lat="44.82069" lon="1.29026">
    <name>Groléjac z19237</name>
    <type>ZoneLivre Nouvelle-Aquitaine</type>
    <extensions>
      <osmand:color>#10c0f0</osmand:color>
      <osmand:background>square</osmand:background>
      <osmand:icon>public_bookcase</osmand:icon>
    </extensions>
  </wpt>
  <wpt lat="46.360525" lon="-0.113393">
    <name>La Mothe-Saint-Héray z19229</name>
    <type>ZoneLivre Nouvelle-Aquitaine</type>
    <extensions>
      <osmand:color>#10c0f0</osmand:color>
      <osmand:background>square</osmand:background>
      <osmand:icon>public_bookcase</osmand:icon>
    </extensions>
  </wpt>
  <wpt lat="46.77771" lon="-0.24954">
    <name>Maisontiers z19227</name>
    <type>ZoneLivre Nouvelle-Aquitaine</type>
    <extensions>
      <osmand:color>#10c0f0</osmand:color>
      <osmand:background>square</osmand:background>
      <osmand:icon>public_bookcase</osmand:icon>
    </extensions>
  </wpt>
  <wpt lat="45.05027" lon="0.97462">
    <name>Rouffignac-Saint-Cernin-de-Reilhac z19218</name>
    <type>ZoneLivre Nouvelle-Aquitaine</type>
    <extensions>
      <osmand:color>#10c0f0</osmand:color>
      <osmand:background>square</osmand:background>
      <osmand:icon>public_bookcase</osmand:icon>
    </extensions>
  </wpt>
  <wpt lat="46.01275" lon="-0.4354">
    <name>Nuaillé-sur-Boutonne z19213</name>
    <type>ZoneLivre Nouvelle-Aquitaine</type>
    <extensions>
      <osmand:color>#10c0f0</osmand:color>
      <osmand:background>square</osmand:background>
      <osmand:icon>public_bookcase</osmand:icon>
    </extensions>
  </wpt>
  <wpt lat="45.8937" lon="0.28818">
    <name>Saint-Front z19201</name>
    <type>ZoneLivre Nouvelle-Aquitaine</type>
    <extensions>
      <osmand:color>#10c0f0</osmand:color>
      <osmand:background>square</osmand:background>
      <osmand:icon>public_bookcase</osmand:icon>
    </extensions>
  </wpt>
  <wpt lat="45.88714" lon="0.30831">
    <name>Valence z19199</name>
    <type>ZoneLivre Nouvelle-Aquitaine</type>
    <extensions>
      <osmand:color>#10c0f0</osmand:color>
      <osmand:background>square</osmand:background>
      <osmand:icon>public_bookcase</osmand:icon>
    </extensions>
  </wpt>
  <wpt lat="45.833845" lon="0.317804">
    <name>Sainte-Colombe z19197</name>
    <type>ZoneLivre Nouvelle-Aquitaine</type>
    <extensions>
      <osmand:color>#10c0f0</osmand:color>
      <osmand:background>square</osmand:background>
      <osmand:icon>public_bookcase</osmand:icon>
    </extensions>
  </wpt>
  <wpt lat="45.843222" lon="0.220577">
    <name>Nanclars z19195</name>
    <type>ZoneLivre Nouvelle-Aquitaine</type>
    <extensions>
      <osmand:color>#10c0f0</osmand:color>
      <osmand:background>square</osmand:background>
      <osmand:icon>public_bookcase</osmand:icon>
    </extensions>
  </wpt>
  <wpt lat="45.85008" lon="0.17644">
    <name>Maine-de-Boixe z19193</name>
    <type>ZoneLivre Nouvelle-Aquitaine</type>
    <extensions>
      <osmand:color>#10c0f0</osmand:color>
      <osmand:background>square</osmand:background>
      <osmand:icon>public_bookcase</osmand:icon>
    </extensions>
  </wpt>
  <wpt lat="46.58898" lon="0.35894">
    <name>Poitiers z19145</name>
    <type>ZoneLivre Nouvelle-Aquitaine</type>
    <extensions>
      <osmand:color>#10c0f0</osmand:color>
      <osmand:background>square</osmand:background>
      <osmand:icon>public_bookcase</osmand:icon>
    </extensions>
  </wpt>
  <wpt lat="45.876796" lon="0.17959">
    <name>Mansle-les-Fontaines z19101</name>
    <type>ZoneLivre Nouvelle-Aquitaine</type>
    <extensions>
      <osmand:color>#10c0f0</osmand:color>
      <osmand:background>square</osmand:background>
      <osmand:icon>public_bookcase</osmand:icon>
    </extensions>
  </wpt>
  <wpt lat="45.827981" lon="0.222626">
    <name>Aussac-Vadalle z19099</name>
    <type>ZoneLivre Nouvelle-Aquitaine</type>
    <extensions>
      <osmand:color>#10c0f0</osmand:color>
      <osmand:background>square</osmand:background>
      <osmand:icon>public_bookcase</osmand:icon>
    </extensions>
  </wpt>
  <wpt lat="45.847052" lon="0.287852">
    <name>Saint-Angeau z19097</name>
    <type>ZoneLivre Nouvelle-Aquitaine</type>
    <extensions>
      <osmand:color>#10c0f0</osmand:color>
      <osmand:background>square</osmand:background>
      <osmand:icon>public_bookcase</osmand:icon>
    </extensions>
  </wpt>
  <wpt lat="45.89138" lon="0.24224">
    <name>Mouton z19094</name>
    <type>ZoneLivre Nouvelle-Aquitaine</type>
    <extensions>
      <osmand:color>#10c0f0</osmand:color>
      <osmand:background>square</osmand:background>
      <osmand:icon>public_bookcase</osmand:icon>
    </extensions>
  </wpt>
  <wpt lat="46.130257" lon="0.171661">
    <name>Limalonges z19092</name>
    <type>ZoneLivre Nouvelle-Aquitaine</type>
    <extensions>
      <osmand:color>#10c0f0</osmand:color>
      <osmand:background>square</osmand:background>
      <osmand:icon>public_bookcase</osmand:icon>
    </extensions>
  </wpt>
  <wpt lat="46.133664" lon="0.113921">
    <name>Sauzé-Vaussais z19090</name>
    <type>ZoneLivre Nouvelle-Aquitaine</type>
    <extensions>
      <osmand:color>#10c0f0</osmand:color>
      <osmand:background>square</osmand:background>
      <osmand:icon>public_bookcase</osmand:icon>
    </extensions>
  </wpt>
  <wpt lat="46.132977" lon="0.106811">
    <name>Sauzé-Vaussais z19088</name>
    <type>ZoneLivre Nouvelle-Aquitaine</type>
    <extensions>
      <osmand:color>#10c0f0</osmand:color>
      <osmand:background>square</osmand:background>
      <osmand:icon>public_bookcase</osmand:icon>
    </extensions>
  </wpt>
  <wpt lat="46.134759" lon="0.062648">
    <name>La Chapelle-Pouilloux z19086</name>
    <type>ZoneLivre Nouvelle-Aquitaine</type>
    <extensions>
      <osmand:color>#10c0f0</osmand:color>
      <osmand:background>square</osmand:background>
      <osmand:icon>public_bookcase</osmand:icon>
    </extensions>
  </wpt>
  <wpt lat="46.13129" lon="0.00387">
    <name>Melleran z19084</name>
    <type>ZoneLivre Nouvelle-Aquitaine</type>
    <extensions>
      <osmand:color>#10c0f0</osmand:color>
      <osmand:background>square</osmand:background>
      <osmand:icon>public_bookcase</osmand:icon>
    </extensions>
  </wpt>
  <wpt lat="46.12912" lon="-0.00073">
    <name>Melleran z19082</name>
    <type>ZoneLivre Nouvelle-Aquitaine</type>
    <extensions>
      <osmand:color>#10c0f0</osmand:color>
      <osmand:background>square</osmand:background>
      <osmand:icon>public_bookcase</osmand:icon>
    </extensions>
  </wpt>
  <wpt lat="46.22315" lon="-0.16169">
    <name>Melle z19078</name>
    <type>ZoneLivre Nouvelle-Aquitaine</type>
    <extensions>
      <osmand:color>#10c0f0</osmand:color>
      <osmand:background>square</osmand:background>
      <osmand:icon>public_bookcase</osmand:icon>
    </extensions>
  </wpt>
  <wpt lat="46.223853" lon="-0.156311">
    <name>Melle z19076</name>
    <type>ZoneLivre Nouvelle-Aquitaine</type>
    <extensions>
      <osmand:color>#10c0f0</osmand:color>
      <osmand:background>square</osmand:background>
      <osmand:icon>public_bookcase</osmand:icon>
    </extensions>
  </wpt>
  <wpt lat="46.22622" lon="-0.14239">
    <name>Melle z19074</name>
    <type>ZoneLivre Nouvelle-Aquitaine</type>
    <extensions>
      <osmand:color>#10c0f0</osmand:color>
      <osmand:background>square</osmand:background>
      <osmand:icon>public_bookcase</osmand:icon>
    </extensions>
  </wpt>
  <wpt lat="46.110069" lon="-0.073801">
    <name>Chef-Boutonne z19073</name>
    <type>ZoneLivre Nouvelle-Aquitaine</type>
    <extensions>
      <osmand:color>#10c0f0</osmand:color>
      <osmand:background>square</osmand:background>
      <osmand:icon>public_bookcase</osmand:icon>
    </extensions>
  </wpt>
  <wpt lat="46.22241" lon="-0.14311">
    <name>Melle z19071</name>
    <type>ZoneLivre Nouvelle-Aquitaine</type>
    <extensions>
      <osmand:color>#10c0f0</osmand:color>
      <osmand:background>square</osmand:background>
      <osmand:icon>public_bookcase</osmand:icon>
    </extensions>
  </wpt>
  <wpt lat="46.31817" lon="-0.15701">
    <name>Prailles-La Couarde z19069</name>
    <type>ZoneLivre Nouvelle-Aquitaine</type>
    <extensions>
      <osmand:color>#10c0f0</osmand:color>
      <osmand:background>square</osmand:background>
      <osmand:icon>public_bookcase</osmand:icon>
    </extensions>
  </wpt>
  <wpt lat="46.32857" lon="-0.45416">
    <name>Niort z19067</name>
    <type>ZoneLivre Nouvelle-Aquitaine</type>
    <extensions>
      <osmand:color>#10c0f0</osmand:color>
      <osmand:background>square</osmand:background>
      <osmand:icon>public_bookcase</osmand:icon>
    </extensions>
  </wpt>
  <wpt lat="46.35601" lon="-0.4527">
    <name>Niort z19064</name>
    <type>ZoneLivre Nouvelle-Aquitaine</type>
    <extensions>
      <osmand:color>#10c0f0</osmand:color>
      <osmand:background>square</osmand:background>
      <osmand:icon>public_bookcase</osmand:icon>
    </extensions>
  </wpt>
  <wpt lat="46.4074" lon="-0.53416">
    <name>Villiers-en-Plaine z19062</name>
    <type>ZoneLivre Nouvelle-Aquitaine</type>
    <extensions>
      <osmand:color>#10c0f0</osmand:color>
      <osmand:background>square</osmand:background>
      <osmand:icon>public_bookcase</osmand:icon>
    </extensions>
  </wpt>
  <wpt lat="46.84053" lon="0.09204">
    <name>Saint-Jean-de-Sauves z19053</name>
    <type>ZoneLivre Nouvelle-Aquitaine</type>
    <extensions>
      <osmand:color>#10c0f0</osmand:color>
      <osmand:background>square</osmand:background>
      <osmand:icon>public_bookcase</osmand:icon>
    </extensions>
  </wpt>
  <wpt lat="46.78115" lon="0.18004">
    <name>Mirebeau z19051</name>
    <type>ZoneLivre Nouvelle-Aquitaine</type>
    <extensions>
      <osmand:color>#10c0f0</osmand:color>
      <osmand:background>square</osmand:background>
      <osmand:icon>public_bookcase</osmand:icon>
    </extensions>
  </wpt>
  <wpt lat="44.864518" lon="-0.570342">
    <name>Bordeaux z19047</name>
    <type>ZoneLivre Nouvelle-Aquitaine</type>
    <extensions>
      <osmand:color>#10c0f0</osmand:color>
      <osmand:background>square</osmand:background>
      <osmand:icon>public_bookcase</osmand:icon>
    </extensions>
  </wpt>
  <wpt lat="44.85952" lon="-0.56154">
    <name>Bordeaux z19045</name>
    <type>ZoneLivre Nouvelle-Aquitaine</type>
    <extensions>
      <osmand:color>#10c0f0</osmand:color>
      <osmand:background>square</osmand:background>
      <osmand:icon>public_bookcase</osmand:icon>
    </extensions>
  </wpt>
  <wpt lat="44.84429" lon="-0.57356">
    <name>Bordeaux z19043</name>
    <type>ZoneLivre Nouvelle-Aquitaine</type>
    <extensions>
      <osmand:color>#10c0f0</osmand:color>
      <osmand:background>square</osmand:background>
      <osmand:icon>public_bookcase</osmand:icon>
    </extensions>
  </wpt>
  <wpt lat="44.85561" lon="-0.57088">
    <name>Bordeaux z19041</name>
    <type>ZoneLivre Nouvelle-Aquitaine</type>
    <extensions>
      <osmand:color>#10c0f0</osmand:color>
      <osmand:background>square</osmand:background>
      <osmand:icon>public_bookcase</osmand:icon>
    </extensions>
  </wpt>
  <wpt lat="44.8343" lon="-0.56888">
    <name>Bordeaux z19039</name>
    <type>ZoneLivre Nouvelle-Aquitaine</type>
    <extensions>
      <osmand:color>#10c0f0</osmand:color>
      <osmand:background>square</osmand:background>
      <osmand:icon>public_bookcase</osmand:icon>
    </extensions>
  </wpt>
  <wpt lat="44.82683" lon="-0.57026">
    <name>Bordeaux z19037</name>
    <type>ZoneLivre Nouvelle-Aquitaine</type>
    <extensions>
      <osmand:color>#10c0f0</osmand:color>
      <osmand:background>square</osmand:background>
      <osmand:icon>public_bookcase</osmand:icon>
    </extensions>
  </wpt>
  <wpt lat="44.82265" lon="-0.56761">
    <name>Bordeaux z19035</name>
    <type>ZoneLivre Nouvelle-Aquitaine</type>
    <extensions>
      <osmand:color>#10c0f0</osmand:color>
      <osmand:background>square</osmand:background>
      <osmand:icon>public_bookcase</osmand:icon>
    </extensions>
  </wpt>