<?xml version='1.0' encoding='UTF-8' standalone='yes' ?>
<gpx version="1.1" creator="Binnette" xmlns="http://www.topografix.com/GPX/1/1" xmlns:osmand="https://osmand.net" xmlns:xsi="http://www.w3.org/2001/XMLSchema-instance" xsi:schemaLocation="http://www.topografix.com/GPX/1/1 http://www.topografix.com/GPX/1/1/gpx.xsd">
  <wpt lat="44.966206" lon="5.417475">
    <name>La Chapelle-en-Vercors z24433</name>
    <type>ZoneLivre</type>
    <extensions>
      <osmand:color>#10c0f0</osmand:color>
      <osmand:background>square</osmand:background>
      <osmand:icon>public_bookcase</osmand:icon>
    </extensions>
  </wpt>
  <wpt lat="47.556303" lon="6.383057">
    <name>Marast z24430</name>
    <type>ZoneLivre</type>
    <extensions>
      <osmand:color>#10c0f0</osmand:color>
      <osmand:background>square</osmand:background>
      <osmand:icon>public_bookcase</osmand:icon>
    </extensions>
  </wpt>
  <wpt lat="46.549109" lon="0.324016">
    <name>Saint-Benoît z24426</name>
    <type>ZoneLivre</type>
    <extensions>
      <osmand:color>#10c0f0</osmand:color>
      <osmand:background>square</osmand:background>
      <osmand:icon>public_bookcase</osmand:icon>
    </extensions>
  </wpt>
  <wpt lat="43.84505" lon="4.36502">
    <name>Nîmes z24423</name>
    <type>ZoneLivre</type>
    <extensions>
      <osmand:color>#10c0f0</osmand:color>
      <osmand:background>square</osmand:background>
      <osmand:icon>public_bookcase</osmand:icon>
    </extensions>
  </wpt>
  <wpt lat="49.377471" lon="0.113331">
    <name>Trouville-sur-Mer z24421</name>
    <type>ZoneLivre</type>
    <extensions>
      <osmand:color>#10c0f0</osmand:color>
      <osmand:background>square</osmand:background>
      <osmand:icon>public_bookcase</osmand:icon>
    </extensions>
  </wpt>
  <wpt lat="49.338088" lon="0.118902">
    <name>Bonneville-sur-Touques z24419</name>
    <type>ZoneLivre</type>
    <extensions>
      <osmand:color>#10c0f0</osmand:color>
      <osmand:background>square</osmand:background>
      <osmand:icon>public_bookcase</osmand:icon>
    </extensions>
  </wpt>
  <wpt lat="49.046863" lon="-1.448173">
    <name>Coutances z24397</name>
    <type>ZoneLivre</type>
    <extensions>
      <osmand:color>#10c0f0</osmand:color>
      <osmand:background>square</osmand:background>
      <osmand:icon>public_bookcase</osmand:icon>
    </extensions>
  </wpt>
  <wpt lat="49.047508" lon="-1.446891">
    <name>Coutances z24394</name>
    <type>ZoneLivre</type>
    <extensions>
      <osmand:color>#10c0f0</osmand:color>
      <osmand:background>square</osmand:background>
      <osmand:icon>public_bookcase</osmand:icon>
    </extensions>
  </wpt>
  <wpt lat="43.358954" lon="-1.771591">
    <name>Hendaye z24391</name>
    <type>ZoneLivre</type>
    <extensions>
      <osmand:color>#10c0f0</osmand:color>
      <osmand:background>square</osmand:background>
      <osmand:icon>public_bookcase</osmand:icon>
    </extensions>
  </wpt>
  <wpt lat="47.396339" lon="-0.451325">
    <name>Saint-Jean-des-Mauvret z24389</name>
    <type>ZoneLivre</type>
    <extensions>
      <osmand:color>#10c0f0</osmand:color>
      <osmand:background>square</osmand:background>
      <osmand:icon>public_bookcase</osmand:icon>
    </extensions>
  </wpt>
  <wpt lat="48.824712" lon="2.555178">
    <name>Villiers-sur-Marne z24385</name>
    <type>ZoneLivre</type>
    <extensions>
      <osmand:color>#10c0f0</osmand:color>
      <osmand:background>square</osmand:background>
      <osmand:icon>public_bookcase</osmand:icon>
    </extensions>
  </wpt>
  <wpt lat="49.527353" lon="0.572965">
    <name>La Frénaye z24382</name>
    <type>ZoneLivre</type>
    <extensions>
      <osmand:color>#10c0f0</osmand:color>
      <osmand:background>square</osmand:background>
      <osmand:icon>public_bookcase</osmand:icon>
    </extensions>
  </wpt>
  <wpt lat="49.556703" lon="0.483136">
    <name>Gruchet-le-Valasse z24379</name>
    <type>ZoneLivre</type>
    <extensions>
      <osmand:color>#10c0f0</osmand:color>
      <osmand:background>square</osmand:background>
      <osmand:icon>public_bookcase</osmand:icon>
    </extensions>
  </wpt>
  <wpt lat="49.52359" lon="0.50587">
    <name>Saint-Jean-de-Folleville z24377</name>
    <type>ZoneLivre</type>
    <extensions>
      <osmand:color>#10c0f0</osmand:color>
      <osmand:background>square</osmand:background>
      <osmand:icon>public_bookcase</osmand:icon>
    </extensions>
  </wpt>
  <wpt lat="49.507551" lon="0.412092">
    <name>La Cerlangue z24375</name>
    <type>ZoneLivre</type>
    <extensions>
      <osmand:color>#10c0f0</osmand:color>
      <osmand:background>square</osmand:background>
      <osmand:icon>public_bookcase</osmand:icon>
    </extensions>
  </wpt>
  <wpt lat="49.52869" lon="0.35834">
    <name>Saint-Romain-de-Colbosc z24372</name>
    <type>ZoneLivre</type>
    <extensions>
      <osmand:color>#10c0f0</osmand:color>
      <osmand:background>square</osmand:background>
      <osmand:icon>public_bookcase</osmand:icon>
    </extensions>
  </wpt>
  <wpt lat="49.520432" lon="0.331907">
    <name>Saint-Aubin-Routot z24370</name>
    <type>ZoneLivre</type>
    <extensions>
      <osmand:color>#10c0f0</osmand:color>
      <osmand:background>square</osmand:background>
      <osmand:icon>public_bookcase</osmand:icon>
    </extensions>
  </wpt>
  <wpt lat="49.528567" lon="0.252511">
    <name>Saint-Laurent-de-Brèvedent z24368</name>
    <type>ZoneLivre</type>
    <extensions>
      <osmand:color>#10c0f0</osmand:color>
      <osmand:background>square</osmand:background>
      <osmand:icon>public_bookcase</osmand:icon>
    </extensions>
  </wpt>
  <wpt lat="49.508995" lon="0.189345">
    <name>Harfleur z24364</name>
    <type>ZoneLivre</type>
    <extensions>
      <osmand:color>#10c0f0</osmand:color>
      <osmand:background>square</osmand:background>
      <osmand:icon>public_bookcase</osmand:icon>
    </extensions>
  </wpt>
  <wpt lat="45.794055" lon="0.350296">
    <name>Agris z24337</name>
    <type>ZoneLivre</type>
    <extensions>
      <osmand:color>#10c0f0</osmand:color>
      <osmand:background>square</osmand:background>
      <osmand:icon>public_bookcase</osmand:icon>
    </extensions>
  </wpt>
  <wpt lat="45.786133" lon="0.339208">
    <name>Agris z24334</name>
    <type>ZoneLivre</type>
    <extensions>
      <osmand:color>#10c0f0</osmand:color>
      <osmand:background>square</osmand:background>
      <osmand:icon>public_bookcase</osmand:icon>
    </extensions>
  </wpt>
  <wpt lat="45.793595" lon="0.326221">
    <name>La Rochette z24331</name>
    <type>ZoneLivre</type>
    <extensions>
      <osmand:color>#10c0f0</osmand:color>
      <osmand:background>square</osmand:background>
      <osmand:icon>public_bookcase</osmand:icon>
    </extensions>
  </wpt>
  <wpt lat="45.861312" lon="0.211457">
    <name>Puyréaux z24328</name>
    <type>ZoneLivre</type>
    <extensions>
      <osmand:color>#10c0f0</osmand:color>
      <osmand:background>square</osmand:background>
      <osmand:icon>public_bookcase</osmand:icon>
    </extensions>
  </wpt>
  <wpt lat="47.045742" lon="-0.900243">
    <name>Cholet z24324</name>
    <type>ZoneLivre</type>
    <extensions>
      <osmand:color>#10c0f0</osmand:color>
      <osmand:background>square</osmand:background>
      <osmand:icon>public_bookcase</osmand:icon>
    </extensions>
  </wpt>
  <wpt lat="48.44859" lon="-1.66382">
    <name>Cuguen z24299</name>
    <type>ZoneLivre</type>
    <extensions>
      <osmand:color>#10c0f0</osmand:color>
      <osmand:background>square</osmand:background>
      <osmand:icon>public_bookcase</osmand:icon>
    </extensions>
  </wpt>
  <wpt lat="48.041062" lon="-1.706987">
    <name>Chartres-de-Bretagne z24297</name>
    <type>ZoneLivre</type>
    <extensions>
      <osmand:color>#10c0f0</osmand:color>
      <osmand:background>square</osmand:background>
      <osmand:icon>public_bookcase</osmand:icon>
    </extensions>
  </wpt>
  <wpt lat="47.096404" lon="-2.046094">
    <name>La Bernerie-en-Retz z24295</name>
    <type>ZoneLivre</type>
    <extensions>
      <osmand:color>#10c0f0</osmand:color>
      <osmand:background>square</osmand:background>
      <osmand:icon>public_bookcase</osmand:icon>
    </extensions>
  </wpt>
  <wpt lat="48.703624" lon="2.165063">
    <name>Bures-sur-Yvette z24292</name>
    <type>ZoneLivre</type>
    <extensions>
      <osmand:color>#10c0f0</osmand:color>
      <osmand:background>square</osmand:background>
      <osmand:icon>public_bookcase</osmand:icon>
    </extensions>
  </wpt>
  <wpt lat="43.579983" lon="3.901879">
    <name>Lattes z24290</name>
    <type>ZoneLivre</type>
    <extensions>
      <osmand:color>#10c0f0</osmand:color>
      <osmand:background>square</osmand:background>
      <osmand:icon>public_bookcase</osmand:icon>
    </extensions>
  </wpt>
  <wpt lat="50.97938" lon="2.580301">
    <name>Hondschoote z24288</name>
    <type>ZoneLivre</type>
    <extensions>
      <osmand:color>#10c0f0</osmand:color>
      <osmand:background>square</osmand:background>
      <osmand:icon>public_bookcase</osmand:icon>
    </extensions>
  </wpt>
  <wpt lat="50.98142" lon="2.586116">
    <name>Hondschoote z24286</name>
    <type>ZoneLivre</type>
    <extensions>
      <osmand:color>#10c0f0</osmand:color>
      <osmand:background>square</osmand:background>
      <osmand:icon>public_bookcase</osmand:icon>
    </extensions>
  </wpt>
  <wpt lat="51.015073" lon="2.549019">
    <name>Ghyvelde z24284</name>
    <type>ZoneLivre</type>
    <extensions>
      <osmand:color>#10c0f0</osmand:color>
      <osmand:background>square</osmand:background>
      <osmand:icon>public_bookcase</osmand:icon>
    </extensions>
  </wpt>
  <wpt lat="50.982506" lon="1.967162">
    <name>Marck z24282</name>
    <type>ZoneLivre</type>
    <extensions>
      <osmand:color>#10c0f0</osmand:color>
      <osmand:background>square</osmand:background>
      <osmand:icon>public_bookcase</osmand:icon>
    </extensions>
  </wpt>
  <wpt lat="50.924562" lon="2.054811">
    <name>Nouvelle-Église z24280</name>
    <type>ZoneLivre</type>
    <extensions>
      <osmand:color>#10c0f0</osmand:color>
      <osmand:background>square</osmand:background>
      <osmand:icon>public_bookcase</osmand:icon>
    </extensions>
  </wpt>
  <wpt lat="50.894258" lon="2.251358">
    <name>Merckeghem z24278</name>
    <type>ZoneLivre</type>
    <extensions>
      <osmand:color>#10c0f0</osmand:color>
      <osmand:background>square</osmand:background>
      <osmand:icon>public_bookcase</osmand:icon>
    </extensions>
  </wpt>
  <wpt lat="50.916081" lon="2.273808">
    <name>Looberghe z24275</name>
    <type>ZoneLivre</type>
    <extensions>
      <osmand:color>#10c0f0</osmand:color>
      <osmand:background>square</osmand:background>
      <osmand:icon>public_bookcase</osmand:icon>
    </extensions>
  </wpt>
  <wpt lat="50.927883" lon="2.330483">
    <name>Pitgam z24273</name>
    <type>ZoneLivre</type>
    <extensions>
      <osmand:color>#10c0f0</osmand:color>
      <osmand:background>square</osmand:background>
      <osmand:icon>public_bookcase</osmand:icon>
    </extensions>
  </wpt>
  <wpt lat="51.020008" lon="2.346375">
    <name>Dunkerque z24271</name>
    <type>ZoneLivre</type>
    <extensions>
      <osmand:color>#10c0f0</osmand:color>
      <osmand:background>square</osmand:background>
      <osmand:icon>public_bookcase</osmand:icon>
    </extensions>
  </wpt>
  <wpt lat="51.071415" lon="2.525635">
    <name>Bray-Dunes z24269</name>
    <type>ZoneLivre</type>
    <extensions>
      <osmand:color>#10c0f0</osmand:color>
      <osmand:background>square</osmand:background>
      <osmand:icon>public_bookcase</osmand:icon>
    </extensions>
  </wpt>
  <wpt lat="51.026026" lon="2.391358">
    <name>Coudekerque-Branche z24267</name>
    <type>ZoneLivre</type>
    <extensions>
      <osmand:color>#10c0f0</osmand:color>
      <osmand:background>square</osmand:background>
      <osmand:icon>public_bookcase</osmand:icon>
    </extensions>
  </wpt>
  <wpt lat="47.009549" lon="-0.749372">
    <name>Maulevrier z24245</name>
    <type>ZoneLivre</type>
    <extensions>
      <osmand:color>#10c0f0</osmand:color>
      <osmand:background>square</osmand:background>
      <osmand:icon>public_bookcase</osmand:icon>
    </extensions>
  </wpt>
  <wpt lat="48.822971" lon="2.548399">
    <name>Villiers-sur-Marne z24240</name>
    <type>ZoneLivre</type>
    <extensions>
      <osmand:color>#10c0f0</osmand:color>
      <osmand:background>square</osmand:background>
      <osmand:icon>public_bookcase</osmand:icon>
    </extensions>
  </wpt>
  <wpt lat="43.642067" lon="7.007818">
    <name>Valbonne z24237</name>
    <type>ZoneLivre</type>
    <extensions>
      <osmand:color>#10c0f0</osmand:color>
      <osmand:background>square</osmand:background>
      <osmand:icon>public_bookcase</osmand:icon>
    </extensions>
  </wpt>
  <wpt lat="46.587021" lon="0.387805">
    <name>Poitiers z24232</name>
    <type>ZoneLivre</type>
    <extensions>
      <osmand:color>#10c0f0</osmand:color>
      <osmand:background>square</osmand:background>
      <osmand:icon>public_bookcase</osmand:icon>
    </extensions>
  </wpt>
  <wpt lat="47.388706" lon="0.68811">
    <name>Tours z24230</name>
    <type>ZoneLivre</type>
    <extensions>
      <osmand:color>#10c0f0</osmand:color>
      <osmand:background>square</osmand:background>
      <osmand:icon>public_bookcase</osmand:icon>
    </extensions>
  </wpt>
  <wpt lat="47.356832" lon="0.663544">
    <name>Joué-lès-Tours z24228</name>
    <type>ZoneLivre</type>
    <extensions>
      <osmand:color>#10c0f0</osmand:color>
      <osmand:background>square</osmand:background>
      <osmand:icon>public_bookcase</osmand:icon>
    </extensions>
  </wpt>
  <wpt lat="47.352284" lon="0.662972">
    <name>Joué-lès-Tours z24226</name>
    <type>ZoneLivre</type>
    <extensions>
      <osmand:color>#10c0f0</osmand:color>
      <osmand:background>square</osmand:background>
      <osmand:icon>public_bookcase</osmand:icon>
    </extensions>
  </wpt>
  <wpt lat="47.35419" lon="0.667374">
    <name>Joué-lès-Tours z24223</name>
    <type>ZoneLivre</type>
    <extensions>
      <osmand:color>#10c0f0</osmand:color>
      <osmand:background>square</osmand:background>
      <osmand:icon>public_bookcase</osmand:icon>
    </extensions>
  </wpt>
  <wpt lat="47.348844" lon="0.678964">
    <name>Joué-lès-Tours z24218</name>
    <type>ZoneLivre</type>
    <extensions>
      <osmand:color>#10c0f0</osmand:color>
      <osmand:background>square</osmand:background>
      <osmand:icon>public_bookcase</osmand:icon>
    </extensions>
  </wpt>
  <wpt lat="47.343963" lon="0.679728">
    <name>Joué-lès-Tours z24215</name>
    <type>ZoneLivre</type>
    <extensions>
      <osmand:color>#10c0f0</osmand:color>
      <osmand:background>square</osmand:background>
      <osmand:icon>public_bookcase</osmand:icon>
    </extensions>
  </wpt>
  <wpt lat="47.336045" lon="0.664633">
    <name>Joué-les-Tours z24212</name>
    <type>ZoneLivre</type>
    <extensions>
      <osmand:color>#10c0f0</osmand:color>
      <osmand:background>square</osmand:background>
      <osmand:icon>public_bookcase</osmand:icon>
    </extensions>
  </wpt>
  <wpt lat="47.344472" lon="0.662726">
    <name>Joué-lès-Tours z24210</name>
    <type>ZoneLivre</type>
    <extensions>
      <osmand:color>#10c0f0</osmand:color>
      <osmand:background>square</osmand:background>
      <osmand:icon>public_bookcase</osmand:icon>
    </extensions>
  </wpt>
  <wpt lat="47.344681" lon="0.654295">
    <name>Joué-lès-Tours z24208</name>
    <type>ZoneLivre</type>
    <extensions>
      <osmand:color>#10c0f0</osmand:color>
      <osmand:background>square</osmand:background>
      <osmand:icon>public_bookcase</osmand:icon>
    </extensions>
  </wpt>
  <wpt lat="47.340964" lon="0.614269">
    <name>Ballan-Miré z24206</name>
    <type>ZoneLivre</type>
    <extensions>
      <osmand:color>#10c0f0</osmand:color>
      <osmand:background>square</osmand:background>
      <osmand:icon>public_bookcase</osmand:icon>
    </extensions>
  </wpt>
  <wpt lat="47.340411" lon="0.613174">
    <name>Ballan-Miré z24204</name>
    <type>ZoneLivre</type>
    <extensions>
      <osmand:color>#10c0f0</osmand:color>
      <osmand:background>square</osmand:background>
      <osmand:icon>public_bookcase</osmand:icon>
    </extensions>
  </wpt>
  <wpt lat="47.341304" lon="0.613223">
    <name>Ballan-Miré z24201</name>
    <type>ZoneLivre</type>
    <extensions>
      <osmand:color>#10c0f0</osmand:color>
      <osmand:background>square</osmand:background>
      <osmand:icon>public_bookcase</osmand:icon>
    </extensions>
  </wpt>
  <wpt lat="47.348117" lon="0.618177">
    <name>Ballan-Miré z24197</name>
    <type>ZoneLivre</type>
    <extensions>
      <osmand:color>#10c0f0</osmand:color>
      <osmand:background>square</osmand:background>
      <osmand:icon>public_bookcase</osmand:icon>
    </extensions>
  </wpt>
  <wpt lat="47.353631" lon="0.637513">
    <name>Ballan-Miré z24194</name>
    <type>ZoneLivre</type>
    <extensions>
      <osmand:color>#10c0f0</osmand:color>
      <osmand:background>square</osmand:background>
      <osmand:icon>public_bookcase</osmand:icon>
    </extensions>
  </wpt>
  <wpt lat="47.361556" lon="0.656975">
    <name>Joué-les-Tours z24192</name>
    <type>ZoneLivre</type>
    <extensions>
      <osmand:color>#10c0f0</osmand:color>
      <osmand:background>square</osmand:background>
      <osmand:icon>public_bookcase</osmand:icon>
    </extensions>
  </wpt>
  <wpt lat="47.407504" lon="0.702524">
    <name>Tours z24187</name>
    <type>ZoneLivre</type>
    <extensions>
      <osmand:color>#10c0f0</osmand:color>
      <osmand:background>square</osmand:background>
      <osmand:icon>public_bookcase</osmand:icon>
    </extensions>
  </wpt>
  <wpt lat="47.412957" lon="0.706408">
    <name>Tours z24185</name>
    <type>ZoneLivre</type>
    <extensions>
      <osmand:color>#10c0f0</osmand:color>
      <osmand:background>square</osmand:background>
      <osmand:icon>public_bookcase</osmand:icon>
    </extensions>
  </wpt>
  <wpt lat="47.433837" lon="0.700682">
    <name>Tours z24183</name>
    <type>ZoneLivre</type>
    <extensions>
      <osmand:color>#10c0f0</osmand:color>
      <osmand:background>square</osmand:background>
      <osmand:icon>public_bookcase</osmand:icon>
    </extensions>
  </wpt>
  <wpt lat="47.435793" lon="0.692302">
    <name>Tours z24181</name>
    <type>ZoneLivre</type>
    <extensions>
      <osmand:color>#10c0f0</osmand:color>
      <osmand:background>square</osmand:background>
      <osmand:icon>public_bookcase</osmand:icon>
    </extensions>
  </wpt>
  <wpt lat="47.431656" lon="0.683145">
    <name>Tours z24179</name>
    <type>ZoneLivre</type>
    <extensions>
      <osmand:color>#10c0f0</osmand:color>
      <osmand:background>square</osmand:background>
      <osmand:icon>public_bookcase</osmand:icon>
    </extensions>
  </wpt>
  <wpt lat="47.420578" lon="0.686326">
    <name>Tours z24173</name>
    <type>ZoneLivre</type>
    <extensions>
      <osmand:color>#10c0f0</osmand:color>
      <osmand:background>square</osmand:background>
      <osmand:icon>public_bookcase</osmand:icon>
    </extensions>
  </wpt>
  <wpt lat="47.389645" lon="0.680769">
    <name>Tours z24171</name>
    <type>ZoneLivre</type>
    <extensions>
      <osmand:color>#10c0f0</osmand:color>
      <osmand:background>square</osmand:background>
      <osmand:icon>public_bookcase</osmand:icon>
    </extensions>
  </wpt>
  <wpt lat="47.395246" lon="0.710407">
    <name>Saint-Pierre-des-Corps z24168</name>
    <type>ZoneLivre</type>
    <extensions>
      <osmand:color>#10c0f0</osmand:color>
      <osmand:background>square</osmand:background>
      <osmand:icon>public_bookcase</osmand:icon>
    </extensions>
  </wpt>
  <wpt lat="46.558606" lon="0.506117">
    <name>Saint-Julien-l'Ars z24165</name>
    <type>ZoneLivre</type>
    <extensions>
      <osmand:color>#10c0f0</osmand:color>
      <osmand:background>square</osmand:background>
      <osmand:icon>public_bookcase</osmand:icon>
    </extensions>
  </wpt>
  <wpt lat="46.566763" lon="0.38612">
    <name>Poitiers z24163</name>
    <type>ZoneLivre</type>
    <extensions>
      <osmand:color>#10c0f0</osmand:color>
      <osmand:background>square</osmand:background>
      <osmand:icon>public_bookcase</osmand:icon>
    </extensions>
  </wpt>
  <wpt lat="46.578701" lon="0.305648">
    <name>Biard z24161</name>
    <type>ZoneLivre</type>
    <extensions>
      <osmand:color>#10c0f0</osmand:color>
      <osmand:background>square</osmand:background>
      <osmand:icon>public_bookcase</osmand:icon>
    </extensions>
  </wpt>
  <wpt lat="45.848364" lon="0.28377">
    <name>Val-de-Bonnieure z24159</name>
    <type>ZoneLivre</type>
    <extensions>
      <osmand:color>#10c0f0</osmand:color>
      <osmand:background>square</osmand:background>
      <osmand:icon>public_bookcase</osmand:icon>
    </extensions>
  </wpt>
  <wpt lat="47.086707" lon="-0.417282">
    <name>Cléré-sur-Layon z24155</name>
    <type>ZoneLivre</type>
    <extensions>
      <osmand:color>#10c0f0</osmand:color>
      <osmand:background>square</osmand:background>
      <osmand:icon>public_bookcase</osmand:icon>
    </extensions>
  </wpt>
  <wpt lat="49.463237" lon="2.812833">
    <name>Coudun z24151</name>
    <type>ZoneLivre</type>
    <extensions>
      <osmand:color>#10c0f0</osmand:color>
      <osmand:background>square</osmand:background>
      <osmand:icon>public_bookcase</osmand:icon>
    </extensions>
  </wpt>
  <wpt lat="49.50853" lon="2.825289">
    <name>Marest-sur-Matz z24149</name>
    <type>ZoneLivre</type>
    <extensions>
      <osmand:color>#10c0f0</osmand:color>
      <osmand:background>square</osmand:background>
      <osmand:icon>public_bookcase</osmand:icon>
    </extensions>
  </wpt>
  <wpt lat="49.525837" lon="2.816743">
    <name>Élincourt-Sainte-Marguerite z24146</name>
    <type>ZoneLivre</type>
    <extensions>
      <osmand:color>#10c0f0</osmand:color>
      <osmand:background>square</osmand:background>
      <osmand:icon>public_bookcase</osmand:icon>
    </extensions>
  </wpt>
  <wpt lat="44.340083" lon="2.577541">
    <name>Le Monastère z24144</name>
    <type>ZoneLivre</type>
    <extensions>
      <osmand:color>#10c0f0</osmand:color>
      <osmand:background>square</osmand:background>
      <osmand:icon>public_bookcase</osmand:icon>
    </extensions>
  </wpt>
  <wpt lat="43.999817" lon="3.663152">
    <name>Saint-André-de-Majencoules z24121</name>
    <type>ZoneLivre</type>
    <extensions>
      <osmand:color>#10c0f0</osmand:color>
      <osmand:background>square</osmand:background>
      <osmand:icon>public_bookcase</osmand:icon>
    </extensions>
  </wpt>
  <wpt lat="45.859403" lon="0.243445">
    <name>Saint-Ciers-sur-Bonnieure z24119</name>
    <type>ZoneLivre</type>
    <extensions>
      <osmand:color>#10c0f0</osmand:color>
      <osmand:background>square</osmand:background>
      <osmand:icon>public_bookcase</osmand:icon>
    </extensions>
  </wpt>
  <wpt lat="45.924101" lon="0.177313">
    <name>Fontenille z24117</name>
    <type>ZoneLivre</type>
    <extensions>
      <osmand:color>#10c0f0</osmand:color>
      <osmand:background>square</osmand:background>
      <osmand:icon>public_bookcase</osmand:icon>
    </extensions>
  </wpt>
  <wpt lat="45.920296" lon="0.136779">
    <name>Juillé z24114</name>
    <type>ZoneLivre</type>
    <extensions>
      <osmand:color>#10c0f0</osmand:color>
      <osmand:background>square</osmand:background>
      <osmand:icon>public_bookcase</osmand:icon>
    </extensions>
  </wpt>
  <wpt lat="45.935636" lon="0.067163">
    <name>Tusson z24112</name>
    <type>ZoneLivre</type>
    <extensions>
      <osmand:color>#10c0f0</osmand:color>
      <osmand:background>square</osmand:background>
      <osmand:icon>public_bookcase</osmand:icon>
    </extensions>
  </wpt>
  <wpt lat="48.838145" lon="-1.58481">
    <name>Granville z24097</name>
    <type>ZoneLivre</type>
    <extensions>
      <osmand:color>#10c0f0</osmand:color>
      <osmand:background>square</osmand:background>
      <osmand:icon>public_bookcase</osmand:icon>
    </extensions>
  </wpt>
  <wpt lat="49.176878" lon="-0.385205">
    <name>Caen z24086</name>
    <type>ZoneLivre</type>
    <extensions>
      <osmand:color>#10c0f0</osmand:color>
      <osmand:background>square</osmand:background>
      <osmand:icon>public_bookcase</osmand:icon>
    </extensions>
  </wpt>
  <wpt lat="49.151121" lon="-0.327154">
    <name>Cormelles-le-Royal z24082</name>
    <type>ZoneLivre</type>
    <extensions>
      <osmand:color>#10c0f0</osmand:color>
      <osmand:background>square</osmand:background>
      <osmand:icon>public_bookcase</osmand:icon>
    </extensions>
  </wpt>
  <wpt lat="43.688882" lon="4.871468">
    <name>Mouriès z24079</name>
    <type>ZoneLivre</type>
    <extensions>
      <osmand:color>#10c0f0</osmand:color>
      <osmand:background>square</osmand:background>
      <osmand:icon>public_bookcase</osmand:icon>
    </extensions>
  </wpt>
  <wpt lat="47.340631" lon="5.0566">
    <name>Dijon z24077</name>
    <type>ZoneLivre</type>
    <extensions>
      <osmand:color>#10c0f0</osmand:color>
      <osmand:background>square</osmand:background>
      <osmand:icon>public_bookcase</osmand:icon>
    </extensions>
  </wpt>
  <wpt lat="47.317178" lon="5.050471">
    <name>Dijon z24075</name>
    <type>ZoneLivre</type>
    <extensions>
      <osmand:color>#10c0f0</osmand:color>
      <osmand:background>square</osmand:background>
      <osmand:icon>public_bookcase</osmand:icon>
    </extensions>
  </wpt>
  <wpt lat="47.317849" lon="5.04943">
    <name>Dijon z24073</name>
    <type>ZoneLivre</type>
    <extensions>
      <osmand:color>#10c0f0</osmand:color>
      <osmand:background>square</osmand:background>
      <osmand:icon>public_bookcase</osmand:icon>
    </extensions>
  </wpt>
  <wpt lat="47.318254" lon="5.050549">
    <name>Dijon z24071</name>
    <type>ZoneLivre</type>
    <extensions>
      <osmand:color>#10c0f0</osmand:color>
      <osmand:background>square</osmand:background>
      <osmand:icon>public_bookcase</osmand:icon>
    </extensions>
  </wpt>
  <wpt lat="47.293643" lon="5.001448">
    <name>Chenôve z24069</name>
    <type>ZoneLivre</type>
    <extensions>
      <osmand:color>#10c0f0</osmand:color>
      <osmand:background>square</osmand:background>
      <osmand:icon>public_bookcase</osmand:icon>
    </extensions>
  </wpt>
  <wpt lat="47.301628" lon="5.007395">
    <name>Chenôve z24067</name>
    <type>ZoneLivre</type>
    <extensions>
      <osmand:color>#10c0f0</osmand:color>
      <osmand:background>square</osmand:background>
      <osmand:icon>public_bookcase</osmand:icon>
    </extensions>
  </wpt>
  <wpt lat="47.306597" lon="5.018542">
    <name>Dijon z24063</name>
    <type>ZoneLivre</type>
    <extensions>
      <osmand:color>#10c0f0</osmand:color>
      <osmand:background>square</osmand:background>
      <osmand:icon>public_bookcase</osmand:icon>
    </extensions>
  </wpt>
  <wpt lat="47.318552" lon="4.908493">
    <name>Velars-sur-Ouche z24060</name>
    <type>ZoneLivre</type>
    <extensions>
      <osmand:color>#10c0f0</osmand:color>
      <osmand:background>square</osmand:background>
      <osmand:icon>public_bookcase</osmand:icon>
    </extensions>
  </wpt>
  <wpt lat="47.316896" lon="5.000061">
    <name>Dijon z24058</name>
    <type>ZoneLivre</type>
    <extensions>
      <osmand:color>#10c0f0</osmand:color>
      <osmand:background>square</osmand:background>
      <osmand:icon>public_bookcase</osmand:icon>
    </extensions>
  </wpt>
  <wpt lat="47.302603" lon="5.037092">
    <name>Dijon z24055</name>
    <type>ZoneLivre</type>
    <extensions>
      <osmand:color>#10c0f0</osmand:color>
      <osmand:background>square</osmand:background>
      <osmand:icon>public_bookcase</osmand:icon>
    </extensions>
  </wpt>
  <wpt lat="47.316154" lon="5.065475">
    <name>Dijon z24053</name>
    <type>ZoneLivre</type>
    <extensions>
      <osmand:color>#10c0f0</osmand:color>
      <osmand:background>square</osmand:background>
      <osmand:icon>public_bookcase</osmand:icon>
    </extensions>
  </wpt>
  <wpt lat="47.349587" lon="5.023641">
    <name>Fontaine-lès-Dijon z24051</name>
    <type>ZoneLivre</type>
    <extensions>
      <osmand:color>#10c0f0</osmand:color>
      <osmand:background>square</osmand:background>
      <osmand:icon>public_bookcase</osmand:icon>
    </extensions>
  </wpt>
  <wpt lat="47.347837" lon="5.031964">
    <name>Fontaine-Lès-Dijon z24049</name>
    <type>ZoneLivre</type>
    <extensions>
      <osmand:color>#10c0f0</osmand:color>
      <osmand:background>square</osmand:background>
      <osmand:icon>public_bookcase</osmand:icon>
    </extensions>
  </wpt>
  <wpt lat="47.351619" lon="5.025102">
    <name>Fontaine-Lès-Dijon z24046</name>
    <type>ZoneLivre</type>
    <extensions>
      <osmand:color>#10c0f0</osmand:color>
      <osmand:background>square</osmand:background>
      <osmand:icon>public_bookcase</osmand:icon>
    </extensions>
  </wpt>
  <wpt lat="47.314895" lon="5.031521">
    <name>Dijon z24044</name>
    <type>ZoneLivre</type>
    <extensions>
      <osmand:color>#10c0f0</osmand:color>
      <osmand:background>square</osmand:background>
      <osmand:icon>public_bookcase</osmand:icon>
    </extensions>
  </wpt>
  <wpt lat="47.345035" lon="5.017568">
    <name>Fontaine-lès-Dijon z24042</name>
    <type>ZoneLivre</type>
    <extensions>
      <osmand:color>#10c0f0</osmand:color>
      <osmand:background>square</osmand:background>
      <osmand:icon>public_bookcase</osmand:icon>
    </extensions>
  </wpt>
  <wpt lat="47.342412" lon="5.022174">
    <name>Fontaine-lès-Dijon z24040</name>
    <type>ZoneLivre</type>
    <extensions>
      <osmand:color>#10c0f0</osmand:color>
      <osmand:background>square</osmand:background>
      <osmand:icon>public_bookcase</osmand:icon>
    </extensions>
  </wpt>
  <wpt lat="47.340884" lon="5.021691">
    <name>Fontaine-lès-Dijon z24038</name>
    <type>ZoneLivre</type>
    <extensions>
      <osmand:color>#10c0f0</osmand:color>
      <osmand:background>square</osmand:background>
      <osmand:icon>public_bookcase</osmand:icon>
    </extensions>
  </wpt>
  <wpt lat="47.339163" lon="5.022249">
    <name>Fontaine-lès-Dijon z24036</name>
    <type>ZoneLivre</type>
    <extensions>
      <osmand:color>#10c0f0</osmand:color>
      <osmand:background>square</osmand:background>
      <osmand:icon>public_bookcase</osmand:icon>
    </extensions>
  </wpt>
  <wpt lat="47.333244" lon="5.033112">
    <name>Dijon z24034</name>
    <type>ZoneLivre</type>
    <extensions>
      <osmand:color>#10c0f0</osmand:color>
      <osmand:background>square</osmand:background>
      <osmand:icon>public_bookcase</osmand:icon>
    </extensions>
  </wpt>
  <wpt lat="47.296551" lon="5.052118">
    <name>Longvic z24032</name>
    <type>ZoneLivre</type>
    <extensions>
      <osmand:color>#10c0f0</osmand:color>
      <osmand:background>square</osmand:background>
      <osmand:icon>public_bookcase</osmand:icon>
    </extensions>
  </wpt>
  <wpt lat="48.700538" lon="2.54035">
    <name>Mandres-les-Roses z24030</name>
    <type>ZoneLivre</type>
    <extensions>
      <osmand:color>#10c0f0</osmand:color>
      <osmand:background>square</osmand:background>
      <osmand:icon>public_bookcase</osmand:icon>
    </extensions>
  </wpt>
  <wpt lat="46.328017" lon="1.904401">
    <name>Bonnat z24028</name>
    <type>ZoneLivre</type>
    <extensions>
      <osmand:color>#10c0f0</osmand:color>
      <osmand:background>square</osmand:background>
      <osmand:icon>public_bookcase</osmand:icon>
    </extensions>
  </wpt>
  <wpt lat="46.563309" lon="1.86648">
    <name>Fougerolles z24026</name>
    <type>ZoneLivre</type>
    <extensions>
      <osmand:color>#10c0f0</osmand:color>
      <osmand:background>square</osmand:background>
      <osmand:icon>public_bookcase</osmand:icon>
    </extensions>
  </wpt>
  <wpt lat="47.943424" lon="0.264109">
    <name>Ruaudin z24021</name>
    <type>ZoneLivre</type>
    <extensions>
      <osmand:color>#10c0f0</osmand:color>
      <osmand:background>square</osmand:background>
      <osmand:icon>public_bookcase</osmand:icon>
    </extensions>
  </wpt>
  <wpt lat="43.841033" lon="4.360223">
    <name>Nîmes z24019</name>
    <type>ZoneLivre</type>
    <extensions>
      <osmand:color>#10c0f0</osmand:color>
      <osmand:background>square</osmand:background>
      <osmand:icon>public_bookcase</osmand:icon>
    </extensions>
  </wpt>
  <wpt lat="17.902246" lon="-62.845948">
    <name>Gustavia z24016</name>
    <type>ZoneLivre</type>
    <extensions>
      <osmand:color>#10c0f0</osmand:color>
      <osmand:background>square</osmand:background>
      <osmand:icon>public_bookcase</osmand:icon>
    </extensions>
  </wpt>
  <wpt lat="47.125182" lon="-0.550421">
    <name>Saint-Hilaire-du-Bois z24013</name>
    <type>ZoneLivre</type>
    <extensions>
      <osmand:color>#10c0f0</osmand:color>
      <osmand:background>square</osmand:background>
      <osmand:icon>public_bookcase</osmand:icon>
    </extensions>
  </wpt>
  <wpt lat="44.022591" lon="3.997047">
    <name>Tornac z24010</name>
    <type>ZoneLivre</type>
    <extensions>
      <osmand:color>#10c0f0</osmand:color>
      <osmand:background>square</osmand:background>
      <osmand:icon>public_bookcase</osmand:icon>
    </extensions>
  </wpt>
  <wpt lat="43.989163" lon="3.955282">
    <name>Durfort-et-Saint-Martin-de-Sossenac z24008</name>
    <type>ZoneLivre</type>
    <extensions>
      <osmand:color>#10c0f0</osmand:color>
      <osmand:background>square</osmand:background>
      <osmand:icon>public_bookcase</osmand:icon>
    </extensions>
  </wpt>
  <wpt lat="43.992371" lon="3.60958">
    <name>Le Vigan z24006</name>
    <type>ZoneLivre</type>
    <extensions>
      <osmand:color>#10c0f0</osmand:color>
      <osmand:background>square</osmand:background>
      <osmand:icon>public_bookcase</osmand:icon>
    </extensions>
  </wpt>
  <wpt lat="43.938172" lon="3.956685">
    <name>Sauve z24004</name>
    <type>ZoneLivre</type>
    <extensions>
      <osmand:color>#10c0f0</osmand:color>
      <osmand:background>square</osmand:background>
      <osmand:icon>public_bookcase</osmand:icon>
    </extensions>
  </wpt>
  <wpt lat="43.91052" lon="4.001475">
    <name>Quissac z24001</name>
    <type>ZoneLivre</type>
    <extensions>
      <osmand:color>#10c0f0</osmand:color>
      <osmand:background>square</osmand:background>
      <osmand:icon>public_bookcase</osmand:icon>
    </extensions>
  </wpt>
  <wpt lat="46.170314" lon="2.024495">
    <name>Pionnat z23999</name>
    <type>ZoneLivre</type>
    <extensions>
      <osmand:color>#10c0f0</osmand:color>
      <osmand:background>square</osmand:background>
      <osmand:icon>public_bookcase</osmand:icon>
    </extensions>
  </wpt>
  <wpt lat="46.450944" lon="4.118295">
    <name>Paray-le-Monial z23996</name>
    <type>ZoneLivre</type>
    <extensions>
      <osmand:color>#10c0f0</osmand:color>
      <osmand:background>square</osmand:background>
      <osmand:icon>public_bookcase</osmand:icon>
    </extensions>
  </wpt>
  <wpt lat="46.183017" lon="1.848074">
    <name>Saint-Sulpice-le-Guérétois z23994</name>
    <type>ZoneLivre</type>
    <extensions>
      <osmand:color>#10c0f0</osmand:color>
      <osmand:background>square</osmand:background>
      <osmand:icon>public_bookcase</osmand:icon>
    </extensions>
  </wpt>
  <wpt lat="43.69374" lon="5.915218">
    <name>Saint-Julien (Var) z23991</name>
    <type>ZoneLivre</type>
    <extensions>
      <osmand:color>#10c0f0</osmand:color>
      <osmand:background>square</osmand:background>
      <osmand:icon>public_bookcase</osmand:icon>
    </extensions>
  </wpt>
  <wpt lat="47.923029" lon="0.853675">
    <name>Sargé-sur-Braye z23989</name>
    <type>ZoneLivre</type>
    <extensions>
      <osmand:color>#10c0f0</osmand:color>
      <osmand:background>square</osmand:background>
      <osmand:icon>public_bookcase</osmand:icon>
    </extensions>
  </wpt>
  <wpt lat="47.93213" lon="0.934128">
    <name>Le Temple z23987</name>
    <type>ZoneLivre</type>
    <extensions>
      <osmand:color>#10c0f0</osmand:color>
      <osmand:background>square</osmand:background>
      <osmand:icon>public_bookcase</osmand:icon>
    </extensions>
  </wpt>
  <wpt lat="47.751557" lon="0.937504">
    <name>Houssay (41) z23985</name>
    <type>ZoneLivre</type>
    <extensions>
      <osmand:color>#10c0f0</osmand:color>
      <osmand:background>square</osmand:background>
      <osmand:icon>public_bookcase</osmand:icon>
    </extensions>
  </wpt>
  <wpt lat="47.844663" lon="0.915282">
    <name>Fortan z23982</name>
    <type>ZoneLivre</type>
    <extensions>
      <osmand:color>#10c0f0</osmand:color>
      <osmand:background>square</osmand:background>
      <osmand:icon>public_bookcase</osmand:icon>
    </extensions>
  </wpt>
  <wpt lat="47.900337" lon="0.929796">
    <name>Epuisay z23979</name>
    <type>ZoneLivre</type>
    <extensions>
      <osmand:color>#10c0f0</osmand:color>
      <osmand:background>square</osmand:background>
      <osmand:icon>public_bookcase</osmand:icon>
    </extensions>
  </wpt>
  <wpt lat="47.918505" lon="1.085793">
    <name>La Ville-aux-Clercs z23977</name>
    <type>ZoneLivre</type>
    <extensions>
      <osmand:color>#10c0f0</osmand:color>
      <osmand:background>square</osmand:background>
      <osmand:icon>public_bookcase</osmand:icon>
    </extensions>
  </wpt>
  <wpt lat="47.808691" lon="0.91472">
    <name>Lunay z23974</name>
    <type>ZoneLivre</type>
    <extensions>
      <osmand:color>#10c0f0</osmand:color>
      <osmand:background>square</osmand:background>
      <osmand:icon>public_bookcase</osmand:icon>
    </extensions>
  </wpt>
  <wpt lat="47.806902" lon="0.992559">
    <name>Villiers-sur-Loir z23972</name>
    <type>ZoneLivre</type>
    <extensions>
      <osmand:color>#10c0f0</osmand:color>
      <osmand:background>square</osmand:background>
      <osmand:icon>public_bookcase</osmand:icon>
    </extensions>
  </wpt>
  <wpt lat="47.79395" lon="1.029266">
    <name>Naveil z23970</name>
    <type>ZoneLivre</type>
    <extensions>
      <osmand:color>#10c0f0</osmand:color>
      <osmand:background>square</osmand:background>
      <osmand:icon>public_bookcase</osmand:icon>
    </extensions>
  </wpt>
  <wpt lat="46.783872" lon="-1.425015">
    <name>Bellevigny z23968</name>
    <type>ZoneLivre</type>
    <extensions>
      <osmand:color>#10c0f0</osmand:color>
      <osmand:background>square</osmand:background>
      <osmand:icon>public_bookcase</osmand:icon>
    </extensions>
  </wpt>
  <wpt lat="45.766019" lon="6.257368">
    <name>Faverges-Seythenex z23966</name>
    <type>ZoneLivre</type>
    <extensions>
      <osmand:color>#10c0f0</osmand:color>
      <osmand:background>square</osmand:background>
      <osmand:icon>public_bookcase</osmand:icon>
    </extensions>
  </wpt>
  <wpt lat="44.692294" lon="4.709846">
    <name>Saint-Lager-Bressac z23964</name>
    <type>ZoneLivre</type>
    <extensions>
      <osmand:color>#10c0f0</osmand:color>
      <osmand:background>square</osmand:background>
      <osmand:icon>public_bookcase</osmand:icon>
    </extensions>
  </wpt>
  <wpt lat="46.547541" lon="0.31752">
    <name>Saint Benoît z23958</name>
    <type>ZoneLivre</type>
    <extensions>
      <osmand:color>#10c0f0</osmand:color>
      <osmand:background>square</osmand:background>
      <osmand:icon>public_bookcase</osmand:icon>
    </extensions>
  </wpt>
  <wpt lat="43.61962" lon="6.969724">
    <name>Mouans-Sartoux z23956</name>
    <type>ZoneLivre</type>
    <extensions>
      <osmand:color>#10c0f0</osmand:color>
      <osmand:background>square</osmand:background>
      <osmand:icon>public_bookcase</osmand:icon>
    </extensions>
  </wpt>
  <wpt lat="43.58425" lon="6.940455">
    <name>La Roquette-sur-Siagne z23954</name>
    <type>ZoneLivre</type>
    <extensions>
      <osmand:color>#10c0f0</osmand:color>
      <osmand:background>square</osmand:background>
      <osmand:icon>public_bookcase</osmand:icon>
    </extensions>
  </wpt>
  <wpt lat="46.593648" lon="0.322922">
    <name>Poitiers z23951</name>
    <type>ZoneLivre</type>
    <extensions>
      <osmand:color>#10c0f0</osmand:color>
      <osmand:background>square</osmand:background>
      <osmand:icon>public_bookcase</osmand:icon>
    </extensions>
  </wpt>
  <wpt lat="17.905612" lon="-62.824645">
    <name>Saint-Barthélémy z23948</name>
    <type>ZoneLivre</type>
    <extensions>
      <osmand:color>#10c0f0</osmand:color>
      <osmand:background>square</osmand:background>
      <osmand:icon>public_bookcase</osmand:icon>
    </extensions>
  </wpt>
  <wpt lat="17.898457" lon="-62.852923">
    <name>Saint-Barthélémy z23944</name>
    <type>ZoneLivre</type>
    <extensions>
      <osmand:color>#10c0f0</osmand:color>
      <osmand:background>square</osmand:background>
      <osmand:icon>public_bookcase</osmand:icon>
    </extensions>
  </wpt>
  <wpt lat="47.807318" lon="7.12664">
    <name>Vieux-Thann z23942</name>
    <type>ZoneLivre</type>
    <extensions>
      <osmand:color>#10c0f0</osmand:color>
      <osmand:background>square</osmand:background>
      <osmand:icon>public_bookcase</osmand:icon>
    </extensions>
  </wpt>
  <wpt lat="47.80704" lon="7.12221">
    <name>Vieux-Thann z23939</name>
    <type>ZoneLivre</type>
    <extensions>
      <osmand:color>#10c0f0</osmand:color>
      <osmand:background>square</osmand:background>
      <osmand:icon>public_bookcase</osmand:icon>
    </extensions>
  </wpt>
  <wpt lat="17.917495" lon="-62.857555">
    <name>Saint-Barthélémy (971) z23935</name>
    <type>ZoneLivre</type>
    <extensions>
      <osmand:color>#10c0f0</osmand:color>
      <osmand:background>square</osmand:background>
      <osmand:icon>public_bookcase</osmand:icon>
    </extensions>
  </wpt>
  <wpt lat="46.013856" lon="3.065153">
    <name>Montcel z23929</name>
    <type>ZoneLivre</type>
    <extensions>
      <osmand:color>#10c0f0</osmand:color>
      <osmand:background>square</osmand:background>
      <osmand:icon>public_bookcase</osmand:icon>
    </extensions>
  </wpt>
  <wpt lat="45.051781" lon="3.910776">
    <name>Brives-Charensac z23926</name>
    <type>ZoneLivre</type>
    <extensions>
      <osmand:color>#10c0f0</osmand:color>
      <osmand:background>square</osmand:background>
      <osmand:icon>public_bookcase</osmand:icon>
    </extensions>
  </wpt>
  <wpt lat="50.613356" lon="3.013542">
    <name>Loos z23923</name>
    <type>ZoneLivre</type>
    <extensions>
      <osmand:color>#10c0f0</osmand:color>
      <osmand:background>square</osmand:background>
      <osmand:icon>public_bookcase</osmand:icon>
    </extensions>
  </wpt>
  <wpt lat="43.641308" lon="1.826555">
    <name>Lacougotte-Cadoul z23921</name>
    <type>ZoneLivre</type>
    <extensions>
      <osmand:color>#10c0f0</osmand:color>
      <osmand:background>square</osmand:background>
      <osmand:icon>public_bookcase</osmand:icon>
    </extensions>
  </wpt>
  <wpt lat="44.38457" lon="0.810116">
    <name>Penne-d'Agenais z23918</name>
    <type>ZoneLivre</type>
    <extensions>
      <osmand:color>#10c0f0</osmand:color>
      <osmand:background>square</osmand:background>
      <osmand:icon>public_bookcase</osmand:icon>
    </extensions>
  </wpt>
  <wpt lat="46.978891" lon="0.217688">
    <name>Maulay z23916</name>
    <type>ZoneLivre</type>
    <extensions>
      <osmand:color>#10c0f0</osmand:color>
      <osmand:background>square</osmand:background>
      <osmand:icon>public_bookcase</osmand:icon>
    </extensions>
  </wpt>
  <wpt lat="43.451215" lon="1.576428">
    <name>Montgiscard z23913</name>
    <type>ZoneLivre</type>
    <extensions>
      <osmand:color>#10c0f0</osmand:color>
      <osmand:background>square</osmand:background>
      <osmand:icon>public_bookcase</osmand:icon>
    </extensions>
  </wpt>
  <wpt lat="44.846346" lon="-0.639486">
    <name>Mérignac z23910</name>
    <type>ZoneLivre</type>
    <extensions>
      <osmand:color>#10c0f0</osmand:color>
      <osmand:background>square</osmand:background>
      <osmand:icon>public_bookcase</osmand:icon>
    </extensions>
  </wpt>
  <wpt lat="47.229463" lon="-1.597929">
    <name>Saint-Herblain z23907</name>
    <type>ZoneLivre</type>
    <extensions>
      <osmand:color>#10c0f0</osmand:color>
      <osmand:background>square</osmand:background>
      <osmand:icon>public_bookcase</osmand:icon>
    </extensions>
  </wpt>
  <wpt lat="44.538003" lon="5.963931">
    <name>Manteyer z23904</name>
    <type>ZoneLivre</type>
    <extensions>
      <osmand:color>#10c0f0</osmand:color>
      <osmand:background>square</osmand:background>
      <osmand:icon>public_bookcase</osmand:icon>
    </extensions>
  </wpt>
  <wpt lat="45.92859" lon="5.356015">
    <name>Vaux-en-Bugey z23902</name>
    <type>ZoneLivre</type>
    <extensions>
      <osmand:color>#10c0f0</osmand:color>
      <osmand:background>square</osmand:background>
      <osmand:icon>public_bookcase</osmand:icon>
    </extensions>
  </wpt>
  <wpt lat="45.718559" lon="-0.628731">
    <name>Les Gonds z23899</name>
    <type>ZoneLivre</type>
    <extensions>
      <osmand:color>#10c0f0</osmand:color>
      <osmand:background>square</osmand:background>
      <osmand:icon>public_bookcase</osmand:icon>
    </extensions>
  </wpt>
  <wpt lat="45.96162" lon="-0.985014">
    <name>Vergeroux z23896</name>
    <type>ZoneLivre</type>
    <extensions>
      <osmand:color>#10c0f0</osmand:color>
      <osmand:background>square</osmand:background>
      <osmand:icon>public_bookcase</osmand:icon>
    </extensions>
  </wpt>
  <wpt lat="43.720479" lon="7.276771">
    <name>Nice z23893</name>
    <type>ZoneLivre</type>
    <extensions>
      <osmand:color>#10c0f0</osmand:color>
      <osmand:background>square</osmand:background>
      <osmand:icon>public_bookcase</osmand:icon>
    </extensions>
  </wpt>
  <wpt lat="48.54937" lon="-1.506881">
    <name>Pontorson z23890</name>
    <type>ZoneLivre</type>
    <extensions>
      <osmand:color>#10c0f0</osmand:color>
      <osmand:background>square</osmand:background>
      <osmand:icon>public_bookcase</osmand:icon>
    </extensions>
  </wpt>
  <wpt lat="48.568729" lon="-1.096597">
    <name>Saint-Hilaire-du-Harcouët z23888</name>
    <type>ZoneLivre</type>
    <extensions>
      <osmand:color>#10c0f0</osmand:color>
      <osmand:background>square</osmand:background>
      <osmand:icon>public_bookcase</osmand:icon>
    </extensions>
  </wpt>
  <wpt lat="48.631049" lon="-1.350736">
    <name>Pontaubault z23885</name>
    <type>ZoneLivre</type>
    <extensions>
      <osmand:color>#10c0f0</osmand:color>
      <osmand:background>square</osmand:background>
      <osmand:icon>public_bookcase</osmand:icon>
    </extensions>
  </wpt>
  <wpt lat="48.646652" lon="-1.316176">
    <name>Saint-Quentin-sur-le-Homme z23883</name>
    <type>ZoneLivre</type>
    <extensions>
      <osmand:color>#10c0f0</osmand:color>
      <osmand:background>square</osmand:background>
      <osmand:icon>public_bookcase</osmand:icon>
    </extensions>
  </wpt>
  <wpt lat="48.765975" lon="-1.566649">
    <name>Jullouville z23881</name>
    <type>ZoneLivre</type>
    <extensions>
      <osmand:color>#10c0f0</osmand:color>
      <osmand:background>square</osmand:background>
      <osmand:icon>public_bookcase</osmand:icon>
    </extensions>
  </wpt>
  <wpt lat="49.682059" lon="-1.447885">
    <name>Fermanville z23879</name>
    <type>ZoneLivre</type>
    <extensions>
      <osmand:color>#10c0f0</osmand:color>
      <osmand:background>square</osmand:background>
      <osmand:icon>public_bookcase</osmand:icon>
    </extensions>
  </wpt>
  <wpt lat="49.625912" lon="-1.416705">
    <name>Brillevast z23877</name>
    <type>ZoneLivre</type>
    <extensions>
      <osmand:color>#10c0f0</osmand:color>
      <osmand:background>square</osmand:background>
      <osmand:icon>public_bookcase</osmand:icon>
    </extensions>
  </wpt>
  <wpt lat="49.618617" lon="-1.299568">
    <name>La Pernelle z23875</name>
    <type>ZoneLivre</type>
    <extensions>
      <osmand:color>#10c0f0</osmand:color>
      <osmand:background>square</osmand:background>
      <osmand:icon>public_bookcase</osmand:icon>
    </extensions>
  </wpt>
  <wpt lat="49.527863" lon="-1.780246">
    <name>Benoîtville z23873</name>
    <type>ZoneLivre</type>
    <extensions>
      <osmand:color>#10c0f0</osmand:color>
      <osmand:background>square</osmand:background>
      <osmand:icon>public_bookcase</osmand:icon>
    </extensions>
  </wpt>
  <wpt lat="49.513012" lon="-1.808528">
    <name>Les Pieux z23870</name>
    <type>ZoneLivre</type>
    <extensions>
      <osmand:color>#10c0f0</osmand:color>
      <osmand:background>square</osmand:background>
      <osmand:icon>public_bookcase</osmand:icon>
    </extensions>
  </wpt>
  <wpt lat="49.459955" lon="-1.813192">
    <name>Surtainville z23867</name>
    <type>ZoneLivre</type>
    <extensions>
      <osmand:color>#10c0f0</osmand:color>
      <osmand:background>square</osmand:background>
      <osmand:icon>public_bookcase</osmand:icon>
    </extensions>
  </wpt>
  <wpt lat="49.331609" lon="-1.540063">
    <name>Doville z23864</name>
    <type>ZoneLivre</type>
    <extensions>
      <osmand:color>#10c0f0</osmand:color>
      <osmand:background>square</osmand:background>
      <osmand:icon>public_bookcase</osmand:icon>
    </extensions>
  </wpt>
  <wpt lat="49.167132" lon="-1.349744">
    <name>Saint-Martin-d'Aubigny z23861</name>
    <type>ZoneLivre</type>
    <extensions>
      <osmand:color>#10c0f0</osmand:color>
      <osmand:background>square</osmand:background>
      <osmand:icon>public_bookcase</osmand:icon>
    </extensions>
  </wpt>
  <wpt lat="49.010147" lon="-1.551666">
    <name>Regnéville-sur-Mer z23859</name>
    <type>ZoneLivre</type>
    <extensions>
      <osmand:color>#10c0f0</osmand:color>
      <osmand:background>square</osmand:background>
      <osmand:icon>public_bookcase</osmand:icon>
    </extensions>
  </wpt>
  <wpt lat="47.773083" lon="1.101943">
    <name>Vendôme z23856</name>
    <type>ZoneLivre</type>
    <extensions>
      <osmand:color>#10c0f0</osmand:color>
      <osmand:background>square</osmand:background>
      <osmand:icon>public_bookcase</osmand:icon>
    </extensions>
  </wpt>
  <wpt lat="47.240978" lon="-0.023324">
    <name>Dampierre-sur-Loire z23854</name>
    <type>ZoneLivre</type>
    <extensions>
      <osmand:color>#10c0f0</osmand:color>
      <osmand:background>square</osmand:background>
      <osmand:icon>public_bookcase</osmand:icon>
    </extensions>
  </wpt>
  <wpt lat="47.136158" lon="-0.000684">
    <name>Saix z23852</name>
    <type>ZoneLivre</type>
    <extensions>
      <osmand:color>#10c0f0</osmand:color>
      <osmand:background>square</osmand:background>
      <osmand:icon>public_bookcase</osmand:icon>
    </extensions>
  </wpt>
  <wpt lat="47.38896" lon="0.658324">
    <name>La Riche z23850</name>
    <type>ZoneLivre</type>
    <extensions>
      <osmand:color>#10c0f0</osmand:color>
      <osmand:background>square</osmand:background>
      <osmand:icon>public_bookcase</osmand:icon>
    </extensions>
  </wpt>
  <wpt lat="49.041847" lon="-0.128266">
    <name>Condé-sur-Ifs z23848</name>
    <type>ZoneLivre</type>
    <extensions>
      <osmand:color>#10c0f0</osmand:color>
      <osmand:background>square</osmand:background>
      <osmand:icon>public_bookcase</osmand:icon>
    </extensions>
  </wpt>
  <wpt lat="47.388766" lon="0.65789">
    <name>La Riche z23846</name>
    <type>ZoneLivre</type>
    <extensions>
      <osmand:color>#10c0f0</osmand:color>
      <osmand:background>square</osmand:background>
      <osmand:icon>public_bookcase</osmand:icon>
    </extensions>
  </wpt>
  <wpt lat="47.39002" lon="0.65136">
    <name>La Riche z23844</name>
    <type>ZoneLivre</type>
    <extensions>
      <osmand:color>#10c0f0</osmand:color>
      <osmand:background>square</osmand:background>
      <osmand:icon>public_bookcase</osmand:icon>
    </extensions>
  </wpt>
  <wpt lat="47.389603" lon="0.67497">
    <name>Tours z23842</name>
    <type>ZoneLivre</type>
    <extensions>
      <osmand:color>#10c0f0</osmand:color>
      <osmand:background>square</osmand:background>
      <osmand:icon>public_bookcase</osmand:icon>
    </extensions>
  </wpt>
  <wpt lat="47.38529" lon="0.692023">
    <name>Tours z23840</name>
    <type>ZoneLivre</type>
    <extensions>
      <osmand:color>#10c0f0</osmand:color>
      <osmand:background>square</osmand:background>
      <osmand:icon>public_bookcase</osmand:icon>
    </extensions>
  </wpt>
  <wpt lat="46.139198" lon="0.22894">
    <name>Saint-Saviol z23836</name>
    <type>ZoneLivre</type>
    <extensions>
      <osmand:color>#10c0f0</osmand:color>
      <osmand:background>square</osmand:background>
      <osmand:icon>public_bookcase</osmand:icon>
    </extensions>
  </wpt>
  <wpt lat="45.939219" lon="0.311278">
    <name>Saint-Sulpice-de-Ruffec z23833</name>
    <type>ZoneLivre</type>
    <extensions>
      <osmand:color>#10c0f0</osmand:color>
      <osmand:background>square</osmand:background>
      <osmand:icon>public_bookcase</osmand:icon>
    </extensions>
  </wpt>
  <wpt lat="45.814694" lon="0.218318">
    <name>Aussac-Vadalle z23830</name>
    <type>ZoneLivre</type>
    <extensions>
      <osmand:color>#10c0f0</osmand:color>
      <osmand:background>square</osmand:background>
      <osmand:icon>public_bookcase</osmand:icon>
    </extensions>
  </wpt>
  <wpt lat="45.817794" lon="0.200069">
    <name>Aussac-Vadalle z23828</name>
    <type>ZoneLivre</type>
    <extensions>
      <osmand:color>#10c0f0</osmand:color>
      <osmand:background>square</osmand:background>
      <osmand:icon>public_bookcase</osmand:icon>
    </extensions>
  </wpt>
  <wpt lat="45.795974" lon="0.191561">
    <name>Tourriers z23825</name>
    <type>ZoneLivre</type>
    <extensions>
      <osmand:color>#10c0f0</osmand:color>
      <osmand:background>square</osmand:background>
      <osmand:icon>public_bookcase</osmand:icon>
    </extensions>
  </wpt>
  <wpt lat="45.802943" lon="0.173791">
    <name>Villejoubert z23823</name>
    <type>ZoneLivre</type>
    <extensions>
      <osmand:color>#10c0f0</osmand:color>
      <osmand:background>square</osmand:background>
      <osmand:icon>public_bookcase</osmand:icon>
    </extensions>
  </wpt>
  <wpt lat="46.788423" lon="-0.058402">
    <name>Assais-les-Jumeaux z23820</name>
    <type>ZoneLivre</type>
    <extensions>
      <osmand:color>#10c0f0</osmand:color>
      <osmand:background>square</osmand:background>
      <osmand:icon>public_bookcase</osmand:icon>
    </extensions>
  </wpt>
  <wpt lat="46.747295" lon="-0.0923">
    <name>Pressigny z23818</name>
    <type>ZoneLivre</type>
    <extensions>
      <osmand:color>#10c0f0</osmand:color>
      <osmand:background>square</osmand:background>
      <osmand:icon>public_bookcase</osmand:icon>
    </extensions>
  </wpt>
  <wpt lat="46.740919" lon="-0.119289">
    <name>Aubigny z23816</name>
    <type>ZoneLivre</type>
    <extensions>
      <osmand:color>#10c0f0</osmand:color>
      <osmand:background>square</osmand:background>
      <osmand:icon>public_bookcase</osmand:icon>
    </extensions>
  </wpt>
  <wpt lat="46.802724" lon="0.536418">
    <name>Châtellerault z23814</name>
    <type>ZoneLivre</type>
    <extensions>
      <osmand:color>#10c0f0</osmand:color>
      <osmand:background>square</osmand:background>
      <osmand:icon>public_bookcase</osmand:icon>
    </extensions>
  </wpt>
  <wpt lat="46.80558" lon="0.539749">
    <name>Châtellerault z23812</name>
    <type>ZoneLivre</type>
    <extensions>
      <osmand:color>#10c0f0</osmand:color>
      <osmand:background>square</osmand:background>
      <osmand:icon>public_bookcase</osmand:icon>
    </extensions>
  </wpt>
  <wpt lat="46.912945" lon="0.471991">
    <name>Leigné-sur-Usseau z23810</name>
    <type>ZoneLivre</type>
    <extensions>
      <osmand:color>#10c0f0</osmand:color>
      <osmand:background>square</osmand:background>
      <osmand:icon>public_bookcase</osmand:icon>
    </extensions>
  </wpt>
  <wpt lat="46.948347" lon="0.414141">
    <name>Jaulnay z23807</name>
    <type>ZoneLivre</type>
    <extensions>
      <osmand:color>#10c0f0</osmand:color>
      <osmand:background>square</osmand:background>
      <osmand:icon>public_bookcase</osmand:icon>
    </extensions>
  </wpt>
  <wpt lat="46.831818" lon="0.457671">
    <name>Thuré z23804</name>
    <type>ZoneLivre</type>
    <extensions>
      <osmand:color>#10c0f0</osmand:color>
      <osmand:background>square</osmand:background>
      <osmand:icon>public_bookcase</osmand:icon>
    </extensions>
  </wpt>
  <wpt lat="44.884217" lon="-0.649534">
    <name>Eysines z23801</name>
    <type>ZoneLivre</type>
    <extensions>
      <osmand:color>#10c0f0</osmand:color>
      <osmand:background>square</osmand:background>
      <osmand:icon>public_bookcase</osmand:icon>
    </extensions>
  </wpt>
  <wpt lat="44.875318" lon="-0.625762">
    <name>Eysines z23795</name>
    <type>ZoneLivre</type>
    <extensions>
      <osmand:color>#10c0f0</osmand:color>
      <osmand:background>square</osmand:background>
      <osmand:icon>public_bookcase</osmand:icon>
    </extensions>
  </wpt>
  <wpt lat="44.830674" lon="-0.544277">
    <name>Bordeaux z23793</name>
    <type>ZoneLivre</type>
    <extensions>
      <osmand:color>#10c0f0</osmand:color>
      <osmand:background>square</osmand:background>
      <osmand:icon>public_bookcase</osmand:icon>
    </extensions>
  </wpt>
  <wpt lat="44.841409" lon="-0.580261">
    <name>Bordeaux z23791</name>
    <type>ZoneLivre</type>
    <extensions>
      <osmand:color>#10c0f0</osmand:color>
      <osmand:background>square</osmand:background>
      <osmand:icon>public_bookcase</osmand:icon>
    </extensions>
  </wpt>
  <wpt lat="49.018294" lon="2.091029">
    <name>Éragny z23786</name>
    <type>ZoneLivre</type>
    <extensions>
      <osmand:color>#10c0f0</osmand:color>
      <osmand:background>square</osmand:background>
      <osmand:icon>public_bookcase</osmand:icon>
    </extensions>
  </wpt>
  <wpt lat="48.063276" lon="-1.772286">
    <name>Chavagne z23784</name>
    <type>ZoneLivre</type>
    <extensions>
      <osmand:color>#10c0f0</osmand:color>
      <osmand:background>square</osmand:background>
      <osmand:icon>public_bookcase</osmand:icon>
    </extensions>
  </wpt>
  <wpt lat="48.285438" lon="-1.888648">
    <name>Cardroc z23782</name>
    <type>ZoneLivre</type>
    <extensions>
      <osmand:color>#10c0f0</osmand:color>
      <osmand:background>square</osmand:background>
      <osmand:icon>public_bookcase</osmand:icon>
    </extensions>
  </wpt>
  <wpt lat="43.521145" lon="2.308293">
    <name>Caucalières z23777</name>
    <type>ZoneLivre</type>
    <extensions>
      <osmand:color>#10c0f0</osmand:color>
      <osmand:background>square</osmand:background>
      <osmand:icon>public_bookcase</osmand:icon>
    </extensions>
  </wpt>
  <wpt lat="45.751518" lon="4.827448">
    <name>Lyon z23775</name>
    <type>ZoneLivre</type>
    <extensions>
      <osmand:color>#10c0f0</osmand:color>
      <osmand:background>square</osmand:background>
      <osmand:icon>public_bookcase</osmand:icon>
    </extensions>
  </wpt>
  <wpt lat="46.365234" lon="4.23251">
    <name>Saint-Julien-de-Civry z23771</name>
    <type>ZoneLivre</type>
    <extensions>
      <osmand:color>#10c0f0</osmand:color>
      <osmand:background>square</osmand:background>
      <osmand:icon>public_bookcase</osmand:icon>
    </extensions>
  </wpt>
  <wpt lat="43.456166" lon="6.682865">
    <name>Puget-sur-Argens z23766</name>
    <type>ZoneLivre</type>
    <extensions>
      <osmand:color>#10c0f0</osmand:color>
      <osmand:background>square</osmand:background>
      <osmand:icon>public_bookcase</osmand:icon>
    </extensions>
  </wpt>
  <wpt lat="47.364692" lon="4.641852">
    <name>Avosnes z23763</name>
    <type>ZoneLivre</type>
    <extensions>
      <osmand:color>#10c0f0</osmand:color>
      <osmand:background>square</osmand:background>
      <osmand:icon>public_bookcase</osmand:icon>
    </extensions>
  </wpt>
  <wpt lat="46.802059" lon="1.689365">
    <name>Châteauroux z23761</name>
    <type>ZoneLivre</type>
    <extensions>
      <osmand:color>#10c0f0</osmand:color>
      <osmand:background>square</osmand:background>
      <osmand:icon>public_bookcase</osmand:icon>
    </extensions>
  </wpt>
  <wpt lat="48.689078" lon="2.382806">
    <name>Juvisy-sur-Orge z23759</name>
    <type>ZoneLivre</type>
    <extensions>
      <osmand:color>#10c0f0</osmand:color>
      <osmand:background>square</osmand:background>
      <osmand:icon>public_bookcase</osmand:icon>
    </extensions>
  </wpt>
  <wpt lat="45.720126" lon="6.458977">
    <name>Queige z23757</name>
    <type>ZoneLivre</type>
    <extensions>
      <osmand:color>#10c0f0</osmand:color>
      <osmand:background>square</osmand:background>
      <osmand:icon>public_bookcase</osmand:icon>
    </extensions>
  </wpt>
  <wpt lat="45.956718" lon="6.388384">
    <name>Enttremont z23755</name>
    <type>ZoneLivre</type>
    <extensions>
      <osmand:color>#10c0f0</osmand:color>
      <osmand:background>square</osmand:background>
      <osmand:icon>public_bookcase</osmand:icon>
    </extensions>
  </wpt>
  <wpt lat="44.621059" lon="1.64215">
    <name>Caniac-du-Causse z23752</name>
    <type>ZoneLivre</type>
    <extensions>
      <osmand:color>#10c0f0</osmand:color>
      <osmand:background>square</osmand:background>
      <osmand:icon>public_bookcase</osmand:icon>
    </extensions>
  </wpt>
  <wpt lat="48.995294" lon="-1.257672">
    <name>Notre-Dame-de-Cenilly z23726</name>
    <type>ZoneLivre</type>
    <extensions>
      <osmand:color>#10c0f0</osmand:color>
      <osmand:background>square</osmand:background>
      <osmand:icon>public_bookcase</osmand:icon>
    </extensions>
  </wpt>
  <wpt lat="48.743898" lon="-1.205578">
    <name>Notre-Dame-de-Livoye z23717</name>
    <type>ZoneLivre</type>
    <extensions>
      <osmand:color>#10c0f0</osmand:color>
      <osmand:background>square</osmand:background>
      <osmand:icon>public_bookcase</osmand:icon>
    </extensions>
  </wpt>
  <wpt lat="44.567365" lon="1.602757">
    <name>Sabadel-Lauzès z23714</name>
    <type>ZoneLivre</type>
    <extensions>
      <osmand:color>#10c0f0</osmand:color>
      <osmand:background>square</osmand:background>
      <osmand:icon>public_bookcase</osmand:icon>
    </extensions>
  </wpt>
  <wpt lat="44.56903" lon="1.57986">
    <name>Lauzès z23712</name>
    <type>ZoneLivre</type>
    <extensions>
      <osmand:color>#10c0f0</osmand:color>
      <osmand:background>square</osmand:background>
      <osmand:icon>public_bookcase</osmand:icon>
    </extensions>
  </wpt>
  <wpt lat="48.747895" lon="5.055892">
    <name>Trémont-sur-Saulx z23690</name>
    <type>ZoneLivre</type>
    <extensions>
      <osmand:color>#10c0f0</osmand:color>
      <osmand:background>square</osmand:background>
      <osmand:icon>public_bookcase</osmand:icon>
    </extensions>
  </wpt>
  <wpt lat="47.227607" lon="-1.554337">
    <name>Nantes z23688</name>
    <type>ZoneLivre</type>
    <extensions>
      <osmand:color>#10c0f0</osmand:color>
      <osmand:background>square</osmand:background>
      <osmand:icon>public_bookcase</osmand:icon>
    </extensions>
  </wpt>
  <wpt lat="44.052457" lon="4.136916">
    <name>Vézénobres z23686</name>
    <type>ZoneLivre</type>
    <extensions>
      <osmand:color>#10c0f0</osmand:color>
      <osmand:background>square</osmand:background>
      <osmand:icon>public_bookcase</osmand:icon>
    </extensions>
  </wpt>
  <wpt lat="44.052805" lon="4.137046">
    <name>Vézénobres z23684</name>
    <type>ZoneLivre</type>
    <extensions>
      <osmand:color>#10c0f0</osmand:color>
      <osmand:background>square</osmand:background>
      <osmand:icon>public_bookcase</osmand:icon>
    </extensions>
  </wpt>
  <wpt lat="47.677508" lon="-2.297319">
    <name>Malansac z23681</name>
    <type>ZoneLivre</type>
    <extensions>
      <osmand:color>#10c0f0</osmand:color>
      <osmand:background>square</osmand:background>
      <osmand:icon>public_bookcase</osmand:icon>
    </extensions>
  </wpt>
  <wpt lat="47.667963" lon="-2.106765">
    <name>Saint-Perreux z23679</name>
    <type>ZoneLivre</type>
    <extensions>
      <osmand:color>#10c0f0</osmand:color>
      <osmand:background>square</osmand:background>
      <osmand:icon>public_bookcase</osmand:icon>
    </extensions>
  </wpt>
  <wpt lat="47.597223" lon="-2.107813">
    <name>Rieux z23676</name>
    <type>ZoneLivre</type>
    <extensions>
      <osmand:color>#10c0f0</osmand:color>
      <osmand:background>square</osmand:background>
      <osmand:icon>public_bookcase</osmand:icon>
    </extensions>
  </wpt>
  <wpt lat="47.541581" lon="-2.324357">
    <name>Marzan z23673</name>
    <type>ZoneLivre</type>
    <extensions>
      <osmand:color>#10c0f0</osmand:color>
      <osmand:background>square</osmand:background>
      <osmand:icon>public_bookcase</osmand:icon>
    </extensions>
  </wpt>
  <wpt lat="47.556989" lon="-2.907598">
    <name>Arzon z23670</name>
    <type>ZoneLivre</type>
    <extensions>
      <osmand:color>#10c0f0</osmand:color>
      <osmand:background>square</osmand:background>
      <osmand:icon>public_bookcase</osmand:icon>
    </extensions>
  </wpt>
  <wpt lat="47.566196" lon="-2.725221">
    <name>Saint-Armel (56) z23668</name>
    <type>ZoneLivre</type>
    <extensions>
      <osmand:color>#10c0f0</osmand:color>
      <osmand:background>square</osmand:background>
      <osmand:icon>public_bookcase</osmand:icon>
    </extensions>
  </wpt>
  <wpt lat="47.591761" lon="-2.457456">
    <name>Noyal-Muzillac z23666</name>
    <type>ZoneLivre</type>
    <extensions>
      <osmand:color>#10c0f0</osmand:color>
      <osmand:background>square</osmand:background>
      <osmand:icon>public_bookcase</osmand:icon>
    </extensions>
  </wpt>
  <wpt lat="47.529168" lon="-2.482827">
    <name>Billiers z23664</name>
    <type>ZoneLivre</type>
    <extensions>
      <osmand:color>#10c0f0</osmand:color>
      <osmand:background>square</osmand:background>
      <osmand:icon>public_bookcase</osmand:icon>
    </extensions>
  </wpt>
  <wpt lat="48.984642" lon="-0.138649">
    <name>Sassy z23662</name>
    <type>ZoneLivre</type>
    <extensions>
      <osmand:color>#10c0f0</osmand:color>
      <osmand:background>square</osmand:background>
      <osmand:icon>public_bookcase</osmand:icon>
    </extensions>
  </wpt>
  <wpt lat="48.1176" lon="-0.720605">
    <name>Louverné z23655</name>
    <type>ZoneLivre</type>
    <extensions>
      <osmand:color>#10c0f0</osmand:color>
      <osmand:background>square</osmand:background>
      <osmand:icon>public_bookcase</osmand:icon>
    </extensions>
  </wpt>
  <wpt lat="45.98998" lon="0.41008">
    <name>Champagne-Mouton z23652</name>
    <type>ZoneLivre</type>
    <extensions>
      <osmand:color>#10c0f0</osmand:color>
      <osmand:background>square</osmand:background>
      <osmand:icon>public_bookcase</osmand:icon>
    </extensions>
  </wpt>
  <wpt lat="48.318047" lon="-0.434762">
    <name>La Chapelle-au-Riboul z23649</name>
    <type>ZoneLivre</type>
    <extensions>
      <osmand:color>#10c0f0</osmand:color>
      <osmand:background>square</osmand:background>
      <osmand:icon>public_bookcase</osmand:icon>
    </extensions>
  </wpt>
  <wpt lat="43.452027" lon="6.693689">
    <name>Puget-sur-Argens z23646</name>
    <type>ZoneLivre</type>
    <extensions>
      <osmand:color>#10c0f0</osmand:color>
      <osmand:background>square</osmand:background>
      <osmand:icon>public_bookcase</osmand:icon>
    </extensions>
  </wpt>
  <wpt lat="48.163012" lon="-0.642443">
    <name>Châlons-du-Maine z23644</name>
    <type>ZoneLivre</type>
    <extensions>
      <osmand:color>#10c0f0</osmand:color>
      <osmand:background>square</osmand:background>
      <osmand:icon>public_bookcase</osmand:icon>
    </extensions>
  </wpt>
  <wpt lat="44.85877" lon="-0.565788">
    <name>Bordeaux z23638</name>
    <type>ZoneLivre</type>
    <extensions>
      <osmand:color>#10c0f0</osmand:color>
      <osmand:background>square</osmand:background>
      <osmand:icon>public_bookcase</osmand:icon>
    </extensions>
  </wpt>
  <wpt lat="45.658088" lon="0.172412">
    <name>Angoulême z23636</name>
    <type>ZoneLivre</type>
    <extensions>
      <osmand:color>#10c0f0</osmand:color>
      <osmand:background>square</osmand:background>
      <osmand:icon>public_bookcase</osmand:icon>
    </extensions>
  </wpt>
  <wpt lat="45.64678" lon="0.185783">
    <name>Soyaux z23633</name>
    <type>ZoneLivre</type>
    <extensions>
      <osmand:color>#10c0f0</osmand:color>
      <osmand:background>square</osmand:background>
      <osmand:icon>public_bookcase</osmand:icon>
    </extensions>
  </wpt>
  <wpt lat="45.648089" lon="0.166415">
    <name>Angoulême z23631</name>
    <type>ZoneLivre</type>
    <extensions>
      <osmand:color>#10c0f0</osmand:color>
      <osmand:background>square</osmand:background>
      <osmand:icon>public_bookcase</osmand:icon>
    </extensions>
  </wpt>
  <wpt lat="45.648421" lon="0.162362">
    <name>Angoulême z23628</name>
    <type>ZoneLivre</type>
    <extensions>
      <osmand:color>#10c0f0</osmand:color>
      <osmand:background>square</osmand:background>
      <osmand:icon>public_bookcase</osmand:icon>
    </extensions>
  </wpt>
  <wpt lat="45.65109" lon="0.15584">
    <name>Angoulême z23625</name>
    <type>ZoneLivre</type>
    <extensions>
      <osmand:color>#10c0f0</osmand:color>
      <osmand:background>square</osmand:background>
      <osmand:icon>public_bookcase</osmand:icon>
    </extensions>
  </wpt>
  <wpt lat="48.671987" lon="1.282488">
    <name>Crécy-Couvé z23623</name>
    <type>ZoneLivre</type>
    <extensions>
      <osmand:color>#10c0f0</osmand:color>
      <osmand:background>square</osmand:background>
      <osmand:icon>public_bookcase</osmand:icon>
    </extensions>
  </wpt>
  <wpt lat="48.658433" lon="1.273848">
    <name>Saulnières z23620</name>
    <type>ZoneLivre</type>
    <extensions>
      <osmand:color>#10c0f0</osmand:color>
      <osmand:background>square</osmand:background>
      <osmand:icon>public_bookcase</osmand:icon>
    </extensions>
  </wpt>
  <wpt lat="44.39353" lon="4.753741">
    <name>La Garde Adhémar z23617</name>
    <type>ZoneLivre</type>
    <extensions>
      <osmand:color>#10c0f0</osmand:color>
      <osmand:background>square</osmand:background>
      <osmand:icon>public_bookcase</osmand:icon>
    </extensions>
  </wpt>
  <wpt lat="43.982031" lon="0.497831">
    <name>La Romieu z23612</name>
    <type>ZoneLivre</type>
    <extensions>
      <osmand:color>#10c0f0</osmand:color>
      <osmand:background>square</osmand:background>
      <osmand:icon>public_bookcase</osmand:icon>
    </extensions>
  </wpt>
  <wpt lat="43.804946" lon="0.430787">
    <name>Castéra-Verduzan z23609</name>
    <type>ZoneLivre</type>
    <extensions>
      <osmand:color>#10c0f0</osmand:color>
      <osmand:background>square</osmand:background>
      <osmand:icon>public_bookcase</osmand:icon>
    </extensions>
  </wpt>
  <wpt lat="44.065632" lon="0.392791">
    <name>Lasserre (47) z23607</name>
    <type>ZoneLivre</type>
    <extensions>
      <osmand:color>#10c0f0</osmand:color>
      <osmand:background>square</osmand:background>
      <osmand:icon>public_bookcase</osmand:icon>
    </extensions>
  </wpt>
  <wpt lat="44.06372" lon="0.42794">
    <name>Francescas z23605</name>
    <type>ZoneLivre</type>
    <extensions>
      <osmand:color>#10c0f0</osmand:color>
      <osmand:background>square</osmand:background>
      <osmand:icon>public_bookcase</osmand:icon>
    </extensions>
  </wpt>
  <wpt lat="44.461841" lon="1.450405">
    <name>Cahors z23602</name>
    <type>ZoneLivre</type>
    <extensions>
      <osmand:color>#10c0f0</osmand:color>
      <osmand:background>square</osmand:background>
      <osmand:icon>public_bookcase</osmand:icon>
    </extensions>
  </wpt>
  <wpt lat="48.613988" lon="6.253356">
    <name>Ville-en-Vermois z23600</name>
    <type>ZoneLivre</type>
    <extensions>
      <osmand:color>#10c0f0</osmand:color>
      <osmand:background>square</osmand:background>
      <osmand:icon>public_bookcase</osmand:icon>
    </extensions>
  </wpt>
  <wpt lat="48.659397" lon="6.173259">
    <name>Vandœuvre-lès-Nancy z23598</name>
    <type>ZoneLivre</type>
    <extensions>
      <osmand:color>#10c0f0</osmand:color>
      <osmand:background>square</osmand:background>
      <osmand:icon>public_bookcase</osmand:icon>
    </extensions>
  </wpt>
  <wpt lat="48.469989" lon="0.016286">
    <name>Cuissai z23594</name>
    <type>ZoneLivre</type>
    <extensions>
      <osmand:color>#10c0f0</osmand:color>
      <osmand:background>square</osmand:background>
      <osmand:icon>public_bookcase</osmand:icon>
    </extensions>
  </wpt>
  <wpt lat="45.567179" lon="5.375187">
    <name>Cessieu z23591</name>
    <type>ZoneLivre</type>
    <extensions>
      <osmand:color>#10c0f0</osmand:color>
      <osmand:background>square</osmand:background>
      <osmand:icon>public_bookcase</osmand:icon>
    </extensions>
  </wpt>
  <wpt lat="43.047685" lon="2.223079">
    <name>Limoux z23589</name>
    <type>ZoneLivre</type>
    <extensions>
      <osmand:color>#10c0f0</osmand:color>
      <osmand:background>square</osmand:background>
      <osmand:icon>public_bookcase</osmand:icon>
    </extensions>
  </wpt>
  <wpt lat="49.17947" lon="-1.33417">
    <name>Saint-Martin-d'Aubigny z23586</name>
    <type>ZoneLivre</type>
    <extensions>
      <osmand:color>#10c0f0</osmand:color>
      <osmand:background>square</osmand:background>
      <osmand:icon>public_bookcase</osmand:icon>
    </extensions>
  </wpt>
  <wpt lat="49.111525" lon="-1.034603">
    <name>La Barre-de-Semilly z23583</name>
    <type>ZoneLivre</type>
    <extensions>
      <osmand:color>#10c0f0</osmand:color>
      <osmand:background>square</osmand:background>
      <osmand:icon>public_bookcase</osmand:icon>
    </extensions>
  </wpt>
  <wpt lat="49.185383" lon="-0.759835">
    <name>Saint-Paul-du-Vernay z23581</name>
    <type>ZoneLivre</type>
    <extensions>
      <osmand:color>#10c0f0</osmand:color>
      <osmand:background>square</osmand:background>
      <osmand:icon>public_bookcase</osmand:icon>
    </extensions>
  </wpt>
  <wpt lat="49.187583" lon="-0.761662">
    <name>Saint-Paul-du-Vernay z23578</name>
    <type>ZoneLivre</type>
    <extensions>
      <osmand:color>#10c0f0</osmand:color>
      <osmand:background>square</osmand:background>
      <osmand:icon>public_bookcase</osmand:icon>
    </extensions>
  </wpt>
  <wpt lat="48.701843" lon="-0.368302">
    <name>Briouze z23575</name>
    <type>ZoneLivre</type>
    <extensions>
      <osmand:color>#10c0f0</osmand:color>
      <osmand:background>square</osmand:background>
      <osmand:icon>public_bookcase</osmand:icon>
    </extensions>
  </wpt>
  <wpt lat="49.0187" lon="-0.030376">
    <name>Saint-Pierre-en-Auge z23573</name>
    <type>ZoneLivre</type>
    <extensions>
      <osmand:color>#10c0f0</osmand:color>
      <osmand:background>square</osmand:background>
      <osmand:icon>public_bookcase</osmand:icon>
    </extensions>
  </wpt>
  <wpt lat="49.293069" lon="-0.112218">
    <name>Cabourg z23571</name>
    <type>ZoneLivre</type>
    <extensions>
      <osmand:color>#10c0f0</osmand:color>
      <osmand:background>square</osmand:background>
      <osmand:icon>public_bookcase</osmand:icon>
    </extensions>
  </wpt>
  <wpt lat="49.28745" lon="-0.115638">
    <name>Cabourg z23568</name>
    <type>ZoneLivre</type>
    <extensions>
      <osmand:color>#10c0f0</osmand:color>
      <osmand:background>square</osmand:background>
      <osmand:icon>public_bookcase</osmand:icon>
    </extensions>
  </wpt>
  <wpt lat="49.281822" lon="-0.1266">
    <name>Cabourg z23565</name>
    <type>ZoneLivre</type>
    <extensions>
      <osmand:color>#10c0f0</osmand:color>
      <osmand:background>square</osmand:background>
      <osmand:icon>public_bookcase</osmand:icon>
    </extensions>
  </wpt>
  <wpt lat="49.28211" lon="-0.131978">
    <name>Cabourg z23562</name>
    <type>ZoneLivre</type>
    <extensions>
      <osmand:color>#10c0f0</osmand:color>
      <osmand:background>square</osmand:background>
      <osmand:icon>public_bookcase</osmand:icon>
    </extensions>
  </wpt>
  <wpt lat="49.300229" lon="-0.323638">
    <name>Lion-sur-Mer z23558</name>
    <type>ZoneLivre</type>
    <extensions>
      <osmand:color>#10c0f0</osmand:color>
      <osmand:background>square</osmand:background>
      <osmand:icon>public_bookcase</osmand:icon>
    </extensions>
  </wpt>
  <wpt lat="49.188311" lon="-0.386694">
    <name>Caen z23555</name>
    <type>ZoneLivre</type>
    <extensions>
      <osmand:color>#10c0f0</osmand:color>
      <osmand:background>square</osmand:background>
      <osmand:icon>public_bookcase</osmand:icon>
    </extensions>
  </wpt>
  <wpt lat="49.177478" lon="-0.386689">
    <name>Caen z23553</name>
    <type>ZoneLivre</type>
    <extensions>
      <osmand:color>#10c0f0</osmand:color>
      <osmand:background>square</osmand:background>
      <osmand:icon>public_bookcase</osmand:icon>
    </extensions>
  </wpt>
  <wpt lat="48.942474" lon="-0.218385">
    <name>Soulangy z23550</name>
    <type>ZoneLivre</type>
    <extensions>
      <osmand:color>#10c0f0</osmand:color>
      <osmand:background>square</osmand:background>
      <osmand:icon>public_bookcase</osmand:icon>
    </extensions>
  </wpt>
  <wpt lat="49.081177" lon="-0.281155">
    <name>Saint-Aignan-de-Cramesnil z23547</name>
    <type>ZoneLivre</type>
    <extensions>
      <osmand:color>#10c0f0</osmand:color>
      <osmand:background>square</osmand:background>
      <osmand:icon>public_bookcase</osmand:icon>
    </extensions>
  </wpt>
  <wpt lat="49.098227" lon="-0.287801">
    <name>Garcelles z23545</name>
    <type>ZoneLivre</type>
    <extensions>
      <osmand:color>#10c0f0</osmand:color>
      <osmand:background>square</osmand:background>
      <osmand:icon>public_bookcase</osmand:icon>
    </extensions>
  </wpt>
  <wpt lat="49.04409" lon="-0.32247">
    <name>Bretteville-sur-Laize z23543</name>
    <type>ZoneLivre</type>
    <extensions>
      <osmand:color>#10c0f0</osmand:color>
      <osmand:background>square</osmand:background>
      <osmand:icon>public_bookcase</osmand:icon>
    </extensions>
  </wpt>
  <wpt lat="49.123173" lon="-0.717199">
    <name>Saint-Germain-d'Ectot z23540</name>
    <type>ZoneLivre</type>
    <extensions>
      <osmand:color>#10c0f0</osmand:color>
      <osmand:background>square</osmand:background>
      <osmand:icon>public_bookcase</osmand:icon>
    </extensions>
  </wpt>
  <wpt lat="48.935693" lon="-0.652957">
    <name>Terres de Druance z23538</name>
    <type>ZoneLivre</type>
    <extensions>
      <osmand:color>#10c0f0</osmand:color>
      <osmand:background>square</osmand:background>
      <osmand:icon>public_bookcase</osmand:icon>
    </extensions>
  </wpt>
  <wpt lat="44.114087" lon="4.903488">
    <name>Jonquières z23535</name>
    <type>ZoneLivre</type>
    <extensions>
      <osmand:color>#10c0f0</osmand:color>
      <osmand:background>square</osmand:background>
      <osmand:icon>public_bookcase</osmand:icon>
    </extensions>
  </wpt>
  <wpt lat="44.114214" lon="4.89994">
    <name>Jonquières z23532</name>
    <type>ZoneLivre</type>
    <extensions>
      <osmand:color>#10c0f0</osmand:color>
      <osmand:background>square</osmand:background>
      <osmand:icon>public_bookcase</osmand:icon>
    </extensions>
  </wpt>
  <wpt lat="44.11618" lon="4.898585">
    <name>Jonquières z23530</name>
    <type>ZoneLivre</type>
    <extensions>
      <osmand:color>#10c0f0</osmand:color>
      <osmand:background>square</osmand:background>
      <osmand:icon>public_bookcase</osmand:icon>
    </extensions>
  </wpt>
  <wpt lat="44.113463" lon="4.901713">
    <name>Jonquières z23528</name>
    <type>ZoneLivre</type>
    <extensions>
      <osmand:color>#10c0f0</osmand:color>
      <osmand:background>square</osmand:background>
      <osmand:icon>public_bookcase</osmand:icon>
    </extensions>
  </wpt>
  <wpt lat="44.115148" lon="4.900018">
    <name>Jonquières z23525</name>
    <type>ZoneLivre</type>
    <extensions>
      <osmand:color>#10c0f0</osmand:color>
      <osmand:background>square</osmand:background>
      <osmand:icon>public_bookcase</osmand:icon>
    </extensions>
  </wpt>
  <wpt lat="44.118955" lon="4.902872">
    <name>Jonquières z23522</name>
    <type>ZoneLivre</type>
    <extensions>
      <osmand:color>#10c0f0</osmand:color>
      <osmand:background>square</osmand:background>
      <osmand:icon>public_bookcase</osmand:icon>
    </extensions>
  </wpt>
  <wpt lat="44.121131" lon="4.908595">
    <name>Jonquières z23520</name>
    <type>ZoneLivre</type>
    <extensions>
      <osmand:color>#10c0f0</osmand:color>
      <osmand:background>square</osmand:background>
      <osmand:icon>public_bookcase</osmand:icon>
    </extensions>
  </wpt>
  <wpt lat="44.099981" lon="4.7545">
    <name>Caderousse z23517</name>
    <type>ZoneLivre</type>
    <extensions>
      <osmand:color>#10c0f0</osmand:color>
      <osmand:background>square</osmand:background>
      <osmand:icon>public_bookcase</osmand:icon>
    </extensions>
  </wpt>
  <wpt lat="44.386715" lon="4.991151">
    <name>Valréas z23514</name>
    <type>ZoneLivre</type>
    <extensions>
      <osmand:color>#10c0f0</osmand:color>
      <osmand:background>square</osmand:background>
      <osmand:icon>public_bookcase</osmand:icon>
    </extensions>
  </wpt>
  <wpt lat="44.093994" lon="4.879349">
    <name>Courthézon z23512</name>
    <type>ZoneLivre</type>
    <extensions>
      <osmand:color>#10c0f0</osmand:color>
      <osmand:background>square</osmand:background>
      <osmand:icon>public_bookcase</osmand:icon>
    </extensions>
  </wpt>
  <wpt lat="44.085131" lon="4.884807">
    <name>Courthézon z23510</name>
    <type>ZoneLivre</type>
    <extensions>
      <osmand:color>#10c0f0</osmand:color>
      <osmand:background>square</osmand:background>
      <osmand:icon>public_bookcase</osmand:icon>
    </extensions>
  </wpt>
  <wpt lat="44.383308" lon="4.989888">
    <name>Valréas z23507</name>
    <type>ZoneLivre</type>
    <extensions>
      <osmand:color>#10c0f0</osmand:color>
      <osmand:background>square</osmand:background>
      <osmand:icon>public_bookcase</osmand:icon>
    </extensions>
  </wpt>
  <wpt lat="44.359842" lon="4.912025">
    <name>Richerenches z23504</name>
    <type>ZoneLivre</type>
    <extensions>
      <osmand:color>#10c0f0</osmand:color>
      <osmand:background>square</osmand:background>
      <osmand:icon>public_bookcase</osmand:icon>
    </extensions>
  </wpt>
  <wpt lat="44.315097" lon="4.950803">
    <name>Visan z23501</name>
    <type>ZoneLivre</type>
    <extensions>
      <osmand:color>#10c0f0</osmand:color>
      <osmand:background>square</osmand:background>
      <osmand:icon>public_bookcase</osmand:icon>
    </extensions>
  </wpt>
  <wpt lat="44.313405" lon="4.951055">
    <name>Visan z23499</name>
    <type>ZoneLivre</type>
    <extensions>
      <osmand:color>#10c0f0</osmand:color>
      <osmand:background>square</osmand:background>
      <osmand:icon>public_bookcase</osmand:icon>
    </extensions>
  </wpt>
  <wpt lat="44.190686" lon="4.845236">
    <name>Sérignan-du-Comtat z23496</name>
    <type>ZoneLivre</type>
    <extensions>
      <osmand:color>#10c0f0</osmand:color>
      <osmand:background>square</osmand:background>
      <osmand:icon>public_bookcase</osmand:icon>
    </extensions>
  </wpt>
  <wpt lat="44.102059" lon="4.755983">
    <name>Caderousse z23494</name>
    <type>ZoneLivre</type>
    <extensions>
      <osmand:color>#10c0f0</osmand:color>
      <osmand:background>square</osmand:background>
      <osmand:icon>public_bookcase</osmand:icon>
    </extensions>
  </wpt>
  <wpt lat="44.102574" lon="4.756978">
    <name>Caderousse z23491</name>
    <type>ZoneLivre</type>
    <extensions>
      <osmand:color>#10c0f0</osmand:color>
      <osmand:background>square</osmand:background>
      <osmand:icon>public_bookcase</osmand:icon>
    </extensions>
  </wpt>
  <wpt lat="44.102805" lon="4.75748">
    <name>Caderousse z23488</name>
    <type>ZoneLivre</type>
    <extensions>
      <osmand:color>#10c0f0</osmand:color>
      <osmand:background>square</osmand:background>
      <osmand:icon>public_bookcase</osmand:icon>
    </extensions>
  </wpt>
  <wpt lat="44.102703" lon="4.758711">
    <name>Caderousse z23485</name>
    <type>ZoneLivre</type>
    <extensions>
      <osmand:color>#10c0f0</osmand:color>
      <osmand:background>square</osmand:background>
      <osmand:icon>public_bookcase</osmand:icon>
    </extensions>
  </wpt>
  <wpt lat="44.104325" lon="4.75435">
    <name>Caderousse z23483</name>
    <type>ZoneLivre</type>
    <extensions>
      <osmand:color>#10c0f0</osmand:color>
      <osmand:background>square</osmand:background>
      <osmand:icon>public_bookcase</osmand:icon>
    </extensions>
  </wpt>
  <wpt lat="44.104292" lon="4.754969">
    <name>Caderousse z23481</name>
    <type>ZoneLivre</type>
    <extensions>
      <osmand:color>#10c0f0</osmand:color>
      <osmand:background>square</osmand:background>
      <osmand:icon>public_bookcase</osmand:icon>
    </extensions>
  </wpt>
  <wpt lat="44.305178" lon="4.687056">
    <name>Lapalud z23479</name>
    <type>ZoneLivre</type>
    <extensions>
      <osmand:color>#10c0f0</osmand:color>
      <osmand:background>square</osmand:background>
      <osmand:icon>public_bookcase</osmand:icon>
    </extensions>
  </wpt>
  <wpt lat="44.239115" lon="4.713191">
    <name>Mondragon z23476</name>
    <type>ZoneLivre</type>
    <extensions>
      <osmand:color>#10c0f0</osmand:color>
      <osmand:background>square</osmand:background>
      <osmand:icon>public_bookcase</osmand:icon>
    </extensions>
  </wpt>
  <wpt lat="44.264702" lon="4.679921">
    <name>Lamotte-du-Rhône z23474</name>
    <type>ZoneLivre</type>
    <extensions>
      <osmand:color>#10c0f0</osmand:color>
      <osmand:background>square</osmand:background>
      <osmand:icon>public_bookcase</osmand:icon>
    </extensions>
  </wpt>
  <wpt lat="44.19714" lon="4.737141">
    <name>Mornas z23471</name>
    <type>ZoneLivre</type>
    <extensions>
      <osmand:color>#10c0f0</osmand:color>
      <osmand:background>square</osmand:background>
      <osmand:icon>public_bookcase</osmand:icon>
    </extensions>
  </wpt>
  <wpt lat="44.216588" lon="4.75178">
    <name>Mornas z23468</name>
    <type>ZoneLivre</type>
    <extensions>
      <osmand:color>#10c0f0</osmand:color>
      <osmand:background>square</osmand:background>
      <osmand:icon>public_bookcase</osmand:icon>
    </extensions>
  </wpt>
  <wpt lat="44.018174" lon="5.104877">
    <name>Saint-Didier z23465</name>
    <type>ZoneLivre</type>
    <extensions>
      <osmand:color>#10c0f0</osmand:color>
      <osmand:background>square</osmand:background>
      <osmand:icon>public_bookcase</osmand:icon>
    </extensions>
  </wpt>
  <wpt lat="44.009511" lon="4.881339">
    <name>Sorgues z23461</name>
    <type>ZoneLivre</type>
    <extensions>
      <osmand:color>#10c0f0</osmand:color>
      <osmand:background>square</osmand:background>
      <osmand:icon>public_bookcase</osmand:icon>
    </extensions>
  </wpt>
  <wpt lat="44.008296" lon="4.873458">
    <name>Sorgues z23457</name>
    <type>ZoneLivre</type>
    <extensions>
      <osmand:color>#10c0f0</osmand:color>
      <osmand:background>square</osmand:background>
      <osmand:icon>public_bookcase</osmand:icon>
    </extensions>
  </wpt>
  <wpt lat="44.016259" lon="4.860171">
    <name>Sorgues z23454</name>
    <type>ZoneLivre</type>
    <extensions>
      <osmand:color>#10c0f0</osmand:color>
      <osmand:background>square</osmand:background>
      <osmand:icon>public_bookcase</osmand:icon>
    </extensions>
  </wpt>
  <wpt lat="43.990456" lon="4.871637">
    <name>Sorgues z23452</name>
    <type>ZoneLivre</type>
    <extensions>
      <osmand:color>#10c0f0</osmand:color>
      <osmand:background>square</osmand:background>
      <osmand:icon>public_bookcase</osmand:icon>
    </extensions>
  </wpt>
  <wpt lat="44.006554" lon="5.108865">
    <name>Saint-Didier z23450</name>
    <type>ZoneLivre</type>
    <extensions>
      <osmand:color>#10c0f0</osmand:color>
      <osmand:background>square</osmand:background>
      <osmand:icon>public_bookcase</osmand:icon>
    </extensions>
  </wpt>
  <wpt lat="44.269925" lon="5.127284">
    <name>Puyméras z23448</name>
    <type>ZoneLivre</type>
    <extensions>
      <osmand:color>#10c0f0</osmand:color>
      <osmand:background>square</osmand:background>
      <osmand:icon>public_bookcase</osmand:icon>
    </extensions>
  </wpt>
  <wpt lat="44.16839" lon="5.068514">
    <name>Suzette z23446</name>
    <type>ZoneLivre</type>
    <extensions>
      <osmand:color>#10c0f0</osmand:color>
      <osmand:background>square</osmand:background>
      <osmand:icon>public_bookcase</osmand:icon>
    </extensions>
  </wpt>
  <wpt lat="44.175279" lon="5.134716">
    <name>Malaucène z23443</name>
    <type>ZoneLivre</type>
    <extensions>
      <osmand:color>#10c0f0</osmand:color>
      <osmand:background>square</osmand:background>
      <osmand:icon>public_bookcase</osmand:icon>
    </extensions>
  </wpt>
  <wpt lat="43.996052" lon="5.14677">
    <name>Venasque z23440</name>
    <type>ZoneLivre</type>
    <extensions>
      <osmand:color>#10c0f0</osmand:color>
      <osmand:background>square</osmand:background>
      <osmand:icon>public_bookcase</osmand:icon>
    </extensions>
  </wpt>
  <wpt lat="43.982685" lon="5.119932">
    <name>Le Beaucet z23438</name>
    <type>ZoneLivre</type>
    <extensions>
      <osmand:color>#10c0f0</osmand:color>
      <osmand:background>square</osmand:background>
      <osmand:icon>public_bookcase</osmand:icon>
    </extensions>
  </wpt>
  <wpt lat="43.950476" lon="4.804958">
    <name>Avignon z23435</name>
    <type>ZoneLivre</type>
    <extensions>
      <osmand:color>#10c0f0</osmand:color>
      <osmand:background>square</osmand:background>
      <osmand:icon>public_bookcase</osmand:icon>
    </extensions>
  </wpt>
  <wpt lat="43.951347" lon="4.808503">
    <name>Avignon z23433</name>
    <type>ZoneLivre</type>
    <extensions>
      <osmand:color>#10c0f0</osmand:color>
      <osmand:background>square</osmand:background>
      <osmand:icon>public_bookcase</osmand:icon>
    </extensions>
  </wpt>
  <wpt lat="43.937792" lon="4.87101">
    <name>Avignon z23430</name>
    <type>ZoneLivre</type>
    <extensions>
      <osmand:color>#10c0f0</osmand:color>
      <osmand:background>square</osmand:background>
      <osmand:icon>public_bookcase</osmand:icon>
    </extensions>
  </wpt>
  <wpt lat="43.834842" lon="5.043218">
    <name>Cavaillon z23427</name>
    <type>ZoneLivre</type>
    <extensions>
      <osmand:color>#10c0f0</osmand:color>
      <osmand:background>square</osmand:background>
      <osmand:icon>public_bookcase</osmand:icon>
    </extensions>
  </wpt>
  <wpt lat="43.857558" lon="5.203072">
    <name>Beaumettes z23424</name>
    <type>ZoneLivre</type>
    <extensions>
      <osmand:color>#10c0f0</osmand:color>
      <osmand:background>square</osmand:background>
      <osmand:icon>public_bookcase</osmand:icon>
    </extensions>
  </wpt>
  <wpt lat="43.755818" lon="5.202922">
    <name>Mérindol z23421</name>
    <type>ZoneLivre</type>
    <extensions>
      <osmand:color>#10c0f0</osmand:color>
      <osmand:background>square</osmand:background>
      <osmand:icon>public_bookcase</osmand:icon>
    </extensions>
  </wpt>
  <wpt lat="43.753797" lon="5.268534">
    <name>Puget z23419</name>
    <type>ZoneLivre</type>
    <extensions>
      <osmand:color>#10c0f0</osmand:color>
      <osmand:background>square</osmand:background>
      <osmand:icon>public_bookcase</osmand:icon>
    </extensions>
  </wpt>
  <wpt lat="43.829092" lon="5.40356">
    <name>Sivergues z23416</name>
    <type>ZoneLivre</type>
    <extensions>
      <osmand:color>#10c0f0</osmand:color>
      <osmand:background>square</osmand:background>
      <osmand:icon>public_bookcase</osmand:icon>
    </extensions>
  </wpt>
  <wpt lat="43.746758" lon="5.314137">
    <name>Lauris z23413</name>
    <type>ZoneLivre</type>
    <extensions>
      <osmand:color>#10c0f0</osmand:color>
      <osmand:background>square</osmand:background>
      <osmand:icon>public_bookcase</osmand:icon>
    </extensions>
  </wpt>
  <wpt lat="43.810569" lon="5.595246">
    <name>Vitrolles-en-Lubéron z23410</name>
    <type>ZoneLivre</type>
    <extensions>
      <osmand:color>#10c0f0</osmand:color>
      <osmand:background>square</osmand:background>
      <osmand:icon>public_bookcase</osmand:icon>
    </extensions>
  </wpt>
  <wpt lat="43.727127" lon="5.549772">
    <name>La Tour-d'Aigues z23408</name>
    <type>ZoneLivre</type>
    <extensions>
      <osmand:color>#10c0f0</osmand:color>
      <osmand:background>square</osmand:background>
      <osmand:icon>public_bookcase</osmand:icon>
    </extensions>
  </wpt>
  <wpt lat="43.692272" lon="5.498555">
    <name>Pertuis z23405</name>
    <type>ZoneLivre</type>
    <extensions>
      <osmand:color>#10c0f0</osmand:color>
      <osmand:background>square</osmand:background>
      <osmand:icon>public_bookcase</osmand:icon>
    </extensions>
  </wpt>
  <wpt lat="43.695053" lon="5.501841">
    <name>Pertuis z23403</name>
    <type>ZoneLivre</type>
    <extensions>
      <osmand:color>#10c0f0</osmand:color>
      <osmand:background>square</osmand:background>
      <osmand:icon>public_bookcase</osmand:icon>
    </extensions>
  </wpt>
  <wpt lat="43.696227" lon="5.502328">
    <name>Pertuis z23400</name>
    <type>ZoneLivre</type>
    <extensions>
      <osmand:color>#10c0f0</osmand:color>
      <osmand:background>square</osmand:background>
      <osmand:icon>public_bookcase</osmand:icon>
    </extensions>
  </wpt>
  <wpt lat="43.695715" lon="5.50355">
    <name>Pertuis z23397</name>
    <type>ZoneLivre</type>
    <extensions>
      <osmand:color>#10c0f0</osmand:color>
      <osmand:background>square</osmand:background>
      <osmand:icon>public_bookcase</osmand:icon>
    </extensions>
  </wpt>
  <wpt lat="43.694518" lon="5.50161">
    <name>Pertuis z23395</name>
    <type>ZoneLivre</type>
    <extensions>
      <osmand:color>#10c0f0</osmand:color>
      <osmand:background>square</osmand:background>
      <osmand:icon>public_bookcase</osmand:icon>
    </extensions>
  </wpt>
  <wpt lat="43.695523" lon="5.504926">
    <name>Pertuis z23393</name>
    <type>ZoneLivre</type>
    <extensions>
      <osmand:color>#10c0f0</osmand:color>
      <osmand:background>square</osmand:background>
      <osmand:icon>public_bookcase</osmand:icon>
    </extensions>
  </wpt>
  <wpt lat="49.301346" lon="-0.388888">
    <name>Douvres-la-Délivrande z23391</name>
    <type>ZoneLivre</type>
    <extensions>
      <osmand:color>#10c0f0</osmand:color>
      <osmand:background>square</osmand:background>
      <osmand:icon>public_bookcase</osmand:icon>
    </extensions>
  </wpt>
  <wpt lat="49.24883" lon="-0.205669">
    <name>Bréville-les-Monts z23388</name>
    <type>ZoneLivre</type>
    <extensions>
      <osmand:color>#10c0f0</osmand:color>
      <osmand:background>square</osmand:background>
      <osmand:icon>public_bookcase</osmand:icon>
    </extensions>
  </wpt>
  <wpt lat="48.860559" lon="2.409659">
    <name>Paris 20e z23386</name>
    <type>ZoneLivre</type>
    <extensions>
      <osmand:color>#10c0f0</osmand:color>
      <osmand:background>square</osmand:background>
      <osmand:icon>public_bookcase</osmand:icon>
    </extensions>
  </wpt>
  <wpt lat="45.039559" lon="1.953633">
    <name>La Chapelle-Saint-Géraud z23383</name>
    <type>ZoneLivre</type>
    <extensions>
      <osmand:color>#10c0f0</osmand:color>
      <osmand:background>square</osmand:background>
      <osmand:icon>public_bookcase</osmand:icon>
    </extensions>
  </wpt>
  <wpt lat="48.688393" lon="3.083124">
    <name>Vaudoy-en-Brie z23380</name>
    <type>ZoneLivre</type>
    <extensions>
      <osmand:color>#10c0f0</osmand:color>
      <osmand:background>square</osmand:background>
      <osmand:icon>public_bookcase</osmand:icon>
    </extensions>
  </wpt>
  <wpt lat="49.182591" lon="-0.300461">
    <name>Giberville z23361</name>
    <type>ZoneLivre</type>
    <extensions>
      <osmand:color>#10c0f0</osmand:color>
      <osmand:background>square</osmand:background>
      <osmand:icon>public_bookcase</osmand:icon>
    </extensions>
  </wpt>
  <wpt lat="49.181407" lon="-0.283118">
    <name>Giberville z23358</name>
    <type>ZoneLivre</type>
    <extensions>
      <osmand:color>#10c0f0</osmand:color>
      <osmand:background>square</osmand:background>
      <osmand:icon>public_bookcase</osmand:icon>
    </extensions>
  </wpt>
  <wpt lat="48.582229" lon="7.746241">
    <name>Strasbourg z23343</name>
    <type>ZoneLivre</type>
    <extensions>
      <osmand:color>#10c0f0</osmand:color>
      <osmand:background>square</osmand:background>
      <osmand:icon>public_bookcase</osmand:icon>
    </extensions>
  </wpt>
  <wpt lat="49.047988" lon="-0.393552">
    <name>Boulon z23341</name>
    <type>ZoneLivre</type>
    <extensions>
      <osmand:color>#10c0f0</osmand:color>
      <osmand:background>square</osmand:background>
      <osmand:icon>public_bookcase</osmand:icon>
    </extensions>
  </wpt>
  <wpt lat="47.444361" lon="4.741612">
    <name>Bligny-le-Sec z23338</name>
    <type>ZoneLivre</type>
    <extensions>
      <osmand:color>#10c0f0</osmand:color>
      <osmand:background>square</osmand:background>
      <osmand:icon>public_bookcase</osmand:icon>
    </extensions>
  </wpt>
  <wpt lat="49.353246" lon="0.054358">
    <name>Tourgéville z23332</name>
    <type>ZoneLivre</type>
    <extensions>
      <osmand:color>#10c0f0</osmand:color>
      <osmand:background>square</osmand:background>
      <osmand:icon>public_bookcase</osmand:icon>
    </extensions>
  </wpt>
  <wpt lat="49.750904" lon="0.877699">
    <name>Saint-Laurent-en-Caux z23323</name>
    <type>ZoneLivre</type>
    <extensions>
      <osmand:color>#10c0f0</osmand:color>
      <osmand:background>square</osmand:background>
      <osmand:icon>public_bookcase</osmand:icon>
    </extensions>
  </wpt>
  <wpt lat="43.98526" lon="0.01087">
    <name>Gabarret z23321</name>
    <type>ZoneLivre</type>
    <extensions>
      <osmand:color>#10c0f0</osmand:color>
      <osmand:background>square</osmand:background>
      <osmand:icon>public_bookcase</osmand:icon>
    </extensions>
  </wpt>
  <wpt lat="44.042627" lon="0.142348">
    <name>Sos z23318</name>
    <type>ZoneLivre</type>
    <extensions>
      <osmand:color>#10c0f0</osmand:color>
      <osmand:background>square</osmand:background>
      <osmand:icon>public_bookcase</osmand:icon>
    </extensions>
  </wpt>
  <wpt lat="43.882517" lon="0.380879">
    <name>Valence-sur-Baïse z23316</name>
    <type>ZoneLivre</type>
    <extensions>
      <osmand:color>#10c0f0</osmand:color>
      <osmand:background>square</osmand:background>
      <osmand:icon>public_bookcase</osmand:icon>
    </extensions>
  </wpt>
  <wpt lat="44.057425" lon="0.260308">
    <name>Mézin z23314</name>
    <type>ZoneLivre</type>
    <extensions>
      <osmand:color>#10c0f0</osmand:color>
      <osmand:background>square</osmand:background>
      <osmand:icon>public_bookcase</osmand:icon>
    </extensions>
  </wpt>
  <wpt lat="47.703013" lon="-2.652512">
    <name>Saint-Nolff z23312</name>
    <type>ZoneLivre</type>
    <extensions>
      <osmand:color>#10c0f0</osmand:color>
      <osmand:background>square</osmand:background>
      <osmand:icon>public_bookcase</osmand:icon>
    </extensions>
  </wpt>