{
    "type": "FeatureCollection",
    "features": [
        {
            "type": "Feature",
            "properties": {
                "id": "18137",
                "name": "Tavernes",
                "icon": 2
            },
            "geometry": {
                "type": "Point",
                "coordinates": [
                    6.01644,
                    43.59357
                ]
            }
        },
        {
            "type": "Feature",
            "properties": {
                "id": "18134",
                "name": "Cesson-S\u00e9vign\u00e9",
                "icon": 45
            },
            "geometry": {
                "type": "Point",
                "coordinates": [
                    -1.60369,
                    48.1176
                ]
            }
        },
        {
            "type": "Feature",
            "properties": {
                "id": "18132",
                "name": "Concarneau",
                "icon": 39
            },
            "geometry": {
                "type": "Point",
                "coordinates": [
                    -3.91851,
                    47.87074
                ]
            }
        },
        {
            "type": "Feature",
            "properties": {
                "id": "18130",
                "name": "Fouesnant",
                "icon": 39
            },
            "geometry": {
                "type": "Point",
                "coordinates": [
                    -4.04105,
                    47.84659
                ]
            }
        },
        {
            "type": "Feature",
            "properties": {
                "id": "18123",
                "name": "La Croix-en-Brie",
                "icon": 97
            },
            "geometry": {
                "type": "Point",
                "coordinates": [
                    3.07547,
                    48.59303
                ]
            }
        },
        {
            "type": "Feature",
            "properties": {
                "id": "18117",
                "name": "Saint-Cyr-en-Talmondais",
                "icon": 105
            },
            "geometry": {
                "type": "Point",
                "coordinates": [
                    -1.33769,
                    46.46029
                ]
            }
        },
        {
            "type": "Feature",
            "properties": {
                "id": "18107",
                "name": "Aubigny-Les Clouzeaux",
                "icon": 105
            },
            "geometry": {
                "type": "Point",
                "coordinates": [
                    -1.44835,
                    46.60248
                ]
            }
        },
        {
            "type": "Feature",
            "properties": {
                "id": "18105",
                "name": "Grosbreuil",
                "icon": 105
            },
            "geometry": {
                "type": "Point",
                "coordinates": [
                    -1.6169,
                    46.54006
                ]
            }
        },
        {
            "type": "Feature",
            "properties": {
                "id": "18103",
                "name": "Rives-de-l'Yon",
                "icon": 105
            },
            "geometry": {
                "type": "Point",
                "coordinates": [
                    -1.31655,
                    46.5931
                ]
            }
        },
        {
            "type": "Feature",
            "properties": {
                "id": "18099",
                "name": "Cormelles-le-Royal",
                "icon": 3
            },
            "geometry": {
                "type": "Point",
                "coordinates": [
                    -0.33154,
                    49.15085
                ]
            }
        },
        {
            "type": "Feature",
            "properties": {
                "id": "18097",
                "name": "Rosel",
                "icon": 3
            },
            "geometry": {
                "type": "Point",
                "coordinates": [
                    -0.45909,
                    49.22827
                ]
            }
        },
        {
            "type": "Feature",
            "properties": {
                "id": "18095",
                "name": "V\u00e9lizy-Villacoublay",
                "icon": 98
            },
            "geometry": {
                "type": "Point",
                "coordinates": [
                    2.18768,
                    48.79581
                ]
            }
        },
        {
            "type": "Feature",
            "properties": {
                "id": "18093",
                "name": "V\u00e9lizy-Villacoublay",
                "icon": 98
            },
            "geometry": {
                "type": "Point",
                "coordinates": [
                    2.19796,
                    48.78084
                ]
            }
        },
        {
            "type": "Feature",
            "properties": {
                "id": "18091",
                "name": "La Chapelle-Iger",
                "icon": 97
            },
            "geometry": {
                "type": "Point",
                "coordinates": [
                    2.98904,
                    48.65257
                ]
            }
        },
        {
            "type": "Feature",
            "properties": {
                "id": "18086",
                "name": "Saint-Pierre (97)",
                "icon": 1353
            },
            "geometry": {
                "type": "Point",
                "coordinates": [
                    55.47076,
                    -21.34269
                ]
            }
        },
        {
            "type": "Feature",
            "properties": {
                "id": "18084",
                "name": "Ploeren",
                "icon": 76
            },
            "geometry": {
                "type": "Point",
                "coordinates": [
                    -2.86945,
                    47.65605
                ]
            }
        },
        {
            "type": "Feature",
            "properties": {
                "id": "18082",
                "name": "Bourganeuf",
                "icon": 33
            },
            "geometry": {
                "type": "Point",
                "coordinates": [
                    1.7602,
                    45.95246
                ]
            }
        },
        {
            "type": "Feature",
            "properties": {
                "id": "18080",
                "name": "Les Clefs",
                "icon": 94
            },
            "geometry": {
                "type": "Point",
                "coordinates": [
                    6.32852,
                    45.86067
                ]
            }
        },
        {
            "type": "Feature",
            "properties": {
                "id": "18078",
                "name": "Menthon-Saint-Bernard",
                "icon": 94
            },
            "geometry": {
                "type": "Point",
                "coordinates": [
                    6.19622,
                    45.85926
                ]
            }
        },
        {
            "type": "Feature",
            "properties": {
                "id": "18076",
                "name": "Faverges-Seythenex",
                "icon": 94
            },
            "geometry": {
                "type": "Point",
                "coordinates": [
                    6.26022,
                    45.76802
                ]
            }
        },
        {
            "type": "Feature",
            "properties": {
                "id": "18074",
                "name": "Dijon",
                "icon": 31
            },
            "geometry": {
                "type": "Point",
                "coordinates": [
                    5.02364,
                    47.32226
                ]
            }
        },
        {
            "type": "Feature",
            "properties": {
                "id": "18072",
                "name": "Verneuil-l'\u00c9tang",
                "icon": 97
            },
            "geometry": {
                "type": "Point",
                "coordinates": [
                    2.82516,
                    48.64449
                ]
            }
        },
        {
            "type": "Feature",
            "properties": {
                "id": "18070",
                "name": "Audierne",
                "icon": 39
            },
            "geometry": {
                "type": "Point",
                "coordinates": [
                    -4.53899,
                    48.02207
                ]
            }
        },
        {
            "type": "Feature",
            "properties": {
                "id": "18068",
                "name": "Champcella",
                "icon": 15
            },
            "geometry": {
                "type": "Point",
                "coordinates": [
                    6.56909,
                    44.70958
                ]
            }
        },
        {
            "type": "Feature",
            "properties": {
                "id": "18066",
                "name": "Sciez",
                "icon": 94
            },
            "geometry": {
                "type": "Point",
                "coordinates": [
                    6.38685,
                    46.32926
                ]
            }
        },
        {
            "type": "Feature",
            "properties": {
                "id": "18061",
                "name": "Lun\u00e9ville",
                "icon": 74
            },
            "geometry": {
                "type": "Point",
                "coordinates": [
                    6.49239,
                    48.59157
                ]
            }
        },
        {
            "type": "Feature",
            "properties": {
                "id": "18059",
                "name": "Noyelles-l\u00e8s-Seclin",
                "icon": 79
            },
            "geometry": {
                "type": "Point",
                "coordinates": [
                    3.01234,
                    50.57598
                ]
            }
        },
        {
            "type": "Feature",
            "properties": {
                "id": "18057",
                "name": "Forbach",
                "icon": 77
            },
            "geometry": {
                "type": "Point",
                "coordinates": [
                    6.90389,
                    49.18799
                ]
            }
        },
        {
            "type": "Feature",
            "properties": {
                "id": "18055",
                "name": "Forbach",
                "icon": 77
            },
            "geometry": {
                "type": "Point",
                "coordinates": [
                    6.90323,
                    49.18234
                ]
            }
        },
        {
            "type": "Feature",
            "properties": {
                "id": "18053",
                "name": "Chanteheux",
                "icon": 74
            },
            "geometry": {
                "type": "Point",
                "coordinates": [
                    6.53109,
                    48.60041
                ]
            }
        },
        {
            "type": "Feature",
            "properties": {
                "id": "18050",
                "name": "Maron",
                "icon": 74
            },
            "geometry": {
                "type": "Point",
                "coordinates": [
                    6.04664,
                    48.63508
                ]
            }
        },
        {
            "type": "Feature",
            "properties": {
                "id": "18048",
                "name": "Chaligny",
                "icon": 74
            },
            "geometry": {
                "type": "Point",
                "coordinates": [
                    6.08566,
                    48.62289
                ]
            }
        },
        {
            "type": "Feature",
            "properties": {
                "id": "18046",
                "name": "Gretz-Armainvilliers",
                "icon": 97
            },
            "geometry": {
                "type": "Point",
                "coordinates": [
                    2.72858,
                    48.7457
                ]
            }
        },
        {
            "type": "Feature",
            "properties": {
                "id": "18044",
                "name": "Mitzach",
                "icon": 88
            },
            "geometry": {
                "type": "Point",
                "coordinates": [
                    7.00676,
                    47.87147
                ]
            }
        },
        {
            "type": "Feature",
            "properties": {
                "id": "18042",
                "name": "Sexey-aux-Forges",
                "icon": 74
            },
            "geometry": {
                "type": "Point",
                "coordinates": [
                    6.05095,
                    48.62196
                ]
            }
        },
        {
            "type": "Feature",
            "properties": {
                "id": "18015",
                "name": "Dardilly",
                "icon": 89
            },
            "geometry": {
                "type": "Point",
                "coordinates": [
                    4.75027,
                    45.81832
                ]
            }
        },
        {
            "type": "Feature",
            "properties": {
                "id": "18013",
                "name": "Aix-en-Provence",
                "icon": 23
            },
            "geometry": {
                "type": "Point",
                "coordinates": [
                    5.45521,
                    43.53961
                ]
            }
        },
        {
            "type": "Feature",
            "properties": {
                "id": "18010",
                "name": "Aix-en-Provence",
                "icon": 23
            },
            "geometry": {
                "type": "Point",
                "coordinates": [
                    5.46266,
                    43.53367
                ]
            }
        },
        {
            "type": "Feature",
            "properties": {
                "id": "18008",
                "name": "Aix-en-Provence",
                "icon": 23
            },
            "geometry": {
                "type": "Point",
                "coordinates": [
                    5.43855,
                    43.50922
                ]
            }
        },
        {
            "type": "Feature",
            "properties": {
                "id": "17992",
                "name": "Molsheim",
                "icon": 87
            },
            "geometry": {
                "type": "Point",
                "coordinates": [
                    7.49907,
                    48.54335
                ]
            }
        },
        {
            "type": "Feature",
            "properties": {
                "id": "17990",
                "name": "Dachstein",
                "icon": 87
            },
            "geometry": {
                "type": "Point",
                "coordinates": [
                    7.53289,
                    48.55798
                ]
            }
        },
        {
            "type": "Feature",
            "properties": {
                "id": "17988",
                "name": "Castres",
                "icon": 101
            },
            "geometry": {
                "type": "Point",
                "coordinates": [
                    2.26936,
                    43.59145
                ]
            }
        },
        {
            "type": "Feature",
            "properties": {
                "id": "17986",
                "name": "M\u00e2cot-la-Plagne",
                "icon": 93
            },
            "geometry": {
                "type": "Point",
                "coordinates": [
                    6.67358,
                    45.55408
                ]
            }
        },
        {
            "type": "Feature",
            "properties": {
                "id": "17984",
                "name": "Montmin",
                "icon": 94
            },
            "geometry": {
                "type": "Point",
                "coordinates": [
                    6.26339,
                    45.80303
                ]
            }
        },
        {
            "type": "Feature",
            "properties": {
                "id": "17982",
                "name": "Chindrieux",
                "icon": 93
            },
            "geometry": {
                "type": "Point",
                "coordinates": [
                    5.84714,
                    45.82114
                ]
            }
        },
        {
            "type": "Feature",
            "properties": {
                "id": "17978",
                "name": "Guipavas",
                "icon": 39
            },
            "geometry": {
                "type": "Point",
                "coordinates": [
                    -4.35258,
                    48.41438
                ]
            }
        },
        {
            "type": "Feature",
            "properties": {
                "id": "17976",
                "name": "Langolen",
                "icon": 39
            },
            "geometry": {
                "type": "Point",
                "coordinates": [
                    -3.91218,
                    48.06684
                ]
            }
        },
        {
            "type": "Feature",
            "properties": {
                "id": "17974",
                "name": "Guipavas",
                "icon": 39
            },
            "geometry": {
                "type": "Point",
                "coordinates": [
                    -4.40015,
                    48.43567
                ]
            }
        },
        {
            "type": "Feature",
            "properties": {
                "id": "17972",
                "name": "Feins",
                "icon": 45
            },
            "geometry": {
                "type": "Point",
                "coordinates": [
                    -1.64089,
                    48.3285
                ]
            }
        },
        {
            "type": "Feature",
            "properties": {
                "id": "17970",
                "name": "Saint-James",
                "icon": 4
            },
            "geometry": {
                "type": "Point",
                "coordinates": [
                    -1.39954,
                    48.54194
                ]
            }
        },
        {
            "type": "Feature",
            "properties": {
                "id": "17968",
                "name": "Les Portes du Coglais",
                "icon": 45
            },
            "geometry": {
                "type": "Point",
                "coordinates": [
                    -1.34361,
                    48.43764
                ]
            }
        },
        {
            "type": "Feature",
            "properties": {
                "id": "17966",
                "name": "\u00cele-de-Batz",
                "icon": 39
            },
            "geometry": {
                "type": "Point",
                "coordinates": [
                    -4.01535,
                    48.74486
                ]
            }
        },
        {
            "type": "Feature",
            "properties": {
                "id": "17964",
                "name": "Montreuil-sous-P\u00e9rouse",
                "icon": 45
            },
            "geometry": {
                "type": "Point",
                "coordinates": [
                    -1.23644,
                    48.15048
                ]
            }
        },
        {
            "type": "Feature",
            "properties": {
                "id": "17959",
                "name": "Lancieux",
                "icon": 32
            },
            "geometry": {
                "type": "Point",
                "coordinates": [
                    -2.15097,
                    48.60586
                ]
            }
        },
        {
            "type": "Feature",
            "properties": {
                "id": "17957",
                "name": "Casson",
                "icon": 54
            },
            "geometry": {
                "type": "Point",
                "coordinates": [
                    -1.55659,
                    47.38791
                ]
            }
        },
        {
            "type": "Feature",
            "properties": {
                "id": "17955",
                "name": "Port-Lesney",
                "icon": 49
            },
            "geometry": {
                "type": "Point",
                "coordinates": [
                    5.82425,
                    47.00165
                ]
            }
        },
        {
            "type": "Feature",
            "properties": {
                "id": "17952",
                "name": "Ussy-sur-Marne",
                "icon": 97
            },
            "geometry": {
                "type": "Point",
                "coordinates": [
                    3.07411,
                    48.95684
                ]
            }
        },
        {
            "type": "Feature",
            "properties": {
                "id": "17950",
                "name": "Azay-le-Ferron",
                "icon": 46
            },
            "geometry": {
                "type": "Point",
                "coordinates": [
                    1.07225,
                    46.85076
                ]
            }
        },
        {
            "type": "Feature",
            "properties": {
                "id": "17948",
                "name": "Carnac",
                "icon": 76
            },
            "geometry": {
                "type": "Point",
                "coordinates": [
                    -3.08001,
                    47.5706
                ]
            }
        },
        {
            "type": "Feature",
            "properties": {
                "id": "17946",
                "name": "Autigny-le-Petit",
                "icon": 72
            },
            "geometry": {
                "type": "Point",
                "coordinates": [
                    5.13573,
                    48.48206
                ]
            }
        },
        {
            "type": "Feature",
            "properties": {
                "id": "17944",
                "name": "Dahlenheim",
                "icon": 87
            },
            "geometry": {
                "type": "Point",
                "coordinates": [
                    7.50662,
                    48.58662
                ]
            }
        },
        {
            "type": "Feature",
            "properties": {
                "id": "17942",
                "name": "\u00c9cully",
                "icon": 89
            },
            "geometry": {
                "type": "Point",
                "coordinates": [
                    4.77765,
                    45.77458
                ]
            }
        },
        {
            "type": "Feature",
            "properties": {
                "id": "17940",
                "name": "Bou\u00ebx",
                "icon": 25
            },
            "geometry": {
                "type": "Point",
                "coordinates": [
                    0.3203,
                    45.61793
                ]
            }
        },
        {
            "type": "Feature",
            "properties": {
                "id": "17938",
                "name": "Angoul\u00eame",
                "icon": 25
            },
            "geometry": {
                "type": "Point",
                "coordinates": [
                    0.13812,
                    45.65727
                ]
            }
        },
        {
            "type": "Feature",
            "properties": {
                "id": "17934",
                "name": "Lathus-Saint-R\u00e9my",
                "icon": 106
            },
            "geometry": {
                "type": "Point",
                "coordinates": [
                    0.89756,
                    46.29221
                ]
            }
        },
        {
            "type": "Feature",
            "properties": {
                "id": "17932",
                "name": "Plaisance",
                "icon": 106
            },
            "geometry": {
                "type": "Point",
                "coordinates": [
                    0.87069,
                    46.33199
                ]
            }
        },
        {
            "type": "Feature",
            "properties": {
                "id": "17930",
                "name": "Moulismes",
                "icon": 106
            },
            "geometry": {
                "type": "Point",
                "coordinates": [
                    0.81366,
                    46.32996
                ]
            }
        },
        {
            "type": "Feature",
            "properties": {
                "id": "17928",
                "name": "Jouss\u00e9",
                "icon": 106
            },
            "geometry": {
                "type": "Point",
                "coordinates": [
                    0.4707,
                    46.22712
                ]
            }
        },
        {
            "type": "Feature",
            "properties": {
                "id": "17925",
                "name": "Saint-Martin-l'Ars",
                "icon": 106
            },
            "geometry": {
                "type": "Point",
                "coordinates": [
                    0.53025,
                    46.21982
                ]
            }
        },
        {
            "type": "Feature",
            "properties": {
                "id": "17923",
                "name": "Ch\u00e2teau-Garnier",
                "icon": 106
            },
            "geometry": {
                "type": "Point",
                "coordinates": [
                    0.4274,
                    46.2589
                ]
            }
        },
        {
            "type": "Feature",
            "properties": {
                "id": "17921",
                "name": "S\u00e8vres-Anxaumont",
                "icon": 106
            },
            "geometry": {
                "type": "Point",
                "coordinates": [
                    0.46569,
                    46.56975
                ]
            }
        },
        {
            "type": "Feature",
            "properties": {
                "id": "17919",
                "name": "La Rochelle",
                "icon": 26
            },
            "geometry": {
                "type": "Point",
                "coordinates": [
                    -1.14064,
                    46.1735
                ]
            }
        },
        {
            "type": "Feature",
            "properties": {
                "id": "17917",
                "name": "Nieul-sur-Mer",
                "icon": 26
            },
            "geometry": {
                "type": "Point",
                "coordinates": [
                    -1.16294,
                    46.20873
                ]
            }
        },
        {
            "type": "Feature",
            "properties": {
                "id": "17915",
                "name": "Marsilly",
                "icon": 26
            },
            "geometry": {
                "type": "Point",
                "coordinates": [
                    -1.13938,
                    46.23052
                ]
            }
        },
        {
            "type": "Feature",
            "properties": {
                "id": "17913",
                "name": "Esnandes",
                "icon": 26
            },
            "geometry": {
                "type": "Point",
                "coordinates": [
                    -1.11682,
                    46.24856
                ]
            }
        },
        {
            "type": "Feature",
            "properties": {
                "id": "17910",
                "name": "L'Houmeau",
                "icon": 26
            },
            "geometry": {
                "type": "Point",
                "coordinates": [
                    -1.18715,
                    46.19304
                ]
            }
        },
        {
            "type": "Feature",
            "properties": {
                "id": "17904",
                "name": "Le Castelet",
                "icon": 3
            },
            "geometry": {
                "type": "Point",
                "coordinates": [
                    -0.26957,
                    49.10229
                ]
            }
        },
        {
            "type": "Feature",
            "properties": {
                "id": "17892",
                "name": "C\u00e9rences",
                "icon": 4
            },
            "geometry": {
                "type": "Point",
                "coordinates": [
                    -1.43587,
                    48.91648
                ]
            }
        },
        {
            "type": "Feature",
            "properties": {
                "id": "17890",
                "name": "Caen",
                "icon": 3
            },
            "geometry": {
                "type": "Point",
                "coordinates": [
                    -0.37157,
                    49.18943
                ]
            }
        },
        {
            "type": "Feature",
            "properties": {
                "id": "17888",
                "name": "Caen",
                "icon": 3
            },
            "geometry": {
                "type": "Point",
                "coordinates": [
                    -0.38782,
                    49.18461
                ]
            }
        },
        {
            "type": "Feature",
            "properties": {
                "id": "17886",
                "name": "La Rochelle",
                "icon": 26
            },
            "geometry": {
                "type": "Point",
                "coordinates": [
                    -1.1491,
                    46.16372
                ]
            }
        },
        {
            "type": "Feature",
            "properties": {
                "id": "17883",
                "name": "Wanquetin",
                "icon": 82
            },
            "geometry": {
                "type": "Point",
                "coordinates": [
                    2.61212,
                    50.27806
                ]
            }
        },
        {
            "type": "Feature",
            "properties": {
                "id": "17881",
                "name": "Sepx",
                "icon": 41
            },
            "geometry": {
                "type": "Point",
                "coordinates": [
                    0.84086,
                    43.1546
                ]
            }
        },
        {
            "type": "Feature",
            "properties": {
                "id": "17879",
                "name": "Tallard",
                "icon": 15
            },
            "geometry": {
                "type": "Point",
                "coordinates": [
                    6.055,
                    44.4616
                ]
            }
        },
        {
            "type": "Feature",
            "properties": {
                "id": "17877",
                "name": "La No\u00e9-Blanche",
                "icon": 45
            },
            "geometry": {
                "type": "Point",
                "coordinates": [
                    -1.74125,
                    47.80358
                ]
            }
        },
        {
            "type": "Feature",
            "properties": {
                "id": "17875",
                "name": "Cierges-sous-Montfaucon",
                "icon": 75
            },
            "geometry": {
                "type": "Point",
                "coordinates": [
                    5.09273,
                    49.29784
                ]
            }
        },
        {
            "type": "Feature",
            "properties": {
                "id": "17873",
                "name": "Consenvoye",
                "icon": 75
            },
            "geometry": {
                "type": "Point",
                "coordinates": [
                    5.28424,
                    49.2866
                ]
            }
        },
        {
            "type": "Feature",
            "properties": {
                "id": "17870",
                "name": "Steenwerck",
                "icon": 79
            },
            "geometry": {
                "type": "Point",
                "coordinates": [
                    2.77107,
                    50.69972
                ]
            }
        },
        {
            "type": "Feature",
            "properties": {
                "id": "17859",
                "name": "Brives-Charensac",
                "icon": 53
            },
            "geometry": {
                "type": "Point",
                "coordinates": [
                    3.92524,
                    45.0478
                ]
            }
        },
        {
            "type": "Feature",
            "properties": {
                "id": "17855",
                "name": "Echinghen",
                "icon": 82
            },
            "geometry": {
                "type": "Point",
                "coordinates": [
                    1.64774,
                    50.70348
                ]
            }
        },
        {
            "type": "Feature",
            "properties": {
                "id": "17853",
                "name": "Vigneulles-l\u00e8s-Hattonch\u00e2tel",
                "icon": 75
            },
            "geometry": {
                "type": "Point",
                "coordinates": [
                    5.71364,
                    48.99304
                ]
            }
        },
        {
            "type": "Feature",
            "properties": {
                "id": "17851",
                "name": "Longuyon",
                "icon": 74
            },
            "geometry": {
                "type": "Point",
                "coordinates": [
                    5.61702,
                    49.4324
                ]
            }
        },
        {
            "type": "Feature",
            "properties": {
                "id": "17835",
                "name": "Odratzheim",
                "icon": 87
            },
            "geometry": {
                "type": "Point",
                "coordinates": [
                    7.48991,
                    48.59979
                ]
            }
        },
        {
            "type": "Feature",
            "properties": {
                "id": "17831",
                "name": "Sainte-Anne",
                "icon": 5902
            },
            "geometry": {
                "type": "Point",
                "coordinates": [
                    -60.88158,
                    14.43515
                ]
            }
        },
        {
            "type": "Feature",
            "properties": {
                "id": "17828",
                "name": "Paris 16e",
                "icon": 95
            },
            "geometry": {
                "type": "Point",
                "coordinates": [
                    2.26886,
                    48.85849
                ]
            }
        },
        {
            "type": "Feature",
            "properties": {
                "id": "17825",
                "name": "Paris 15e",
                "icon": 95
            },
            "geometry": {
                "type": "Point",
                "coordinates": [
                    2.29317,
                    48.84503
                ]
            }
        },
        {
            "type": "Feature",
            "properties": {
                "id": "17822",
                "name": "Porspoder",
                "icon": 39
            },
            "geometry": {
                "type": "Point",
                "coordinates": [
                    -4.76469,
                    48.50862
                ]
            }
        },
        {
            "type": "Feature",
            "properties": {
                "id": "17820",
                "name": "Les Pechs-du-Vers",
                "icon": 56
            },
            "geometry": {
                "type": "Point",
                "coordinates": [
                    1.55917,
                    44.58089
                ]
            }
        },
        {
            "type": "Feature",
            "properties": {
                "id": "17818",
                "name": "Wittenheim",
                "icon": 88
            },
            "geometry": {
                "type": "Point",
                "coordinates": [
                    7.31501,
                    47.80994
                ]
            }
        },
        {
            "type": "Feature",
            "properties": {
                "id": "17816",
                "name": "La Bouteille",
                "icon": 12
            },
            "geometry": {
                "type": "Point",
                "coordinates": [
                    3.97345,
                    49.85953
                ]
            }
        },
        {
            "type": "Feature",
            "properties": {
                "id": "17812",
                "name": "Pont-Saint-Vincent",
                "icon": 74
            },
            "geometry": {
                "type": "Point",
                "coordinates": [
                    6.1011,
                    48.60465
                ]
            }
        },
        {
            "type": "Feature",
            "properties": {
                "id": "17810",
                "name": "Flavigny-sur-Moselle",
                "icon": 74
            },
            "geometry": {
                "type": "Point",
                "coordinates": [
                    6.18828,
                    48.56909
                ]
            }
        },
        {
            "type": "Feature",
            "properties": {
                "id": "17806",
                "name": "Saint-Nazaire",
                "icon": 54
            },
            "geometry": {
                "type": "Point",
                "coordinates": [
                    -2.22553,
                    47.28232
                ]
            }
        },
        {
            "type": "Feature",
            "properties": {
                "id": "17804",
                "name": "Pusey",
                "icon": 90
            },
            "geometry": {
                "type": "Point",
                "coordinates": [
                    6.12738,
                    47.65203
                ]
            }
        },
        {
            "type": "Feature",
            "properties": {
                "id": "17794",
                "name": "Robion",
                "icon": 104
            },
            "geometry": {
                "type": "Point",
                "coordinates": [
                    5.11253,
                    43.8465
                ]
            }
        },
        {
            "type": "Feature",
            "properties": {
                "id": "17789",
                "name": "Rudelle",
                "icon": 56
            },
            "geometry": {
                "type": "Point",
                "coordinates": [
                    1.88054,
                    44.72194
                ]
            }
        },
        {
            "type": "Feature",
            "properties": {
                "id": "17770",
                "name": "Roppe",
                "icon": 110
            },
            "geometry": {
                "type": "Point",
                "coordinates": [
                    6.91935,
                    47.6707
                ]
            }
        },
        {
            "type": "Feature",
            "properties": {
                "id": "17768",
                "name": "Cormelles-le-Royal",
                "icon": 3
            },
            "geometry": {
                "type": "Point",
                "coordinates": [
                    -0.33429,
                    49.15595
                ]
            }
        },
        {
            "type": "Feature",
            "properties": {
                "id": "17766",
                "name": "Cormelles-le-Royal",
                "icon": 3
            },
            "geometry": {
                "type": "Point",
                "coordinates": [
                    -0.33068,
                    49.15346
                ]
            }
        },
        {
            "type": "Feature",
            "properties": {
                "id": "17763",
                "name": "Douvres-la-D\u00e9livrande",
                "icon": 3
            },
            "geometry": {
                "type": "Point",
                "coordinates": [
                    -0.38682,
                    49.28987
                ]
            }
        },
        {
            "type": "Feature",
            "properties": {
                "id": "17761",
                "name": "Avenay",
                "icon": 3
            },
            "geometry": {
                "type": "Point",
                "coordinates": [
                    -0.46156,
                    49.10126
                ]
            }
        },
        {
            "type": "Feature",
            "properties": {
                "id": "17754",
                "name": "Paris 13e",
                "icon": 95
            },
            "geometry": {
                "type": "Point",
                "coordinates": [
                    2.366,
                    48.8418
                ]
            }
        },
        {
            "type": "Feature",
            "properties": {
                "id": "17751",
                "name": "Paris 11e",
                "icon": 95
            },
            "geometry": {
                "type": "Point",
                "coordinates": [
                    2.37221,
                    48.85827
                ]
            }
        },
        {
            "type": "Feature",
            "properties": {
                "id": "17749",
                "name": "Poitiers",
                "icon": 106
            },
            "geometry": {
                "type": "Point",
                "coordinates": [
                    0.3122,
                    46.56332
                ]
            }
        },
        {
            "type": "Feature",
            "properties": {
                "id": "17747",
                "name": "Poitiers",
                "icon": 106
            },
            "geometry": {
                "type": "Point",
                "coordinates": [
                    0.33269,
                    46.5752
                ]
            }
        },
        {
            "type": "Feature",
            "properties": {
                "id": "17745",
                "name": "Saint-Geyrac",
                "icon": 34
            },
            "geometry": {
                "type": "Point",
                "coordinates": [
                    0.91435,
                    45.08908
                ]
            }
        },
        {
            "type": "Feature",
            "properties": {
                "id": "17743",
                "name": "Saint-Pompont",
                "icon": 34
            },
            "geometry": {
                "type": "Point",
                "coordinates": [
                    1.14591,
                    44.7276
                ]
            }
        },
        {
            "type": "Feature",
            "properties": {
                "id": "17740",
                "name": "Lanzac",
                "icon": 56
            },
            "geometry": {
                "type": "Point",
                "coordinates": [
                    1.48243,
                    44.87391
                ]
            }
        },
        {
            "type": "Feature",
            "properties": {
                "id": "17737",
                "name": "Corn",
                "icon": 56
            },
            "geometry": {
                "type": "Point",
                "coordinates": [
                    1.8994,
                    44.60713
                ]
            }
        },
        {
            "type": "Feature",
            "properties": {
                "id": "17735",
                "name": "Neuves-Maisons",
                "icon": 74
            },
            "geometry": {
                "type": "Point",
                "coordinates": [
                    6.10244,
                    48.61121
                ]
            }
        },
        {
            "type": "Feature",
            "properties": {
                "id": "17718",
                "name": "Rouen",
                "icon": 96
            },
            "geometry": {
                "type": "Point",
                "coordinates": [
                    1.0878,
                    49.43312
                ]
            }
        },
        {
            "type": "Feature",
            "properties": {
                "id": "17714",
                "name": "Rouen",
                "icon": 96
            },
            "geometry": {
                "type": "Point",
                "coordinates": [
                    1.07788,
                    49.42861
                ]
            }
        },
        {
            "type": "Feature",
            "properties": {
                "id": "17711",
                "name": "Dieulefit",
                "icon": 36
            },
            "geometry": {
                "type": "Point",
                "coordinates": [
                    5.06612,
                    44.52578
                ]
            }
        },
        {
            "type": "Feature",
            "properties": {
                "id": "17707",
                "name": "Poitiers",
                "icon": 106
            },
            "geometry": {
                "type": "Point",
                "coordinates": [
                    0.38817,
                    46.57139
                ]
            }
        },
        {
            "type": "Feature",
            "properties": {
                "id": "17704",
                "name": "Dombasle-sur-Meurthe",
                "icon": 74
            },
            "geometry": {
                "type": "Point",
                "coordinates": [
                    6.35168,
                    48.6271
                ]
            }
        },
        {
            "type": "Feature",
            "properties": {
                "id": "17701",
                "name": "Saint-Denis-d'Ol\u00e9ron",
                "icon": 26
            },
            "geometry": {
                "type": "Point",
                "coordinates": [
                    -1.37766,
                    46.0331
                ]
            }
        },
        {
            "type": "Feature",
            "properties": {
                "id": "17698",
                "name": "Saint-Pierre-d'Ol\u00e9ron",
                "icon": 26
            },
            "geometry": {
                "type": "Point",
                "coordinates": [
                    -1.33072,
                    45.91723
                ]
            }
        },
        {
            "type": "Feature",
            "properties": {
                "id": "17696",
                "name": "Pas-de-jeu",
                "icon": 99
            },
            "geometry": {
                "type": "Point",
                "coordinates": [
                    -0.04323,
                    46.97508
                ]
            }
        },
        {
            "type": "Feature",
            "properties": {
                "id": "17694",
                "name": "Saint-Nizier-le-Bouchoux",
                "icon": 11
            },
            "geometry": {
                "type": "Point",
                "coordinates": [
                    5.18839,
                    46.45204
                ]
            }
        },
        {
            "type": "Feature",
            "properties": {
                "id": "17692",
                "name": "Marseille 2e",
                "icon": 23
            },
            "geometry": {
                "type": "Point",
                "coordinates": [
                    5.36811,
                    43.29844
                ]
            }
        },
        {
            "type": "Feature",
            "properties": {
                "id": "17690",
                "name": "Amb\u00e9rieu-en-Bugey",
                "icon": 11
            },
            "geometry": {
                "type": "Point",
                "coordinates": [
                    5.35799,
                    45.95964
                ]
            }
        },
        {
            "type": "Feature",
            "properties": {
                "id": "17686",
                "name": "Montrottier",
                "icon": 89
            },
            "geometry": {
                "type": "Point",
                "coordinates": [
                    4.44621,
                    45.79158
                ]
            }
        },
        {
            "type": "Feature",
            "properties": {
                "id": "17684",
                "name": "Rouen",
                "icon": 96
            },
            "geometry": {
                "type": "Point",
                "coordinates": [
                    1.06823,
                    49.44598
                ]
            }
        },
        {
            "type": "Feature",
            "properties": {
                "id": "17682",
                "name": "Plabennec",
                "icon": 39
            },
            "geometry": {
                "type": "Point",
                "coordinates": [
                    -4.4237,
                    48.50287
                ]
            }
        },
        {
            "type": "Feature",
            "properties": {
                "id": "17680",
                "name": "Le Mans",
                "icon": 92
            },
            "geometry": {
                "type": "Point",
                "coordinates": [
                    0.23019,
                    48.01019
                ]
            }
        },
        {
            "type": "Feature",
            "properties": {
                "id": "17678",
                "name": "Peymeinade",
                "icon": 18
            },
            "geometry": {
                "type": "Point",
                "coordinates": [
                    6.87749,
                    43.64182
                ]
            }
        },
        {
            "type": "Feature",
            "properties": {
                "id": "17676",
                "name": "Paris 15e",
                "icon": 95
            },
            "geometry": {
                "type": "Point",
                "coordinates": [
                    2.28941,
                    48.84382
                ]
            }
        },
        {
            "type": "Feature",
            "properties": {
                "id": "17674",
                "name": "Paris 15e",
                "icon": 95
            },
            "geometry": {
                "type": "Point",
                "coordinates": [
                    2.30186,
                    48.84851
                ]
            }
        },
        {
            "type": "Feature",
            "properties": {
                "id": "17665",
                "name": "Royan",
                "icon": 26
            },
            "geometry": {
                "type": "Point",
                "coordinates": [
                    -1.02649,
                    45.62388
                ]
            }
        },
        {
            "type": "Feature",
            "properties": {
                "id": "17664",
                "name": "Saint-Palais-sur-Mer",
                "icon": 26
            },
            "geometry": {
                "type": "Point",
                "coordinates": [
                    -1.08759,
                    45.6421
                ]
            }
        },
        {
            "type": "Feature",
            "properties": {
                "id": "17662",
                "name": "Fouras",
                "icon": 26
            },
            "geometry": {
                "type": "Point",
                "coordinates": [
                    -1.09152,
                    45.9834
                ]
            }
        },
        {
            "type": "Feature",
            "properties": {
                "id": "17660",
                "name": "Bourgneuf",
                "icon": 26
            },
            "geometry": {
                "type": "Point",
                "coordinates": [
                    -1.02053,
                    46.16772
                ]
            }
        },
        {
            "type": "Feature",
            "properties": {
                "id": "17657",
                "name": "Bourgneuf",
                "icon": 26
            },
            "geometry": {
                "type": "Point",
                "coordinates": [
                    -1.02422,
                    46.16744
                ]
            }
        },
        {
            "type": "Feature",
            "properties": {
                "id": "17655",
                "name": "Burie",
                "icon": 26
            },
            "geometry": {
                "type": "Point",
                "coordinates": [
                    -0.42098,
                    45.77397
                ]
            }
        },
        {
            "type": "Feature",
            "properties": {
                "id": "17653",
                "name": "Confolens",
                "icon": 25
            },
            "geometry": {
                "type": "Point",
                "coordinates": [
                    0.68383,
                    46.05206
                ]
            }
        },
        {
            "type": "Feature",
            "properties": {
                "id": "17651",
                "name": "Brieuil-sur-Chiz\u00e9",
                "icon": 99
            },
            "geometry": {
                "type": "Point",
                "coordinates": [
                    -0.31959,
                    46.12432
                ]
            }
        },
        {
            "type": "Feature",
            "properties": {
                "id": "17649",
                "name": "Azay-le-Br\u00fbl\u00e9",
                "icon": 99
            },
            "geometry": {
                "type": "Point",
                "coordinates": [
                    -0.24885,
                    46.39877
                ]
            }
        },
        {
            "type": "Feature",
            "properties": {
                "id": "17647",
                "name": "Azay-le-Br\u00fbl\u00e9",
                "icon": 99
            },
            "geometry": {
                "type": "Point",
                "coordinates": [
                    -0.28313,
                    46.39801
                ]
            }
        },
        {
            "type": "Feature",
            "properties": {
                "id": "17645",
                "name": "La Cr\u00e8che",
                "icon": 99
            },
            "geometry": {
                "type": "Point",
                "coordinates": [
                    -0.29966,
                    46.36247
                ]
            }
        },
        {
            "type": "Feature",
            "properties": {
                "id": "17643",
                "name": "Blanzay",
                "icon": 106
            },
            "geometry": {
                "type": "Point",
                "coordinates": [
                    0.2553,
                    46.20174
                ]
            }
        },
        {
            "type": "Feature",
            "properties": {
                "id": "17641",
                "name": "Bossay-sur-Claise",
                "icon": 47
            },
            "geometry": {
                "type": "Point",
                "coordinates": [
                    0.96173,
                    46.83209
                ]
            }
        },
        {
            "type": "Feature",
            "properties": {
                "id": "17639",
                "name": "Braslou",
                "icon": 47
            },
            "geometry": {
                "type": "Point",
                "coordinates": [
                    0.39263,
                    47.00031
                ]
            }
        },
        {
            "type": "Feature",
            "properties": {
                "id": "17637",
                "name": "Angerville",
                "icon": 111
            },
            "geometry": {
                "type": "Point",
                "coordinates": [
                    1.99725,
                    48.30945
                ]
            }
        },
        {
            "type": "Feature",
            "properties": {
                "id": "17632",
                "name": "M\u00e9ry-sur-Oise",
                "icon": 115
            },
            "geometry": {
                "type": "Point",
                "coordinates": [
                    2.18564,
                    49.06429
                ]
            }
        },
        {
            "type": "Feature",
            "properties": {
                "id": "17630",
                "name": "Argenteuil",
                "icon": 115
            },
            "geometry": {
                "type": "Point",
                "coordinates": [
                    2.2482,
                    48.94107
                ]
            }
        },
        {
            "type": "Feature",
            "properties": {
                "id": "17626",
                "name": "Argenteuil",
                "icon": 115
            },
            "geometry": {
                "type": "Point",
                "coordinates": [
                    2.233,
                    48.94576
                ]
            }
        },
        {
            "type": "Feature",
            "properties": {
                "id": "17625",
                "name": "Argenteuil",
                "icon": 115
            },
            "geometry": {
                "type": "Point",
                "coordinates": [
                    2.22074,
                    48.95565
                ]
            }
        },
        {
            "type": "Feature",
            "properties": {
                "id": "17624",
                "name": "Argenteuil",
                "icon": 115
            },
            "geometry": {
                "type": "Point",
                "coordinates": [
                    2.23622,
                    48.96107
                ]
            }
        },
        {
            "type": "Feature",
            "properties": {
                "id": "17618",
                "name": "Andilly",
                "icon": 115
            },
            "geometry": {
                "type": "Point",
                "coordinates": [
                    2.30033,
                    49.00526
                ]
            }
        },
        {
            "type": "Feature",
            "properties": {
                "id": "17616",
                "name": "La Garenne-Colombes",
                "icon": 112
            },
            "geometry": {
                "type": "Point",
                "coordinates": [
                    2.25337,
                    48.91101
                ]
            }
        },
        {
            "type": "Feature",
            "properties": {
                "id": "17614",
                "name": "Asni\u00e8res-sur-Seine",
                "icon": 112
            },
            "geometry": {
                "type": "Point",
                "coordinates": [
                    2.29449,
                    48.90913
                ]
            }
        },
        {
            "type": "Feature",
            "properties": {
                "id": "17612",
                "name": "Asni\u00e8res-sur-Seine",
                "icon": 112
            },
            "geometry": {
                "type": "Point",
                "coordinates": [
                    2.29133,
                    48.91576
                ]
            }
        },
        {
            "type": "Feature",
            "properties": {
                "id": "17610",
                "name": "Asni\u00e8res-sur-Seine",
                "icon": 112
            },
            "geometry": {
                "type": "Point",
                "coordinates": [
                    2.30663,
                    48.91424
                ]
            }
        },
        {
            "type": "Feature",
            "properties": {
                "id": "17608",
                "name": "Asni\u00e8res-sur-Seine",
                "icon": 112
            },
            "geometry": {
                "type": "Point",
                "coordinates": [
                    2.28825,
                    48.9111
                ]
            }
        },
        {
            "type": "Feature",
            "properties": {
                "id": "17606",
                "name": "Asni\u00e8res-sur-Seine",
                "icon": 112
            },
            "geometry": {
                "type": "Point",
                "coordinates": [
                    2.29248,
                    48.91262
                ]
            }
        },
        {
            "type": "Feature",
            "properties": {
                "id": "17604",
                "name": "Asni\u00e8res-sur-Seine",
                "icon": 112
            },
            "geometry": {
                "type": "Point",
                "coordinates": [
                    2.27972,
                    48.93351
                ]
            }
        },
        {
            "type": "Feature",
            "properties": {
                "id": "17602",
                "name": "Asni\u00e8res-sur-Seine",
                "icon": 112
            },
            "geometry": {
                "type": "Point",
                "coordinates": [
                    2.26923,
                    48.90751
                ]
            }
        },
        {
            "type": "Feature",
            "properties": {
                "id": "17600",
                "name": "Asni\u00e8res-sur-Seine",
                "icon": 112
            },
            "geometry": {
                "type": "Point",
                "coordinates": [
                    2.27465,
                    48.90958
                ]
            }
        },
        {
            "type": "Feature",
            "properties": {
                "id": "17598",
                "name": "Asni\u00e8res-sur-Seine",
                "icon": 112
            },
            "geometry": {
                "type": "Point",
                "coordinates": [
                    2.27574,
                    48.9259
                ]
            }
        },
        {
            "type": "Feature",
            "properties": {
                "id": "17596",
                "name": "Colombes",
                "icon": 112
            },
            "geometry": {
                "type": "Point",
                "coordinates": [
                    2.25932,
                    48.92386
                ]
            }
        },
        {
            "type": "Feature",
            "properties": {
                "id": "17594",
                "name": "Paris 05e",
                "icon": 95
            },
            "geometry": {
                "type": "Point",
                "coordinates": [
                    2.34795,
                    48.85101
                ]
            }
        },
        {
            "type": "Feature",
            "properties": {
                "id": "17592",
                "name": "Paris 14e",
                "icon": 95
            },
            "geometry": {
                "type": "Point",
                "coordinates": [
                    2.30987,
                    48.82805
                ]
            }
        },
        {
            "type": "Feature",
            "properties": {
                "id": "17586",
                "name": "Paris 10e",
                "icon": 95
            },
            "geometry": {
                "type": "Point",
                "coordinates": [
                    2.35851,
                    48.87099
                ]
            }
        },
        {
            "type": "Feature",
            "properties": {
                "id": "17583",
                "name": "Paris 13e",
                "icon": 95
            },
            "geometry": {
                "type": "Point",
                "coordinates": [
                    2.37066,
                    48.83152
                ]
            }
        },
        {
            "type": "Feature",
            "properties": {
                "id": "17581",
                "name": "Yzeures-sur-Creuse",
                "icon": 47
            },
            "geometry": {
                "type": "Point",
                "coordinates": [
                    0.8701,
                    46.78584
                ]
            }
        },
        {
            "type": "Feature",
            "properties": {
                "id": "17579",
                "name": "Saint-Pierre-de-Maill\u00e9",
                "icon": 106
            },
            "geometry": {
                "type": "Point",
                "coordinates": [
                    0.84305,
                    46.67934
                ]
            }
        },
        {
            "type": "Feature",
            "properties": {
                "id": "17577",
                "name": "Poitiers",
                "icon": 106
            },
            "geometry": {
                "type": "Point",
                "coordinates": [
                    0.33898,
                    46.58162
                ]
            }
        },
        {
            "type": "Feature",
            "properties": {
                "id": "17575",
                "name": "Ch\u00e2tellerault",
                "icon": 106
            },
            "geometry": {
                "type": "Point",
                "coordinates": [
                    0.55642,
                    46.82497
                ]
            }
        },
        {
            "type": "Feature",
            "properties": {
                "id": "17573",
                "name": "Ch\u00e2tellerault",
                "icon": 106
            },
            "geometry": {
                "type": "Point",
                "coordinates": [
                    0.53655,
                    46.81505
                ]
            }
        },
        {
            "type": "Feature",
            "properties": {
                "id": "17564",
                "name": "Dreux",
                "icon": 38
            },
            "geometry": {
                "type": "Point",
                "coordinates": [
                    1.36912,
                    48.72444
                ]
            }
        },
        {
            "type": "Feature",
            "properties": {
                "id": "17562",
                "name": "Les Arcs",
                "icon": 103
            },
            "geometry": {
                "type": "Point",
                "coordinates": [
                    6.48237,
                    43.45566
                ]
            }
        },
        {
            "type": "Feature",
            "properties": {
                "id": "17560",
                "name": "Exoudun",
                "icon": 99
            },
            "geometry": {
                "type": "Point",
                "coordinates": [
                    -0.08048,
                    46.34413
                ]
            }
        },
        {
            "type": "Feature",
            "properties": {
                "id": "17553",
                "name": "Saint-Martin-de-Saint-Maixent",
                "icon": 99
            },
            "geometry": {
                "type": "Point",
                "coordinates": [
                    -0.17202,
                    46.39114
                ]
            }
        },
        {
            "type": "Feature",
            "properties": {
                "id": "17551",
                "name": "Exireuil",
                "icon": 99
            },
            "geometry": {
                "type": "Point",
                "coordinates": [
                    -0.19187,
                    46.43313
                ]
            }
        },
        {
            "type": "Feature",
            "properties": {
                "id": "17547",
                "name": "Nanteuil",
                "icon": 99
            },
            "geometry": {
                "type": "Point",
                "coordinates": [
                    -0.17474,
                    46.41189
                ]
            }
        },
        {
            "type": "Feature",
            "properties": {
                "id": "17545",
                "name": "Saint-Maixent-l'\u00c9cole",
                "icon": 99
            },
            "geometry": {
                "type": "Point",
                "coordinates": [
                    -0.20378,
                    46.41356
                ]
            }
        },
        {
            "type": "Feature",
            "properties": {
                "id": "17543",
                "name": "Poitiers",
                "icon": 106
            },
            "geometry": {
                "type": "Point",
                "coordinates": [
                    0.34178,
                    46.57351
                ]
            }
        },
        {
            "type": "Feature",
            "properties": {
                "id": "17537",
                "name": "Saint-Mesmin",
                "icon": 105
            },
            "geometry": {
                "type": "Point",
                "coordinates": [
                    -0.73262,
                    46.79265
                ]
            }
        },
        {
            "type": "Feature",
            "properties": {
                "id": "17535",
                "name": "Saint-Loup-Lamair\u00e9",
                "icon": 99
            },
            "geometry": {
                "type": "Point",
                "coordinates": [
                    -0.16649,
                    46.78728
                ]
            }
        },
        {
            "type": "Feature",
            "properties": {
                "id": "17533",
                "name": "Saint-G\u00e9n\u00e9roux",
                "icon": 99
            },
            "geometry": {
                "type": "Point",
                "coordinates": [
                    -0.13917,
                    46.88355
                ]
            }
        },
        {
            "type": "Feature",
            "properties": {
                "id": "17520",
                "name": "Irais",
                "icon": 99
            },
            "geometry": {
                "type": "Point",
                "coordinates": [
                    -0.09424,
                    46.87939
                ]
            }
        },
        {
            "type": "Feature",
            "properties": {
                "id": "17518",
                "name": "Moncontour",
                "icon": 106
            },
            "geometry": {
                "type": "Point",
                "coordinates": [
                    -0.02011,
                    46.88086
                ]
            }
        },
        {
            "type": "Feature",
            "properties": {
                "id": "17516",
                "name": "Ranton",
                "icon": 106
            },
            "geometry": {
                "type": "Point",
                "coordinates": [
                    -0.03144,
                    47.00157
                ]
            }
        },
        {
            "type": "Feature",
            "properties": {
                "id": "17505",
                "name": "Saumur",
                "icon": 59
            },
            "geometry": {
                "type": "Point",
                "coordinates": [
                    -0.08285,
                    47.27066
                ]
            }
        },
        {
            "type": "Feature",
            "properties": {
                "id": "17496",
                "name": "Chouppes",
                "icon": 106
            },
            "geometry": {
                "type": "Point",
                "coordinates": [
                    0.16339,
                    46.81154
                ]
            }
        },
        {
            "type": "Feature",
            "properties": {
                "id": "17493",
                "name": "Huismes",
                "icon": 47
            },
            "geometry": {
                "type": "Point",
                "coordinates": [
                    0.25149,
                    47.2323
                ]
            }
        },
        {
            "type": "Feature",
            "properties": {
                "id": "17491",
                "name": "Cheill\u00e9",
                "icon": 47
            },
            "geometry": {
                "type": "Point",
                "coordinates": [
                    0.46251,
                    47.25494
                ]
            }
        },
        {
            "type": "Feature",
            "properties": {
                "id": "17487",
                "name": "Saint-Georges-l\u00e8s-Baillargeaux",
                "icon": 106
            },
            "geometry": {
                "type": "Point",
                "coordinates": [
                    0.40554,
                    46.66915
                ]
            }
        },
        {
            "type": "Feature",
            "properties": {
                "id": "17485",
                "name": "Saint-Georges-l\u00e8s-Baillargeaux",
                "icon": 106
            },
            "geometry": {
                "type": "Point",
                "coordinates": [
                    0.40008,
                    46.66983
                ]
            }
        },
        {
            "type": "Feature",
            "properties": {
                "id": "17483",
                "name": "Chasseneuil-du-Poitou",
                "icon": 106
            },
            "geometry": {
                "type": "Point",
                "coordinates": [
                    0.37592,
                    46.65142
                ]
            }
        },
        {
            "type": "Feature",
            "properties": {
                "id": "17481",
                "name": "Langeais",
                "icon": 47
            },
            "geometry": {
                "type": "Point",
                "coordinates": [
                    0.40631,
                    47.32445
                ]
            }
        },
        {
            "type": "Feature",
            "properties": {
                "id": "17479",
                "name": "Saint-Yrieix-sur-Charente",
                "icon": 25
            },
            "geometry": {
                "type": "Point",
                "coordinates": [
                    0.14031,
                    45.66745
                ]
            }
        },
        {
            "type": "Feature",
            "properties": {
                "id": "17477",
                "name": "Saint-Yrieix-sur-Charente",
                "icon": 25
            },
            "geometry": {
                "type": "Point",
                "coordinates": [
                    0.11535,
                    45.68881
                ]
            }
        },
        {
            "type": "Feature",
            "properties": {
                "id": "17475",
                "name": "Chasseneuil-sur-Bonnieure",
                "icon": 25
            },
            "geometry": {
                "type": "Point",
                "coordinates": [
                    0.45097,
                    45.82501
                ]
            }
        },
        {
            "type": "Feature",
            "properties": {
                "id": "17473",
                "name": "Chaillac-sur-Vienne",
                "icon": 107
            },
            "geometry": {
                "type": "Point",
                "coordinates": [
                    0.87323,
                    45.87794
                ]
            }
        },
        {
            "type": "Feature",
            "properties": {
                "id": "17470",
                "name": "Saillat-sur-Vienne",
                "icon": 107
            },
            "geometry": {
                "type": "Point",
                "coordinates": [
                    0.81509,
                    45.87078
                ]
            }
        },
        {
            "type": "Feature",
            "properties": {
                "id": "17464",
                "name": "Peyrat-de-Bellac",
                "icon": 107
            },
            "geometry": {
                "type": "Point",
                "coordinates": [
                    1.03586,
                    46.14118
                ]
            }
        },
        {
            "type": "Feature",
            "properties": {
                "id": "17462",
                "name": "Berrie",
                "icon": 106
            },
            "geometry": {
                "type": "Point",
                "coordinates": [
                    -0.06941,
                    47.06762
                ]
            }
        },
        {
            "type": "Feature",
            "properties": {
                "id": "17439",
                "name": "Mouy",
                "icon": 80
            },
            "geometry": {
                "type": "Point",
                "coordinates": [
                    2.30581,
                    49.3229
                ]
            }
        },
        {
            "type": "Feature",
            "properties": {
                "id": "17437",
                "name": "Boran-sur-Oise",
                "icon": 80
            },
            "geometry": {
                "type": "Point",
                "coordinates": [
                    2.35935,
                    49.16708
                ]
            }
        },
        {
            "type": "Feature",
            "properties": {
                "id": "17433",
                "name": "Vineuil-Saint-Firmin",
                "icon": 80
            },
            "geometry": {
                "type": "Point",
                "coordinates": [
                    3.49133,
                    49.20029
                ]
            }
        },
        {
            "type": "Feature",
            "properties": {
                "id": "17431",
                "name": "Le Luc",
                "icon": 103
            },
            "geometry": {
                "type": "Point",
                "coordinates": [
                    6.31331,
                    43.39354
                ]
            }
        },
        {
            "type": "Feature",
            "properties": {
                "id": "17420",
                "name": "Rions",
                "icon": 43
            },
            "geometry": {
                "type": "Point",
                "coordinates": [
                    -0.35191,
                    44.66334
                ]
            }
        },
        {
            "type": "Feature",
            "properties": {
                "id": "17418",
                "name": "Arbanats",
                "icon": 43
            },
            "geometry": {
                "type": "Point",
                "coordinates": [
                    -0.39474,
                    44.67557
                ]
            }
        },
        {
            "type": "Feature",
            "properties": {
                "id": "17416",
                "name": "Avensan",
                "icon": 43
            },
            "geometry": {
                "type": "Point",
                "coordinates": [
                    -0.75549,
                    45.03459
                ]
            }
        },
        {
            "type": "Feature",
            "properties": {
                "id": "17414",
                "name": "Biganos",
                "icon": 43
            },
            "geometry": {
                "type": "Point",
                "coordinates": [
                    -0.96866,
                    44.63824
                ]
            }
        },
        {
            "type": "Feature",
            "properties": {
                "id": "17412",
                "name": "Biganos",
                "icon": 43
            },
            "geometry": {
                "type": "Point",
                "coordinates": [
                    -0.95487,
                    44.65006
                ]
            }
        },
        {
            "type": "Feature",
            "properties": {
                "id": "17410",
                "name": "Audenge",
                "icon": 43
            },
            "geometry": {
                "type": "Point",
                "coordinates": [
                    -1.01157,
                    44.68192
                ]
            }
        },
        {
            "type": "Feature",
            "properties": {
                "id": "17408",
                "name": "Artigues-pr\u00e8s-Bordeaux",
                "icon": 43
            },
            "geometry": {
                "type": "Point",
                "coordinates": [
                    -0.49562,
                    44.85745
                ]
            }
        },
        {
            "type": "Feature",
            "properties": {
                "id": "17406",
                "name": "Lormont",
                "icon": 43
            },
            "geometry": {
                "type": "Point",
                "coordinates": [
                    -0.51618,
                    44.86713
                ]
            }
        },
        {
            "type": "Feature",
            "properties": {
                "id": "17404",
                "name": "Nomeny",
                "icon": 74
            },
            "geometry": {
                "type": "Point",
                "coordinates": [
                    6.22735,
                    48.88888
                ]
            }
        },
        {
            "type": "Feature",
            "properties": {
                "id": "17402",
                "name": "Bi\u00e9ville-Beuville",
                "icon": 3
            },
            "geometry": {
                "type": "Point",
                "coordinates": [
                    -0.32824,
                    49.23967
                ]
            }
        },
        {
            "type": "Feature",
            "properties": {
                "id": "17400",
                "name": "Bourg-Saint-Bernard",
                "icon": 41
            },
            "geometry": {
                "type": "Point",
                "coordinates": [
                    1.71387,
                    43.60108
                ]
            }
        },
        {
            "type": "Feature",
            "properties": {
                "id": "17398",
                "name": "Bunzac",
                "icon": 25
            },
            "geometry": {
                "type": "Point",
                "coordinates": [
                    0.35173,
                    45.70231
                ]
            }
        },
        {
            "type": "Feature",
            "properties": {
                "id": "17396",
                "name": "Brulon",
                "icon": 92
            },
            "geometry": {
                "type": "Point",
                "coordinates": [
                    -0.23433,
                    47.96716
                ]
            }
        },
        {
            "type": "Feature",
            "properties": {
                "id": "17394",
                "name": "Buffard",
                "icon": 35
            },
            "geometry": {
                "type": "Point",
                "coordinates": [
                    5.82298,
                    47.03656
                ]
            }
        },
        {
            "type": "Feature",
            "properties": {
                "id": "17392",
                "name": "Brunstatt-Didenheim",
                "icon": 88
            },
            "geometry": {
                "type": "Point",
                "coordinates": [
                    7.31803,
                    47.72144
                ]
            }
        },
        {
            "type": "Feature",
            "properties": {
                "id": "17388",
                "name": "Bucamps",
                "icon": 80
            },
            "geometry": {
                "type": "Point",
                "coordinates": [
                    2.32352,
                    49.52233
                ]
            }
        },
        {
            "type": "Feature",
            "properties": {
                "id": "17385",
                "name": "Arradon",
                "icon": 76
            },
            "geometry": {
                "type": "Point",
                "coordinates": [
                    -2.85936,
                    47.62474
                ]
            }
        },
        {
            "type": "Feature",
            "properties": {
                "id": "17383",
                "name": "Pluneret",
                "icon": 76
            },
            "geometry": {
                "type": "Point",
                "coordinates": [
                    -2.89843,
                    47.69658
                ]
            }
        },
        {
            "type": "Feature",
            "properties": {
                "id": "17381",
                "name": "Sarzeau",
                "icon": 76
            },
            "geometry": {
                "type": "Point",
                "coordinates": [
                    -2.66929,
                    47.5181
                ]
            }
        },
        {
            "type": "Feature",
            "properties": {
                "id": "17379",
                "name": "Augan",
                "icon": 76
            },
            "geometry": {
                "type": "Point",
                "coordinates": [
                    -2.27784,
                    47.91959
                ]
            }
        },
        {
            "type": "Feature",
            "properties": {
                "id": "17377",
                "name": "Brignac",
                "icon": 76
            },
            "geometry": {
                "type": "Point",
                "coordinates": [
                    -2.38799,
                    48.12136
                ]
            }
        },
        {
            "type": "Feature",
            "properties": {
                "id": "17374",
                "name": "Lavoye",
                "icon": 75
            },
            "geometry": {
                "type": "Point",
                "coordinates": [
                    5.1376,
                    49.04551
                ]
            }
        },
        {
            "type": "Feature",
            "properties": {
                "id": "17370",
                "name": "Brey-et-Maison-du-Bois",
                "icon": 35
            },
            "geometry": {
                "type": "Point",
                "coordinates": [
                    6.25155,
                    46.74429
                ]
            }
        },
        {
            "type": "Feature",
            "properties": {
                "id": "17368",
                "name": "Brabant-le-Roi",
                "icon": 75
            },
            "geometry": {
                "type": "Point",
                "coordinates": [
                    4.98225,
                    48.84521
                ]
            }
        },
        {
            "type": "Feature",
            "properties": {
                "id": "17365",
                "name": "Bracieux",
                "icon": 51
            },
            "geometry": {
                "type": "Point",
                "coordinates": [
                    1.5426,
                    47.54877
                ]
            }
        },
        {
            "type": "Feature",
            "properties": {
                "id": "17363",
                "name": "Bourgnac",
                "icon": 34
            },
            "geometry": {
                "type": "Point",
                "coordinates": [
                    0.40222,
                    45.01565
                ]
            }
        },
        {
            "type": "Feature",
            "properties": {
                "id": "17361",
                "name": "Bouranton",
                "icon": 20
            },
            "geometry": {
                "type": "Point",
                "coordinates": [
                    4.18124,
                    48.31157
                ]
            }
        },
        {
            "type": "Feature",
            "properties": {
                "id": "17359",
                "name": "Bragny-sur-Sa\u00f4ne",
                "icon": 91
            },
            "geometry": {
                "type": "Point",
                "coordinates": [
                    5.03318,
                    46.91223
                ]
            }
        },
        {
            "type": "Feature",
            "properties": {
                "id": "17357",
                "name": "Boulancourt",
                "icon": 97
            },
            "geometry": {
                "type": "Point",
                "coordinates": [
                    2.43494,
                    48.25831
                ]
            }
        },
        {
            "type": "Feature",
            "properties": {
                "id": "17352",
                "name": "Bissy-sur-Fley",
                "icon": 91
            },
            "geometry": {
                "type": "Point",
                "coordinates": [
                    4.62224,
                    46.66052
                ]
            }
        },
        {
            "type": "Feature",
            "properties": {
                "id": "17350",
                "name": "Blesle",
                "icon": 53
            },
            "geometry": {
                "type": "Point",
                "coordinates": [
                    3.16877,
                    45.31845
                ]
            }
        },
        {
            "type": "Feature",
            "properties": {
                "id": "17336",
                "name": "Bitschwiller-l\u00e8s-Thann",
                "icon": 88
            },
            "geometry": {
                "type": "Point",
                "coordinates": [
                    7.07994,
                    47.82912
                ]
            }
        },
        {
            "type": "Feature",
            "properties": {
                "id": "17334",
                "name": "Blainville-sur-l'Eau",
                "icon": 74
            },
            "geometry": {
                "type": "Point",
                "coordinates": [
                    6.40888,
                    48.55539
                ]
            }
        },
        {
            "type": "Feature",
            "properties": {
                "id": "17332",
                "name": "Loire-Authion",
                "icon": 59
            },
            "geometry": {
                "type": "Point",
                "coordinates": [
                    -0.29312,
                    47.41051
                ]
            }
        },
        {
            "type": "Feature",
            "properties": {
                "id": "17330",
                "name": "Bezins-Garraux",
                "icon": 41
            },
            "geometry": {
                "type": "Point",
                "coordinates": [
                    0.68993,
                    42.9326
                ]
            }
        },
        {
            "type": "Feature",
            "properties": {
                "id": "17328",
                "name": "Bignan",
                "icon": 76
            },
            "geometry": {
                "type": "Point",
                "coordinates": [
                    -2.77439,
                    47.87949
                ]
            }
        },
        {
            "type": "Feature",
            "properties": {
                "id": "17326",
                "name": "Blangy-Tronville",
                "icon": 100
            },
            "geometry": {
                "type": "Point",
                "coordinates": [
                    2.42322,
                    49.88045
                ]
            }
        },
        {
            "type": "Feature",
            "properties": {
                "id": "17323",
                "name": "Berviller-en-Moselle",
                "icon": 77
            },
            "geometry": {
                "type": "Point",
                "coordinates": [
                    6.64769,
                    49.27033
                ]
            }
        },
        {
            "type": "Feature",
            "properties": {
                "id": "17321",
                "name": "Gr\u00e9sy-sur-Is\u00e8re",
                "icon": 93
            },
            "geometry": {
                "type": "Point",
                "coordinates": [
                    6.23917,
                    45.59722
                ]
            }
        },
        {
            "type": "Feature",
            "properties": {
                "id": "17319",
                "name": "Th\u00f4nes",
                "icon": 94
            },
            "geometry": {
                "type": "Point",
                "coordinates": [
                    6.32213,
                    45.88231
                ]
            }
        },
        {
            "type": "Feature",
            "properties": {
                "id": "17317",
                "name": "Le Bouchet-Mont-Charvin",
                "icon": 94
            },
            "geometry": {
                "type": "Point",
                "coordinates": [
                    6.36354,
                    45.79717
                ]
            }
        },
        {
            "type": "Feature",
            "properties": {
                "id": "17315",
                "name": "Parentis-en-Born",
                "icon": 50
            },
            "geometry": {
                "type": "Point",
                "coordinates": [
                    -1.10225,
                    44.3462
                ]
            }
        },
        {
            "type": "Feature",
            "properties": {
                "id": "17313",
                "name": "Sauvigny",
                "icon": 75
            },
            "geometry": {
                "type": "Point",
                "coordinates": [
                    5.7182,
                    48.4989
                ]
            }
        },
        {
            "type": "Feature",
            "properties": {
                "id": "17311",
                "name": "Challonges",
                "icon": 94
            },
            "geometry": {
                "type": "Point",
                "coordinates": [
                    5.82781,
                    46.01787
                ]
            }
        },
        {
            "type": "Feature",
            "properties": {
                "id": "17308",
                "name": "Neufchef",
                "icon": 77
            },
            "geometry": {
                "type": "Point",
                "coordinates": [
                    6.02231,
                    49.31387
                ]
            }
        },
        {
            "type": "Feature",
            "properties": {
                "id": "17301",
                "name": "M\u00e9cleuves",
                "icon": 77
            },
            "geometry": {
                "type": "Point",
                "coordinates": [
                    6.26381,
                    49.05874
                ]
            }
        },
        {
            "type": "Feature",
            "properties": {
                "id": "17294",
                "name": "Courcelles-sur-Nied",
                "icon": 77
            },
            "geometry": {
                "type": "Point",
                "coordinates": [
                    6.31132,
                    49.06396
                ]
            }
        },
        {
            "type": "Feature",
            "properties": {
                "id": "17290",
                "name": "Saint-Simon",
                "icon": 56
            },
            "geometry": {
                "type": "Point",
                "coordinates": [
                    1.85098,
                    44.69589
                ]
            }
        },
        {
            "type": "Feature",
            "properties": {
                "id": "17286",
                "name": "Blanquefort-sur-Briolance",
                "icon": 57
            },
            "geometry": {
                "type": "Point",
                "coordinates": [
                    0.97002,
                    44.60033
                ]
            }
        },
        {
            "type": "Feature",
            "properties": {
                "id": "17284",
                "name": "Rouen",
                "icon": 96
            },
            "geometry": {
                "type": "Point",
                "coordinates": [
                    1.09374,
                    49.44472
                ]
            }
        },
        {
            "type": "Feature",
            "properties": {
                "id": "17282",
                "name": "Mont-Saint-Aignan",
                "icon": 96
            },
            "geometry": {
                "type": "Point",
                "coordinates": [
                    1.07013,
                    49.46278
                ]
            }
        },
        {
            "type": "Feature",
            "properties": {
                "id": "17280",
                "name": "Grenoble",
                "icon": 48
            },
            "geometry": {
                "type": "Point",
                "coordinates": [
                    5.73504,
                    45.18771
                ]
            }
        },
        {
            "type": "Feature",
            "properties": {
                "id": "17277",
                "name": "Noailly",
                "icon": 52
            },
            "geometry": {
                "type": "Point",
                "coordinates": [
                    4.01259,
                    46.13533
                ]
            }
        },
        {
            "type": "Feature",
            "properties": {
                "id": "17275",
                "name": "Grenoble",
                "icon": 48
            },